Название,Название Кратко,ИНН,адрес,lat,lon,Код оквэд,Основной вид деятельности,Ссылка
"ОБЩЕСТВО С ОГРАНИЧЕННОЙ ОТВЕТСТВЕННОСТЬЮ ""ИНТЕХКОМ""",ООО ИНТЕХКОМ,2130167519,"428028, Чувашская Республика - Чувашия, г. Чебоксары, проспект Тракторостроителей, д. 70 к. 1 кв. 20", 56.105892, 47.326929,25.99.2,Производство прочих металлических изделий,https://spark-interfax.ru/chuvashskaya-respublika-chuvashiya-cheboksary/ooo-intekhkom-inn-2130167519-ogrn-1162130052545-865790c29fb64495a8891bead1799c67
"ОБЩЕСТВО С ОГРАНИЧЕННОЙ ОТВЕТСТВЕННОСТЬЮ ""ПРОФОБУВЬ""",ООО ПРОФОБУВЬ,2129004598,"428028, Чувашская Республика - Чувашия, г. Чебоксары, проспект Тракторостроителей, д. 121", 56.119444, 47.359240,15.20,Производство обуви,https://spark-interfax.ru/chuvashskaya-respublika-chuvashiya-cheboksary/ooo-profobuv-inn-2129004598-ogrn-1022101290177-d6b9d543fb90492d976a9f9b6f528bb9
"ОБЩЕСТВО С ОГРАНИЧЕННОЙ ОТВЕТСТВЕННОСТЬЮ ""АСАМАТ""",ООО АСАМАТ,2124035610,"429954, Чувашская Республика - Чувашия, г. Новочебоксарск, ул. Набережная, д. 40", 56.132993, 47.453082,68.20.2,Аренда и управление собственным или арендованным нежилым недвижимым имуществом,https://spark-interfax.ru/chuvashskaya-respublika-chuvashiya-novocheboksarsk/ooo-asamat-inn-2124035610-ogrn-1122124000503-5c044b6187b7427aa05539448f0df393
"СЕЛЬСКОХОЗЯЙСТВЕННЫЙ ПРОИЗВОДСТВЕННЫЙ КООПЕРАТИВ "" АВАНГАРД""",СХПК АВАНГАРД,2102000275,"429255, Чувашская Республика - Чувашия, Аликовский район, д. Верхние Карачуры, ул. Мира, д. 1", 55.681747, 46.875650,01.41,"Разведение молочного крупного рогатого скота, производство сырого молока",https://spark-interfax.ru/chuvashskaya-respublika-chuvashiya-alikovski-raion/koop-avangard-inn-2102000275-ogrn-1022102029564-92411234946c4314bcb5a24d639187ac
"РЕГИОНАЛЬНАЯ ОБЩЕСТВЕННАЯ ОРГАНИЗАЦИЯ ""ФЕДЕРАЦИЯ КОРЭШ ЧУВАШСКОЙ РЕСПУБЛИКИ""",РОО ФЕДЕРАЦИЯ КОРЭШ ЧУВАШСКОЙ РЕСПУБЛИКИ,1062100024150,"429360, Чувашская Республика - Чувашия, Батыревский район, с. Шыгырдан, ул. Ленина, д. 39", 55.041319, 47.536230,94.99,"Деятельность прочих общественных организаций и некоммерческих организаций, кроме религиозных и политических организаций",https://spark-interfax.ru/chuvashskaya-respublika-chuvashiya-batyrevski-raion/oo-federatsiya-koresh-chuvashskoi-respubliki-inn-2103903738-ogrn-1062100024150-6906d9b1d298226ae0531b9aa8c04bb6
"ОБЩЕСТВО С ОГРАНИЧЕННОЙ ОТВЕТСТВЕННОСТЬЮ ""АГРОФИРМА ""ПУТИЛОВКА""",ООО АГРОФИРМА ПУТИЛОВКА,2105004743,"429724, Чувашская Республика - Чувашия, Ибресинский район, д. Нижние Абакасы, ул. Ленина, д. 33Г", 55.409726, 47.091830,01.1,Выращивание однолетних культур,https://spark-interfax.ru/chuvashskaya-respublika-chuvashiya-ibresinski-raion/ooo-agrofirma-putilovka-inn-2105004743-ogrn-1072133000280-c2400e3e757040d5be287837c3bd1cca
СЕЛЬСКОХОЗЯЙСТВЕННЫЙ ПРОИЗВОДСТВЕННЫЙ КООПЕРАТИВ ИМ. ЛЕНИНА,СХПК ИМ. ЛЕНИНА,2121000545,"429281, Чувашская Республика - Чувашия, Янтиковский район, с. Турмыши, ул. Советская, д. 14", 55.519478, 47.666347,01.5,Смешанное сельское хозяйство,https://spark-interfax.ru/chuvashskaya-respublika-chuvashiya-yantikovski-raion/koop-lenina-inn-2121000545-ogrn-1022102229710-99f5a17c01b74554b15843977ef08841
СЕЛЬСКОХОЗЯЙСТВЕННЫЙ ПРОИЗВОДСТВЕННЫЙ КООПЕРАТИВ ИМЕНИ ЛЕНИНА,СХПК ИМЕНИ ЛЕНИНА,1022101830838,"429386, Чувашская Республика - Чувашия, Яльчикский район, с. Большие Яльчики", 55.171870, 48.055790,01.11,"Выращивание зерновых (кроме риса), зернобобовых культур и семян масличных культур",https://spark-interfax.ru/chuvashskaya-respublika-chuvashiya-yalchikski-raion/koop-imeni-lenina-inn-2120000253-ogrn-1022101830838-1b7236f2556748be95592d0c5020041f
"ОБЩЕСТВО С ОГРАНИЧЕННОЙ ОТВЕТСТВЕННОСТЬЮ НАУЧНО-ПРОИЗВОДСТВЕННОЕ ПРЕДПРИЯТИЕ ""ЭКРА""",ООО НПП ЭКРА,2126001172,"428020, Чувашская Республика - Чувашия, г. Чебоксары, проспект И.Я.Яковлева, д. 3 пом. 541", 56.112037, 47.258797,27.12,Производство электрической распределительной и регулирующей аппаратуры,https://spark-interfax.ru/chuvashskaya-respublika-chuvashiya-cheboksary/ooo-ekra-inn-2126001172-ogrn-1022101135726-5e6cb66b1a444cbc92d753901bbf1b97
"ЗАКРЫТОЕ АКЦИОНЕРНОЕ ОБЩЕСТВО ""РЕКОН""",ЗАО РЕКОН,2127321256,"428037, Чувашская Республика - Чувашия, г. Чебоксары, проезд Дорожный, д. 20 к. А", 56.112746, 47.311208,28.99.9,"Производство оборудования специального назначения, не включенного в другие группировки",https://spark-interfax.ru/chuvashskaya-respublika-chuvashiya-cheboksary/ao-rekon-inn-2127321256-ogrn-1022100966392-12b9589c9f2245c3905627cdc20ef96d
"ОБЩЕСТВО С ОГРАНИЧЕННОЙ ОТВЕТСТВЕННОСТЬЮ ""КОНСТРУКТОРСКОЕ БЮРО ЭЛЕКТРОАППАРАТУРЫ""",ООО КБЭА,2130147865,"428034, Чувашская Республика - Чувашия, г.о. город Чебоксары, г Чебоксары, ул Т.Кривова, зд. 13А", 56.145002, 47.191946,27.90,Производство прочего электрического оборудования,https://spark-interfax.ru/chuvashskaya-respublika-chuvashiya-cheboksary/ooo-kbea-inn-2130147865-ogrn-1142130017072-75590e5a7faa45d3ac760fc740c2713a
"ОБЩЕСТВО С ОГРАНИЧЕННОЙ ОТВЕТСТВЕННОСТЬЮ ""БИНИТА""",ООО БИНИТА,2130084005,"428017, Чувашская Республика - Чувашия, г. Чебоксары, ул. Т.Кривова, д. 4А пом. 204", 56.144641, 47.195760,14.13,Производство прочей верхней одежды,https://spark-interfax.ru/chuvashskaya-respublika-chuvashiya-cheboksary/ooo-binita-inn-2130084005-ogrn-1112130001323-ff0f61f4e1e840d68394ed45084f985f
"ОБЩЕСТВО С ОГРАНИЧЕННОЙ ОТВЕТСТВЕННОСТЬЮ ""ЖЕЛЕЗОБЕТОННЫЕ КОНСТРУКЦИИ № 9""",ООО ЖБК № 9,2129043580,"428037, Чувашская Республика - Чувашия, г. Чебоксары, проезд Кабельный, д. 5", 56.118352, 47.289703,23.61,Производство изделий из бетона для использования в строительстве,https://spark-interfax.ru/chuvashskaya-respublika-chuvashiya-cheboksary/ooo-zhbk-n-inn-2129043580-ogrn-1022101272995-d6dade7c278c42eb927439ed883e7ce8
"АКЦИОНЕРНОЕ ОБЩЕСТВО ""ЗАВОД ""ЭЛЕКТРОПРИБОР""",АО ЗАВОД ЭЛЕКТРОПРИБОР,2122000643,"429822, Чувашская Республика - Чувашия, г. Алатырь, пл. Октябрьской Революции, д. 23", 54.855575, 46.599206,27.12,Производство электрической распределительной и регулирующей аппаратуры,https://spark-interfax.ru/chuvashskaya-respublika-chuvashiya-alatyr/ao-zavod-elektropribor-inn-2122000643-ogrn-1022101628340-b8da95fbf5b3481286e765f075534e64
"ОБЩЕСТВО С ОГРАНИЧЕННОЙ ОТВЕТСТВЕННОСТЬЮ ""ДРИАДА-ЛЕСТНИЦЫ""",ООО ДРИАДА-ЛЕСТНИЦЫ,2111008584,"429570, Чувашская Республика - Чувашия, Мариинско-Посадский район, г. Мариинский Посад, ул. Котовского, д. 30", 56.120537, 47.703555,16.23,Производство прочих деревянных строительных конструкций и столярных изделий,https://spark-interfax.ru/chuvashskaya-respublika-chuvashiya-mariinsko-posadski-raion/ooo-driada-lestnitsy-inn-2111008584-ogrn-1132135000106-c904999261df42c2b3ed19f8bd2c3544
"АКЦИОНЕРНОЕ ОБЩЕСТВО ""ЧЕБОКСАРСКИЙ ЗАВОД ""МЕТАЛЛИСТ""",АО ЧЗМ,2129009042,"428023, Чувашская Республика - Чувашия, г. Чебоксары, ул. Гражданская, д. 77", 56.123100, 47.202083,25.62,Обработка металлических изделий механическая,https://spark-interfax.ru/chuvashskaya-respublika-chuvashiya-cheboksary/ao-chzm-inn-2129009042-ogrn-1022101269662-947e56300b1f4af08a316332f2c1f34b
"АКЦИОНЕРНОЕ ОБЩЕСТВО ""ЭЛЕКТРОАВТОМАТ""",АО ЭЛЕКТРОАВТОМАТ,2122000604,"429820, Чувашская Республика - Чувашия, г. Алатырь, ул. Б.Хмельницкого, д. 19А", 54.841351, 46.597939,30.30.5,Производство частей и принадлежностей летательных и космических аппаратов,https://spark-interfax.ru/chuvashskaya-respublika-chuvashiya-alatyr/ao-elektroavtomat-inn-2122000604-ogrn-1022101630561-d1ace8063f284d2e964b6889006647d0
"ОБЩЕСТВО С ОГРАНИЧЕННОЙ ОТВЕТСТВЕННОСТЬЮ ""СТАНКОПРОМ""",ООО СТАНКОПРОМ,2130150025,"428033, Чувашская Республика - Чувашия, г.о. город Чебоксары, г Чебоксары, ул Пирогова, д. 14, офис 14", 56.138017, 47.207756,28.41,Производство металлообрабатывающего оборудования,https://spark-interfax.ru/chuvashskaya-respublika-chuvashiya-cheboksary/ooo-stankoprom-inn-2130150025-ogrn-1152130001704-1be6cf9bc742435289cef6225bd2318f
"ОБЩЕСТВО С ОГРАНИЧЕННОЙ ОТВЕТСТВЕННОСТЬЮ ""РСТ""",ООО РСТ,2124046315,"429960, Чувашская Республика - Чувашия, г. Новочебоксарск, ул. 10 Пятилетки, д. 23 пом. 35", 56.107096, 47.455866,16.23,Производство прочих деревянных строительных конструкций и столярных изделий,https://spark-interfax.ru/chuvashskaya-respublika-chuvashiya-novocheboksarsk/ooo-rst-inn-2124046315-ogrn-1192130005693-88a8ff7897bf5927e0531b9aa8c0fea4
"ОБЩЕСТВО С ОГРАНИЧЕННОЙ ОТВЕТСТВЕННОСТЬЮ ""ДОМА""",ООО ДОМА,2130118857,"428003, Чувашская Республика - Чувашия, г.о. город Чебоксары, г Чебоксары, пр-д Кабельный, д. 5, помещ. 1", 56.118352, 47.289703,31.0,Производство мебели,https://spark-interfax.ru/chuvashskaya-respublika-chuvashiya-cheboksary/ooo-doma-inn-2130118857-ogrn-1132130005567-45a2c6715a794ddd9197348e50b6c0ea
"ОБЩЕСТВО С ОГРАНИЧЕННОЙ ОТВЕТСТВЕННОСТЬЮ ""КАНАШСКОЕ ПРЕДПРИЯТИЕ ""ОСНАСТКА""",ООО КАНАШСКОЕ ПРЕДПРИЯТИЕ ОСНАСТКА,2123008010,"429333, Чувашская Республика - Чувашия, м.о. Канашский, г Канаш, ул Фрунзе, зд. 6Ж", 55.501158, 47.469382,25.99,"Производство прочих готовых металлических изделий, не включенных в другие группировки",https://spark-interfax.ru/chuvashskaya-respublika-chuvashiya-kanash/ooo-kanashskoe-predpriyatie-osnastka-inn-2123008010-ogrn-1062134020277-95fb4cee1b1f4bd09ab6963845a2454c
"ОБЩЕСТВО С ОГРАНИЧЕННОЙ ОТВЕТСТВЕННОСТЬЮ ""КП ОСНАСТКА""",ООО КП ОСНАСТКА,2123019213,"429334, Чувашская Республика - Чувашия, г. Канаш, ул. 30 Лет Чувашии, д. 12 кв. 48", 55.510963, 47.510458,25.99,"Производство прочих готовых металлических изделий, не включенных в другие группировки",https://spark-interfax.ru/chuvashskaya-respublika-chuvashiya-kanash/ooo-kp-osnastka-inn-2123019213-ogrn-1172130009160-f67814feb77e4166b337f4ccf9f30910
"ОБЩЕСТВО С ОГРАНИЧЕННОЙ ОТВЕТСТВЕННОСТЬЮ ""РУБИН""",ООО РУБИН,2124024431,"429955, Чувашская Республика - Чувашия, г. Новочебоксарск, ул. Промышленная, д. 70", 56.094901, 47.511610,25.1,Производство строительных металлических конструкций и изделий,https://spark-interfax.ru/chuvashskaya-respublika-chuvashiya-novocheboksarsk/ooo-rubin-inn-2124024431-ogrn-1052124041683-ea47e0ddf4044290b9466cf1b994a288
"ОБЩЕСТВО С ОГРАНИЧЕННОЙ ОТВЕТСТВЕННОСТЬЮ ""РЕЛЕМАТИКА""",ООО РЕЛЕМАТИКА,2129041046,"428003, Чувашская Республика - Чувашия, г. Чебоксары, проспект И.Я.Яковлева, д. 1", 56.113621, 47.257719,27.12,Производство электрической распределительной и регулирующей аппаратуры,https://spark-interfax.ru/chuvashskaya-respublika-chuvashiya-cheboksary/ooo-relematika-inn-2129041046-ogrn-1022101276735-15b0c66ef67a4ba99d85849cae4a7cd3
"ОБЩЕСТВО С ОГРАНИЧЕННОЙ ОТВЕТСТВЕННОСТЬЮ ""ЛЕСПРОМ-2000""",ООО ЛЕСПРОМ-2000,2124017106,"429965, Чувашская Республика - Чувашия, г.о. город Новочебоксарск, г Новочебоксарск, ул Промышленная, влд. 23Л", 56.110023, 47.505713,16.10,Распиловка и строгание древесины,https://spark-interfax.ru/chuvashskaya-respublika-chuvashiya-novocheboksarsk/ooo-lesprom-inn-2124017106-ogrn-1022100906398-bda10e212b5e4654abcfc156c0bcbe96
"ОБЩЕСТВО С ОГРАНИЧЕННОЙ ОТВЕТСТВЕННОСТЬЮ ""КАНАШСКИЙ ВАГОНОСТРОИТЕЛЬНЫЙ ЗАВОД""",ООО КАВАЗ,2123023410,"429332, Чувашская Республика - Чувашия, м.о. Канашский, г Канаш, ул Ильича, д. 1А, стр. 4, помещ. 5, 8", 55.522300, 47.525950,30.20.33,"Производство несамоходных железнодорожных, трамвайных и прочих вагонов для перевозки грузов",https://spark-interfax.ru/chuvashskaya-respublika-chuvashiya-kanash/ooo-kavaz-inn-2123023410-ogrn-1202100003027-a3102a29761b663ae053189aa8c0b190
"ОБЩЕСТВО С ОГРАНИЧЕННОЙ ОТВЕТСТВЕННОСТЬЮ ""АДАРУ""",ООО АДАРУ,2130175510,"428024, Чувашская Республика - Чувашия, г. Чебоксары, проезд Гаражный, д. 5 пом. 2.3,2.5", 56.113041, 47.277030,13.92,"Производство готовых текстильных изделий, кроме одежды",https://spark-interfax.ru/chuvashskaya-respublika-chuvashiya-cheboksary/ooo-adaru-inn-2130175510-ogrn-1162130062082-9f7cf5322a674899a8683e8e87f92f9e
"ОБЩЕСТВО С ОГРАНИЧЕННОЙ ОТВЕТСТВЕННОСТЬЮ ""ЛЕСТОРГ""",ООО ЛЕСТОРГ,2124044639,"428003, Чувашская Республика - Чувашия, г.о. город Чебоксары, г Чебоксары, пр-кт Ленина, д. 7Б, кв. 13", 56.130189, 47.248968,16.10,Распиловка и строгание древесины,https://spark-interfax.ru/chuvashskaya-respublika-chuvashiya-novocheboksarsk/ooo-lestorg-inn-2124044639-ogrn-1172130017201-5ff4cddbdc9003b4e0531b9aa8c042d8
"АКЦИОНЕРНОЕ ОБЩЕСТВО ""АБС ЗЭИМ АВТОМАТИЗАЦИЯ""",АО АБС ЗЭИМ АВТОМАТИЗАЦИЯ,2128006240,"428003, Чувашская Республика - Чувашия, г. Чебоксары, проспект И.Я.Яковлева, д. 1", 56.113621, 47.257719,26.51.7,Производство приборов и аппаратуры для автоматического регулирования или управления,https://spark-interfax.ru/chuvashskaya-respublika-chuvashiya-cheboksary/ao-abs-zeim-avtomatizatsiya-inn-2128006240-ogrn-1022101130314-6384171eba124a6aae08cd6a2a194020
"ОБЩЕСТВО С ОГРАНИЧЕННОЙ ОТВЕТСТВЕННОСТЬЮ ""ПРОИЗВОДСТВЕННАЯ КОМПАНИЯ ""ЧЕБОКСАРСКИЙ АГРЕГАТНЫЙ ЗАВОД""",ООО ПК ЧАЗ,2130212659,"428003, Чувашская Республика - Чувашия, г. Чебоксары, проспект Мира, д. 1 каб. 410", 56.124318, 47.284550,29.32,Производство прочих комплектующих и принадлежностей для автотранспортных средств,https://spark-interfax.ru/chuvashskaya-respublika-chuvashiya-cheboksary/ooo-pk-chaz-inn-2130212659-ogrn-1192130008498-8eb57daf6e6c5e32e0531c9aa8c0bf86
"ОБЩЕСТВО С ОГРАНИЧЕННОЙ ОТВЕТСТВЕННОСТЬЮ ""КОМПЛЕКСНЫЙ ЗАВОД СПЕЦИАЛИЗИРОВАННОЙ ПРОДУКЦИИ""",ООО КЗСП,2123023770,"428028, Чувашская Республика - Чувашия, г.о. город Чебоксары, г Чебоксары, пр-кт Тракторостроителей, зд. 113И", 56.112185, 47.328073,20.16,Производство пластмасс и синтетических смол в первичных формах,https://spark-interfax.ru/chuvashskaya-respublika-chuvashiya-cheboksary/ooo-kzsp-inn-2123023770-ogrn-1202100004985-aac3969adbbc3b41e053189aa8c0feee
"ОБЩЕСТВО С ОГРАНИЧЕННОЙ ОТВЕТСТВЕННОСТЬЮ ""СТРОЙАВТОХОЗЯЙСТВО""",ООО СТРОЙАВТОХОЗЯЙСТВО,2130097043,"428024, Чувашская Республика - Чувашия, г. Чебоксары, проспект Мира, д. 62Б", 56.114355, 47.267879,16.10,Распиловка и строгание древесины,https://spark-interfax.ru/chuvashskaya-respublika-chuvashiya-cheboksary/ooo-stroiavtokhozyaistvo-inn-2130097043-ogrn-1112130016272-4e5bf819616a41dca0a65c3994870a58
"СЕЛЬСКОХОЗЯЙСТВЕННЫЙ ПРОИЗВОДСТВЕННЫЙ КООПЕРАТИВ ""СЕМЕНОВСКИЙ""",СПК СЕМЕНОВСКИЙ,1022103032160,"429024, Чувашская Республика - Чувашия, Порецкий район, с. Семеновское, ул. Азина, д. 6", 55.198945, 46.326184,01.1,Выращивание однолетних культур,https://spark-interfax.ru/chuvashskaya-respublika-chuvashiya-poretski-raion/koop-semenovski-inn-2113000260-ogrn-1022103032160-c47bd6bccc9b4597af98cff008a9bee6
"ОБЩЕСТВО С ОГРАНИЧЕННОЙ ОТВЕТСТВЕННОСТЬЮ АГРОФИРМА ""АК БАРС""",ООО АГРОФИРМА АК БАРС,2108007534,"429140, Чувашская Республика - Чувашия, Комсомольский район, с. Комсомольское, ул. Куйбышева, д. 15", 55.258677, 47.544190,01.1,Выращивание однолетних культур,https://spark-interfax.ru/chuvashskaya-respublika-chuvashiya-komsomolski-raion/ooo-ak-bars-inn-2108007534-ogrn-1092132000300-7e651f9ff0cc49a9bbd5420cf9b1daa0
"СЕЛЬСКОХОЗЯЙСТВЕННЫЙ ПРОИЗВОДСТВЕННЫЙ КООПЕРАТИВ ""ШИГАЛИ""",СХПК ШИГАЛИ,2114000424,"429402, Чувашская Республика - Чувашия, Урмарский район, с. Шигали, ул. Гагарина, д. 7", 55.554101, 48.032485,01.50,Смешанное сельское хозяйство,https://spark-interfax.ru/chuvashskaya-respublika-chuvashiya-urmarski-raion/koop-shigali-inn-2114000424-ogrn-1022102833191-8b512df60018449f9d56319005c98b80
"СЕЛЬСКОХОЗЯЙСТВЕННЫЙ ПОТРЕБИТЕЛЬСКИЙ ОБСЛУЖИВАЮЩИЙ КООПЕРАТИВ ""АНАТКАС""",СПОК АНАТКАС,2106007296,"429312, Чувашская Республика - Чувашия, Канашский район, д. Сеспель, ул. Школьная, д. 62", 55.600405, 47.302727,01.11,"Выращивание зерновых (кроме риса), зернобобовых культур и семян масличных культур",https://spark-interfax.ru/chuvashskaya-respublika-chuvashiya-kanashski-raion/pk-anatkas-inn-2106007296-ogrn-1082134000926-6906d9b1ddf5226ae0531b9aa8c04bb6
"ГАРАЖНЫЙ КООПЕРАТИВ ""СВЕТ"" ПО СТРОИТЕЛЬСТВУ И ЭКСПЛУАТАЦИИ КОЛЛЕКТИВНОГО ГАРАЖА-СТОЯНКИ ДЛЯ АВТОМОТОТРАНСПОРТА",ГАРАЖНЫЙ КООПЕРАТИВ СВЕТ ПО СТРОИТЕЛЬСТВУ И ЭКСПЛУАТАЦИИ КОЛЛЕКТИВНОГО ГАРАЖА-СТОЯНКИ ДЛЯ АВТОМОТОТРАНСПОРТА,1102134000044,"429335, Чувашская Республика - Чувашия, г. Канаш, ул. Красноармейская, д. 72", 55.507701, 47.472239,52.21.24,Деятельность стоянок для транспортных средств,https://spark-interfax.ru/chuvashskaya-respublika-chuvashiya-kanash/gsk-svet-po-stroitelstvu-i-ekspluatatsii-kollektivnogo-garazha-stoyanki-dlya-avtomototransporta-inn-2123011422-ogrn-11021-6906d9b1e366226ae0531b9aa8c04bb6
"ОБЩЕСТВО С ОГРАНИЧЕННОЙ ОТВЕТСТВЕННОСТЬЮ ""ГЕРОЙ""",ООО ГЕРОЙ,2119006074,"429067, Чувашская Республика - Чувашия, Ядринский район, с. Большое Чурашево, ул. 40 Лет Победы, д. 39", 55.922511, 46.478618,01.50,Смешанное сельское хозяйство,https://spark-interfax.ru/chuvashskaya-respublika-chuvashiya-yadrinski-raion/ooo-geroi-inn-2119006074-ogrn-1152138000057-dccd1aa07ac942faa9912578d97ff606
"ОБЩЕСТВО С ОГРАНИЧЕННОЙ ОТВЕТСТВЕННОСТЬЮ ""ТОРГОВЫЙ ДОМЪ ХОРОШАВИНА АНДРЕЯ ВАСИЛЬЕВИЧА""",ООО ТД ХОРОШАВИНА А.В.,2115005489,"429904, Чувашская Республика - Чувашия, Цивильский район, д. Вторые Вурманкасы, ул. Центральная, д. 11", 55.866107, 47.473703,01.11,"Выращивание зерновых (кроме риса), зернобобовых культур и семян масличных культур",https://spark-interfax.ru/chuvashskaya-respublika-chuvashiya-tsivilski-raion/ooo-td-khoroshavina-a-v-inn-2115005489-ogrn-1152137030210-90fd10b34920479e96f12771766cea3b
"ОБЩЕСТВО С ОГРАНИЧЕННОЙ ОТВЕТСТВЕННОСТЬЮ СЕЛЬСКОХОЗЯЙСТВЕННОЕ ПРЕДПРИЯТИЕ ""ЮРЕЕВО""",ООО СХП ЮРЕЕВО,6381010359,"446802, Самарская обл., Кошкинский район, с. Надеждино, ул. Центральная, зд. 52 каб. 9", 54.112628, 50.369621,01.42.1,"Разведение мясного и прочего крупного рогатого скота, включая буйволов, яков и др.",https://spark-interfax.ru/samarskaya-oblast-koshkinski-raion/ooo-yureevo-inn-6381010359-ogrn-1056381017329-5fb4d66c6e134016b1558eb47c643823
"ТОВАРИЩЕСТВО НА ВЕРЕ АГРОФИРМА "" АЛЕКСАНДРОВСКАЯ """,ТВ АЛЕКСАНДРОВСКАЯ,1318107928,"431568, Мордовия респ., Старошайговский район, с. Новая Александровка", 54.503948, 44.432167,99999,99999,https://spark-interfax.ru/mordoviya-respublika-staroshaigovski-raion/tv-aleksandrovskaya-inn-1318107928-ogrn-1021300768180-617889a838ac7e1ce0531b9aa8c027ab
"ПОТРЕБИТЕЛЬСКОЕ ОБЩЕСТВО ""ТРОИЦКОЕ СЕЛЬСКОЕ ПОТРЕБИТЕЛЬСКОЕ ОБЩЕСТВО""",ТРОИЦКОЕ СЕЛЬПО,6330047512,"446231, Самарская обл., г. Чапаевск, ул. Ватутина, д. 1А кв. 14", 52.954677, 49.693168,46.21.11,Торговля оптовая зерном,https://spark-interfax.ru/samarskaya-oblast-chapaevsk/pob-troitskoe-selpo-inn-6330047512-ogrn-1116330001347-6906d9593615226ae0531b9aa8c04bb6
"КРЕСТЬЯНСКОЕ (ФЕРМЕРСКОЕ) ХОЗЯЙСТВО ""БАРАКАТ""",К(Ф)Х БАРАКАТ,1216300041451,"446870, Самарская обл, м.р-н Елховский, с.п. Никитинка, д Горностаевка, ул Центральная, д. 6", 53.888587, 50.321642,01.42,"Разведение прочих пород крупного рогатого скота и буйволов, производство спермы",https://spark-interfax.ru/samarskaya-oblast-elkhovski-raion/kfkh-k-f-kh-barakat-inn-6376029851-ogrn-1216300041451-cbc486752f933d23e053219aa8c0222b
"ОБЩЕСТВО С ОГРАНИЧЕННОЙ ОТВЕТСТВЕННОСТЬЮ ""ДОРОЖНОЕ СТРОИТЕЛЬСТВО""",ООО ДОРСТРОЙ,6325077600,"446730, Самарская обл, м.р-н Шигонский, с.п. Муранка, с Муранка, ул Ульяновская, д. 6", 53.328598, 48.794139,23.99.2,Производство изделий из асфальта или аналогичных материалов,https://spark-interfax.ru/samarskaya-oblast-shigonski-raion/ooo-dorstroi-inn-6325077600-ogrn-1226300004853-d751acbcb09d1b79e053259aa8c041b4
"ОБЩЕСТВО С ОГРАНИЧЕННОЙ ОТВЕТСТВЕННОСТЬЮ ""ЭЛЕКТРОАППАРАТ""",ООО ЭЛЕКТРОАППАРАТ,6312147088,"443048, Самарская обл, г.о. Самара, вн.р-н Красноглинский, п Красная Глинка, ул Жигули, д. 61, офис 1", 53.384603, 50.166682,27.12,Производство электрической распределительной и регулирующей аппаратуры,https://spark-interfax.ru/samarskaya-oblast-samara/ooo-elektroapparat-inn-6312147088-ogrn-1156312002021-232e2e89f3ad46ceb9d2f269bcd2d0ac
"ГОСУДАРСТВЕННОЕ КАЗЁННОЕ УЧРЕЖДЕНИЕ САМАРСКОЙ ОБЛАСТИ ""ЧАПАЕВСКИЙ РЕАБИЛИТАЦИОННЫЙ ЦЕНТР ДЛЯ ДЕТЕЙ И ПОДРОСТКОВ С ОГРАНИЧЕННЫМИ ВОЗМОЖНОСТЯМИ ""НАДЕЖДА""",ГКУ СО ЧАПАЕВСКИЙ РЦДИПОВ НАДЕЖДА,1036301510079,"446115, Самарская обл., г. Чапаевск, ул. Ярославская, д. 9", 52.956688, 49.686062,87.90,Деятельность по уходу с обеспечением проживания прочая,https://spark-interfax.ru/samarskaya-oblast-chapaevsk/gku-chapaevski-rtsdipov-nadezhda-inn-6335002402-ogrn-1036301510079-6906d9585e92226ae0531b9aa8c04bb6
"ОБЩЕСТВО С ОГРАНИЧЕННОЙ ОТВЕТСТВЕННОСТЬЮ ""СТРОЙОСНАЩЕНИЕ""",ООО СО,6316170391,"446410, Самарская обл., Кинельский район, пос. Кинельский, ул. Светлая, д. 1А", 53.251322, 50.650036,46.73.6,Торговля оптовая прочими строительными материалами и изделиями,https://spark-interfax.ru/samarskaya-oblast-kinelski-raion/ooo-so-inn-6316170391-ogrn-1116316010051-f0136cdaf76a493180f22a0df12c0df2
"КРЕСТЬЯНСКОЕ (ФЕРМЕРСКОЕ) ХОЗЯЙСТВО ""ТЕПЛЫЙ ДОЛ""",КФХ ТЕПЛЫЙ ДОЛ,1226300019395,"446166, Самарская обл, м.р-н Пестравский, с.п. Мосты, с Мосты, ул Республиканская, д. 6, кв. 2", 52.307761, 49.813221,01.42.11,"Разведение мясного и прочего крупного рогатого скота, включая буйволов, яков и др., на мясо",https://spark-interfax.ru/samarskaya-oblast-pestravski-raion/kfkh-teply-dol-inn-6375006450-ogrn-1226300019395-ddeb7955f2b93cf2e053259aa8c0dcbb
"ОБЩЕСТВО С ОГРАНИЧЕННОЙ ОТВЕТСТВЕННОСТЬЮ ""АЛЬФА""",ООО АЛЬФА,6321195634,"445032, Самарская обл., г. Тольятти, ул. Заставная, зд. 24", 53.545825, 49.265058,45.20.2,Техническое обслуживание и ремонт прочих автотранспортных средств,https://spark-interfax.ru/samarskaya-oblast-tolyatti/ooo-alfa-inn-6321195634-ogrn-1076320023944-0d488a909647470487cb56568b586d0f
"ФЕДЕРАЛЬНОЕ ГОСУДАРСТВЕННОЕ БЮДЖЕТНОЕ ДОШКОЛЬНОЕ ОБРАЗОВАТЕЛЬНОЕ УЧРЕЖДЕНИЕ ""ДЕТСКИЙ САД ""ВОЛЖСКИЙ УТЕС"" УПРАВЛЕНИЯ ДЕЛАМИ ПРЕЗИДЕНТА РОССИЙСКОЙ ФЕДЕРАЦИИ",ФГБДОУ ДЕТСКИЙ САД ВОЛЖСКИЙ УТЕС,1036301250424,"446740, Самарская обл., Шигонский район, пос. Волжский Утес", 53.378960, 49.090317,85.11,Образование дошкольное,https://spark-interfax.ru/samarskaya-oblast-shigonski-raion/fgbu-detski-sad-volzhski-utes-inn-6387002555-ogrn-1036301250424-6906d95869ed226ae0531b9aa8c04bb6
"ОБЩЕСТВО С ОГРАНИЧЕННОЙ ОТВЕТСТВЕННОСТЬЮ ""ПРОГРЕСС""",ООО ПРОГРЕСС,6361007816,"446646, Самарская обл., Алексеевский район, с. Несмеяновка, ул. Ленинская", 52.611466, 51.103532,01.11,"Выращивание зерновых (кроме риса), зернобобовых культур и семян масличных культур",https://spark-interfax.ru/samarskaya-oblast-alekseevski-raion/ooo-progress-inn-6361007816-ogrn-1046303052135-72773f3983c9408db0e25e30746ac5e5
"АКЦИОНЕРНОЕ ОБЩЕСТВО ""СУРГУТСКОЕ""",АО СУРГУТСКОЕ,6381000488,"446553, Самарская обл., Сергиевский район, пгт. Суходол, ул. Симиренко, д. 1А", 53.888447, 51.221160,01.25.1,Выращивание прочих плодовых и ягодных культур,https://spark-interfax.ru/samarskaya-oblast-sergievski-raion/ao-surgutskoe-inn-6381000488-ogrn-1036303162092-f874853e6bdd4b5f9fab3440ceb68963
"ОБЩЕСТВО С ОГРАНИЧЕННОЙ ОТВЕТСТВЕННОСТЬЮ ПЛОДОПИТОМНИК ""СЫЗРАНСКИЙ""",ООО ПЛОДОПИТОМНИК СЫЗРАНСКИЙ,6318015345,"446078, Самарская обл., Сызранский район, пос. Кошелевка, пер. Южный, д. 1А офис 3", 53.244408, 48.530671,01.30,Выращивание рассады,https://spark-interfax.ru/samarskaya-oblast-syzranski-raion/ooo-syzranski-inn-6318015345-ogrn-1166313100370-d30654197bbe49c9a9f439cdc946b295
"ОБЩЕСТВО С ОГРАНИЧЕННОЙ ОТВЕТСТВЕННОСТЬЮ ""НТЦ ЕВРОВЕНТ""",ООО НТЦ ЕВРОВЕНТ,6324080600,"445007, Самарская обл., г. Тольятти, ул. Ларина, д. 139 стр. 9 офис 203", 53.535199, 49.433532,28.25,Производство промышленного холодильного и вентиляционного оборудования,https://spark-interfax.ru/samarskaya-oblast-tolyatti/ooo-ntts-evrovent-inn-6324080600-ogrn-1176313030387-e45b59327814477b8637190df2b0607f
"ФЕДЕРАЛЬНОЕ ГОСУДАРСТВЕННОЕ БЮДЖЕТНОЕ ОБРАЗОВАТЕЛЬНОЕ УЧРЕЖДЕНИЕ ВЫСШЕГО ОБРАЗОВАНИЯ ""САМАРСКИЙ ГОСУДАРСТВЕННЫЙ АГРАРНЫЙ УНИВЕРСИТЕТ""",ФГБОУ ВО САМАРСКИЙ ГАУ; САМАРСКИЙ ГАУ; САМГАУ,1026303273061,"446442, Самарская обл., г. Кинель, пгт. Усть-Кинельский, ул. Учебная, домовладение 2", 53.266724, 50.577433,85.22,Образование высшее,https://spark-interfax.ru/samarskaya-oblast-kinel/fgbu-fgbou-vo-samarski-gau-samarski-gau-samgau-inn-6350000865-ogrn-1026303273061-6906d9584bc8226ae0531b9aa8c04bb6
ФЕДЕРАЛЬНОЕ БЮДЖЕТНОЕ УЧРЕЖДЕНИЕ САМАРСКАЯ ЛАБОРАТОРИЯ СУДЕБНОЙ ЭКСПЕРТИЗЫ МИНИСТЕРСТВА ЮСТИЦИИ РОССИЙСКОЙ ФЕДЕРАЦИИ,ФБУ САМАРСКАЯ ЛСЭ МИНЮСТА РОССИИ,1026301164559,"443080, Самарская обл., г. Самара, проезд 3-Й, д. 55", 53.207322, 50.181689,71.20.2,Судебно-экспертная деятельность,https://spark-interfax.ru/samarskaya-oblast-samara/fgbu-samarskaya-lse-minyusta-rossii-inn-6316028356-ogrn-1026301164559-6906d9584cc4226ae0531b9aa8c04bb6
"АКЦИОНЕРНОЕ ОБЩЕСТВО ""САМАРА - ГОРОДСКИЕ ИНФОРМАЦИОННЫЕ СИСТЕМЫ""",АО САМАРА - ГИС,6319693946,"443086, Самарская обл, г.о. Самара, вн.р-н Октябрьский, г Самара, ул Ерошевского, д. 18, помещ. 1-30 (ЭТАЖ №1), 1-24 (ЭТАЖ №2)", 53.216107, 50.161068,60.20,Деятельность в области телевизионного вещания,https://spark-interfax.ru/samarskaya-oblast-samara/ao-samara-gis-inn-6319693946-ogrn-1076319016960-7a99ff6857404171ab9ae6c3c5e88d67
"ФЕДЕРАЛЬНОЕ ГОСУДАРСТВЕННОЕ БЮДЖЕТНОЕ УЧРЕЖДЕНИЕ ""САНАТОРИЙ ""ВОЛЖСКИЙ УТЕС"" ИМЕНИ АКАДЕМИКА Е.И. ЧАЗОВА"" УПРАВЛЕНИЯ ДЕЛАМИ ПРЕЗИДЕНТА РОССИЙСКОЙ ФЕДЕРАЦИИ",ФГБУ САНАТОРИЙ ВОЛЖСКИЙ УТЕС ИМЕНИ АКАДЕМИКА Е.И. ЧАЗОВА,1026303059210,"446740, Самарская обл, м.р-н Шигонский, с.п. Волжский Утес, тер. санатория, ул Курортная, стр. 1", 53.387000, 48.678200,86.90.4,Деятельность санаторно-курортных организаций,https://spark-interfax.ru/samarskaya-oblast-shigonski-raion/fgbu-sanatori-volzhski-utes-imeni-akademika-e-i-chazova-inn-6387002139-ogrn-1026303059210-6906d9584d54226ae0531b9aa8c04bb6
"ФЕДЕРАЛЬНОЕ ГОСУДАРСТВЕННОЕ БЮДЖЕТНОЕ ОБРАЗОВАТЕЛЬНОЕ УЧРЕЖДЕНИЕ ВЫСШЕГО ОБРАЗОВАНИЯ ""ПОВОЛЖСКИЙ ГОСУДАРСТВЕННЫЙ УНИВЕРСИТЕТ ТЕЛЕКОММУНИКАЦИЙ И ИНФОРМАТИКИ""","ФГБОУ ВО ПГУТИ, ПГУТИ",1026301421992,"443010, Самарская обл., г. Самара, ул. Льва Толстого, д. 23", 53.192160, 50.092335,85.22,Образование высшее,https://spark-interfax.ru/samarskaya-oblast-samara/fgbu-fgbou-vo-pguti-pguti-inn-6317017702-ogrn-1026301421992-6906d9584bf1226ae0531b9aa8c04bb6
"ФЕДЕРАЛЬНОЕ ГОСУДАРСТВЕННОЕ БЮДЖЕТНОЕ УЧРЕЖДЕНИЕ САНАТОРИЙ ""ЛЕСНОЕ"" МИНИСТЕРСТВА ЗДРАВООХРАНЕНИЯ РОССИЙСКОЙ ФЕДЕРАЦИИ",ФГБУ САНАТОРИЙ ЛЕСНОЕ МИНЗДРАВА РОССИИ,1036301063501,"445003, Самарская обл., г. Тольятти, шоссе Лесопарковое, зд. 2", 53.501212, 49.354367,86.90.4,Деятельность санаторно-курортных организаций,https://spark-interfax.ru/samarskaya-oblast-tolyatti/fgbu-lesnoe-minzdrava-rossii-inn-6323000016-ogrn-1036301063501-6906d95866c7226ae0531b9aa8c04bb6
"ОБЩЕСТВО С ОГРАНИЧЕННОЙ ОТВЕТСТВЕННОСТЬЮ ""АГРОТЕХС""",ООО АГРОТЕХС,6375191851,"446271, Самарская обл., Большечерниговский район, д. Утекаево, ул. Речная, д. 13", 52.202515, 50.852011,01.11.1,Выращивание зерновых культур,https://spark-interfax.ru/samarskaya-oblast-bolshechernigovski-raion/ooo-agrotekhs-inn-6375191851-ogrn-1066375005971-aba9d174d2f44eb2ba512b7d746a0480
"ОБЩЕСТВО С ОГРАНИЧЕННОЙ ОТВЕТСТВЕННОСТЬЮ ""СХПК ""МУРАТЫ""",ООО СХПК МУРАТЫ,2104008946,"429203, Чувашская Республика - Чувашия, м.о. Вурнарский, д Синьял-Яуши, ул Рахманы, зд. 24", 55.664176, 47.049338,01.11,"Выращивание зерновых (кроме риса), зернобобовых культур и семян масличных культур",https://spark-interfax.ru/chuvashskaya-respublika-chuvashiya-vurnarski-raion/ooo-skhpk-muraty-inn-2104008946-ogrn-1222100003212-c827903080dd4967823700885404ecdb
"ОБЩЕСТВО С ОГРАНИЧЕННОЙ ОТВЕТСТВЕННОСТЬЮ ""ЦИВИЛЬ""",ООО ЦИВИЛЬ,2106006052,"429308, Чувашская Республика - Чувашия, Канашский район, д. Байгильдино, ул. Волкова, д. 38", 55.528940, 47.339706,01.11.1,Выращивание зерновых культур,https://spark-interfax.ru/chuvashskaya-respublika-chuvashiya-kanashski-raion/ooo-tsivil-inn-2106006052-ogrn-1042134004110-258155442d5c475a8d1c00a2919d045e
СЕЛЬСКОХОЗЯЙСТВЕННЫЙ ПРОИЗВОДСТВЕННЫЙ КООПЕРАТИВ ИМ.КИРОВА,СХПК ИМ.КИРОВА,2106000332,"429310, Чувашская Республика - Чувашия, Канашский район, д. Атнашево, шоссе Ульяновское, д. 1", 55.582612, 47.447353,01.41,"Разведение молочного крупного рогатого скота, производство сырого молока",https://spark-interfax.ru/chuvashskaya-respublika-chuvashiya-kanashski-raion/koop-im-kirova-inn-2106000332-ogrn-1022102230754-4c0b6dd48a4f478f846da9085fe52b24
"ОБЩЕСТВО С ОГРАНИЧЕННОЙ ОТВЕТСТВЕННОСТЬЮ ""ПЛЕМЕННОЙ ПТИЦЕВОДЧЕСКИЙ ЗАВОД ""КАНАШСКИЙ""",ООО ППЗ КАНАШСКИЙ,2106010718,"429333, Чувашская Республика - Чувашия, Канашский район, д. Кармамеи, шоссе Ибресинское, д. 1", 55.499053, 47.393636,01.47,Разведение сельскохозяйственной птицы,https://spark-interfax.ru/chuvashskaya-respublika-chuvashiya-kanashski-raion/ooo-ppz-kanashski-inn-2106010718-ogrn-1202100005040-69caa25dc29443c98f5362f0c272494f
"ОБЩЕСТВО С ОГРАНИЧЕННОЙ ОТВЕТСТВЕННОСТЬЮ АГРОФИРМА "" САНАРЫ """,ООО АГРОФИРМА САНАРЫ,2104004846,"429220, Чувашская Республика - Чувашия, м.о. Вурнарский, д Новые Яхакасы, ул 40 лет Победы, зд. 1Д", 55.508742, 46.982887,01.13.3,Выращивание столовых корнеплодных и клубнеплодных культур с высоким содержанием крахмала или инулина,https://spark-interfax.ru/chuvashskaya-respublika-chuvashiya-vurnarski-raion/ooo-sanary-inn-2104004846-ogrn-1022102031160-2b31676b2c5b451bba10d31b399cd8f1
"ОБЩЕСТВО С ОГРАНИЧЕННОЙ ОТВЕТСТВЕННОСТЬЮ ""НЕКТАР""",ООО НЕКТАР,2106005429,"429313, Чувашская Республика - Чувашия, Канашский район, д. Вурман-Янишево, ул. Лесная, д. 10", 55.621174, 47.221332,01.1,Выращивание однолетних культур,https://spark-interfax.ru/chuvashskaya-respublika-chuvashiya-kanashski-raion/ooo-nektar-inn-2106005429-ogrn-1032134000414-c7c09c7bd9774d2f9f2e33417fd16ac9
"ОБЩЕСТВО С ОГРАНИЧЕННОЙ ОТВЕТСТВЕННОСТЬЮ""АГРОХМЕЛЬ""",ОООАГРОХМЕЛЬ,2104006120,"429209, Чувашская Республика - Чувашия, м.о. Вурнарский, д Одиково, ул Советская, зд. 40А", 55.417435, 46.996063,01.11,"Выращивание зерновых (кроме риса), зернобобовых культур и семян масличных культур",https://spark-interfax.ru/chuvashskaya-respublika-chuvashiya-vurnarski-raion/ooo-agrokhmel-inn-2104006120-ogrn-1042133000964-d93eaf28cb904588830ed7db5af0aa9c
"СЕЛЬСКОХОЗЯЙСТВЕННЫЙ ПРОИЗВОДСТВЕННЫЙ КООПЕРАТИВ "" ПОБЕДА """,СХПК ПОБЕДА,1022102031192,"429235, Чувашская Республика - Чувашия, Вурнарский район, д. Хирпоси, ул. Советская, д. 37", 55.512577, 47.137465,01.11.1,Выращивание зерновых культур,https://spark-interfax.ru/chuvashskaya-respublika-chuvashiya-vurnarski-raion/koop-pobeda-inn-2104000143-ogrn-1022102031192-dd3e2517799f4f5d9ce8ed7c57e21965
"ОБЩЕСТВО С ОГРАНИЧЕННОЙ ОТВЕТСТВЕННОСТЬЮ ""АГРОФИРМА ""КАНМАШ""",ООО АГРОФИРМА КАНМАШ,2106007793,"429304, Чувашская Республика - Чувашия, Канашский район, с. Вутабоси, ул. Восточная, д. 21", 55.432668, 47.442813,01.1,Выращивание однолетних культур,https://spark-interfax.ru/chuvashskaya-respublika-chuvashiya-kanashski-raion/ooo-agrofirma-kanmash-inn-2106007793-ogrn-1112134000373-6b953fa98bf0447093288af79a99c558
"ОБЩЕСТВО С ОГРАНИЧЕННОЙ ОТВЕТСТВЕННОСТЬЮ АГРОФИРМА ""КОЛЬЦОВКА""",ООО А/Ф КОЛЬЦОВКА,2104006441,"429208, Чувашская Республика - Чувашия, Вурнарский район, д. Кольцовка, ул. Центральная, д. 35", 55.426055, 47.094865,01.1,Выращивание однолетних культур,https://spark-interfax.ru/chuvashskaya-respublika-chuvashiya-vurnarski-raion/ooo-koltsovka-inn-2104006441-ogrn-1052133002569-39cf62583e8a4eba8f07e0f89653eb68
"МУНИЦИПАЛЬНОЕ БЮДЖЕТНОЕ УЧРЕЖДЕНИЕ ""ЦЕНТРАЛИЗОВАННАЯ БУХГАЛТЕРИЯ МУНИЦИПАЛЬНЫХ БЮДЖЕТНЫХ ОБРАЗОВАТЕЛЬНЫХ УЧРЕЖДЕНИЙ ГОРОДА ЧЕБОКСАРЫ""",МБУ ЦБМБОУ Г. ЧЕБОКСАРЫ,1112130011674,"428022, Чувашская Республика - Чувашия, г. Чебоксары, ул. 50 Лет Октября, д. 10А", 56.128491, 47.275523,69.20,"Деятельность по оказанию услуг в области бухгалтерского учета, по проведению финансового аудита, по налоговому консультированию",https://spark-interfax.ru/chuvashskaya-respublika-chuvashiya-cheboksary/mbu-tsbmbou-g-cheboksary-inn-2130092616-ogrn-1112130011674-6906d9b1ec5e226ae0531b9aa8c04bb6
"АКЦИОНЕРНОЕ ОБЩЕСТВО ""АГРОФИРМА ОЛЬДЕЕВСКАЯ""",АО АГРОФИРМА ОЛЬДЕЕВСКАЯ,2116480078,"429960, Чувашская Республика - Чувашия, Чебоксарский район, д. Юраково, ул. Восточная, д. 10", 56.097694, 47.446696,01.13.1,Выращивание овощей,https://spark-interfax.ru/chuvashskaya-respublika-chuvashiya-cheboksarski-raion/ao-agrofirma-oldeevskaya-inn-2116480078-ogrn-1022102430327-e7ab1648ac9d4dcf94eafaac17600ba0
"СЕЛЬСКОХОЗЯЙСТВЕННЫЙ СНАБЖЕНЧЕСКО-СБЫТОВОЙ ПЕРЕРАБАТЫВАЮЩИЙ ПОТРЕБИТЕЛЬСКИЙ КООПЕРАТИВ ""ПЕРСПЕКТИВА""",СССППК ПЕРСПЕКТИВА,1172130018125,"429250, Чувашская Республика - Чувашия, Аликовский район, с. Аликово, ул. Октябрьская, д. 19 каб. 2", 55.735298, 46.750530,01.13,"Выращивание овощей, бахчевых, корнеплодных и клубнеплодных культур, грибов и трюфелей",https://spark-interfax.ru/chuvashskaya-respublika-chuvashiya-alikovski-raion/koop-perspektiva-inn-2102002882-ogrn-1172130018125-6906d9b21080226ae0531b9aa8c04bb6
"ОБЩЕСТВО С ОГРАНИЧЕННОЙ ОТВЕТСТВЕННОСТЬЮ ""МАН""",ООО МАН,2123011888,"429330, Чувашская Республика - Чувашия, г. Канаш, ул. Канашская, д. 57А", 55.514551, 47.493710,43.12,Подготовка строительной площадки,https://spark-interfax.ru/chuvashskaya-respublika-chuvashiya-kanash/ooo-man-inn-2123011888-ogrn-1112134000076-617889ac79747e1ce0531b9aa8c027ab
АДМИНИСТРАЦИЯ КРЫМЗАРАЙКИНСКОГО СЕЛЬСКОГО ПОСЕЛЕНИЯ АЛИКОВСКОГО РАЙОНА ЧУВАШСКОЙ РЕСПУБЛИКИ,АДМИНИСТРАЦИЯ КРЫМЗАРАЙКИНСКОГО СЕЛЬСКОГО ПОСЕЛЕНИЯ АЛИКОВСКОГО РАЙОНА ЧУВАШСКОЙ РЕСПУБЛИКИ,1052133019036,"429245, Чувашская Республика - Чувашия, Аликовский район, с. Крымзарайкино, ул. Школьная, д. 19", 55.780317, 46.664633,84.11.35,Деятельность органов местного самоуправления городских округов,https://spark-interfax.ru/chuvashskaya-respublika-chuvashiya-alikovski-raion/mku-administratsiya-krymzaraikinskogo-selskogo-poseleniya-alikovskogo-raiona-chuvashskoi-respubliki-inn-21024206-6906d9b1b9e2226ae0531b9aa8c04bb6
"АКЦИОНЕРНОЕ ОБЩЕСТВО ""ГАЗЕТА ""СОВЕТСКАЯ ЧУВАШИЯ""",АО ГАЗЕТА СОВЕТСКАЯ ЧУВАШИЯ,2130066180,"428903, Чувашская Республика - Чувашия, г. Чебоксары, проспект И.Я.Яковлева, д. 13 пом. 2", 56.105421, 47.260182,58.13,Издание газет,https://spark-interfax.ru/chuvashskaya-respublika-chuvashiya-cheboksary/pao-gazeta-sovetskaya-chuvashiya-inn-2130066180-ogrn-1092130013546-17fd888eb1cb4a14bcc100e7709a8ba6
"СЕЛЬСКОХОЗЯЙСТВЕННЫЙ ПОТРЕБИТЕЛЬСКИЙ ОБСЛУЖИВАЮЩИЙ КООПЕРАТИВ ""ПАХАРЬ""",СПОК ПАХАРЬ,2119902112,"429068, Чувашская Республика - Чувашия, Ядринский район, д. Кильдишево, ул. Шоссейная, д. 60", 55.844167, 46.583670,49.3,Деятельность прочего сухопутного пассажирского транспорта,https://spark-interfax.ru/chuvashskaya-respublika-chuvashiya-yadrinski-raion/koop-pakhar-inn-2119902112-ogrn-1082136000099-6906d9b1d993226ae0531b9aa8c04bb6
"ОБЩЕСТВО С ОГРАНИЧЕННОЙ ОТВЕТСТВЕННОСТЬЮ ""НОВАЯ СИЛА""",ООО НОВАЯ СИЛА,2100022918,"429312, Чувашская Республика - Чувашия, м.о. Канашский, д Анаткасы, ул Пушкина, д. 4", 55.606425, 47.273288,01.11,"Выращивание зерновых (кроме риса), зернобобовых культур и семян масличных культур",https://spark-interfax.ru/chuvashskaya-respublika-chuvashiya-kanashski-raion/ooo-novaya-sila-inn-2100022918-ogrn-1252100000800-2d20b381cfc548dce063269aa8c0f5e3
"ФЕДЕРАЛЬНОЕ ГОСУДАРСТВЕННОЕ БЮДЖЕТНОЕ УЧРЕЖДЕНИЕ ГОСУДАРСТВЕННЫЙ ЦЕНТР АГРОХИМИЧЕСКОЙ СЛУЖБЫ ""ЧУВАШСКИЙ""",ФГБУ ГЦАС ЧУВАШСКИЙ,1022102832498,"429911, Чувашская Республика - Чувашия, Цивильский район, пос. Опытный, ул. Центральная, д. 1", 55.850720, 47.491710,01.61,Предоставление услуг в области растениеводства,https://spark-interfax.ru/chuvashskaya-respublika-chuvashiya-tsivilski-raion/fgbu-chuvashski-inn-2115000096-ogrn-1022102832498-6906d9b1b88e226ae0531b9aa8c04bb6
"ГОСУДАРСТВЕННОЕ АВТОНОМНОЕ ПРОФЕССИОНАЛЬНОЕ ОБРАЗОВАТЕЛЬНОЕ УЧРЕЖДЕНИЕ ЧУВАШСКОЙ РЕСПУБЛИКИ ""ЦИВИЛЬСКИЙ АГРАРНО-ТЕХНОЛОГИЧЕСКИЙ ТЕХНИКУМ"" МИНИСТЕРСТВА ОБРАЗОВАНИЯ ЧУВАШСКОЙ РЕСПУБЛИКИ",ЦИВИЛЬСКИЙ АГРАРНО-ТЕХНОЛОГИЧЕСКИЙ ТЕХНИКУМ МИНОБРАЗОВАНИЯ ЧУВАШИИ,1082137000879,"429900, Чувашская Республика - Чувашия, Цивильский район, г. Цивильск, ул. Юбилейная, д. 2/1", 55.859698, 47.473655,85.21,Образование профессиональное среднее,https://spark-interfax.ru/chuvashskaya-respublika-chuvashiya-tsivilski-raion/gau-tsivilski-agrarno-tekhnologicheski-tekhnikum-minobrazovaniya-chuvashii-inn-2115904670-ogrn-1082137000879-6906d9b1dce7226ae0531b9aa8c04bb6
"МУНИЦИПАЛЬНОЕ БЮДЖЕТНОЕ УЧРЕЖДЕНИЕ ДОПОЛНИТЕЛЬНОГО ОБРАЗОВАНИЯ ""СПОРТИВНАЯ ШКОЛА ""ЭНЕРГИЯ"" УПРАВЛЕНИЯ ФИЗИЧЕСКОЙ КУЛЬТУРЫ И СПОРТА АДМИНИСТРАЦИИ ГОРОДА ЧЕБОКСАРЫ ЧУВАШСКОЙ РЕСПУБЛИКИ",МБУ ДО СШ ЭНЕРГИЯ Г. ЧЕБОКСАРЫ,1102130006109,"428021, Чувашская Республика - Чувашия, г. Чебоксары, ул. Ленинградская, д. 34", 56.142406, 47.248091,85.41,Образование дополнительное детей и взрослых,https://spark-interfax.ru/chuvashskaya-respublika-chuvashiya-cheboksary/mbu-ssh-energiya-g-cheboksary-inn-2130073490-ogrn-1102130006109-6906d9b1e5ef226ae0531b9aa8c04bb6
"АКЦИОНЕРНОЕ ОБЩЕСТВО ""ИЗДАТЕЛЬСКИЙ ДОМ ""ГРАНИ""",АО ИЗДАТЕЛЬСКИЙ ДОМ ГРАНИ,2124035088,"429955, Чувашская Республика - Чувашия, г. Новочебоксарск, ул. Советская, д. 14А", 56.113370, 47.489136,58.13,Издание газет,https://spark-interfax.ru/chuvashskaya-respublika-chuvashiya-novocheboksarsk/ao-izdatelski-dom-grani-inn-2124035088-ogrn-1112124001307-dd842a8a682847f88b50ed3ee8c5c867
"КОЛХОЗ ""УРОЖАЙ""",КОЛХОЗ УРОЖАЙ,1022101829507,"429147, Чувашская Республика - Чувашия, Комсомольский район, с. Шерауты, ул. Центральная, д. 1", 55.130089, 47.362851,01.11.1,Выращивание зерновых культур,https://spark-interfax.ru/chuvashskaya-respublika-chuvashiya-komsomolski-raion/kolkhoz-urozhai-inn-2108000627-ogrn-1022101829507-f61e20e2d4ad4a2e943cc77a5241765e
"ОБЩЕСТВО С ОГРАНИЧЕННОЙ ОТВЕТСТВЕННОСТЬЮ ""БЕЛЫЙ ЛОТОС""",ООО БЕЛЫЙ ЛОТОС,2130104893,"428006, Чувашская Республика - Чувашия, г. Чебоксары, ул. Тенистая, д. 1", 56.104465, 47.175139,96.01,Стирка и химическая чистка текстильных и меховых изделий,https://spark-interfax.ru/chuvashskaya-respublika-chuvashiya-cheboksary/ooo-bely-lotos-inn-2130104893-ogrn-1122130007493-320fd59ce20942ad8abb90cc7e6e0c4d
"АКЦИОНЕРНОЕ ОБЩЕСТВО ""ЧУВАШСКОЕ КНИЖНОЕ ИЗДАТЕЛЬСТВО""",АО ЧУВАШСКОЕ КНИЖНОЕ ИЗДАТЕЛЬСТВО,2130186800,"428903, Чувашская Республика - Чувашия, г. Чебоксары, проспект И.Я.Яковлева, д. 13", 56.105421, 47.260182,58.11.1,"Издание книг, брошюр, рекламных буклетов и аналогичных изданий, включая издание словарей и энциклопедий, в том числе для слепых, в печатном виде",https://spark-interfax.ru/chuvashskaya-respublika-chuvashiya-cheboksary/ao-chuvashskoe-knizhnoe-izdatelstvo-inn-2130186800-ogrn-1172130005475-2ecd43ed06554fe9bb1bb322de7a4a28
"АКЦИОНЕРНОЕ ОБЩЕСТВО ""НАУЧНО-ПРОИЗВОДСТВЕННОЕ ОБЪЕДИНЕНИЕ ""КАСКАД""",АО НПО КАСКАД,2130064584,"428027, Чувашская Республика - Чувашия, г. Чебоксары, ул. Хузангая, д. 18 к. 1", 56.092881, 47.273549,27.12,Производство электрической распределительной и регулирующей аппаратуры,https://spark-interfax.ru/chuvashskaya-respublika-chuvashiya-cheboksary/ao-npo-kaskad-inn-2130064584-ogrn-1092130011930-0f7dd0e625b44aa891e870dfa5a3ea0d
"ГОСУДАРСТВЕННОЕ АВТОНОМНОЕ ПРОФЕССИОНАЛЬНОЕ ОБРАЗОВАТЕЛЬНОЕ УЧРЕЖДЕНИЕ ЧУВАШСКОЙ РЕСПУБЛИКИ ""ЧЕБОКСАРСКИЙ ТЕХНИКУМ ТЕХНОЛОГИИ ПИТАНИЯ И КОММЕРЦИИ"" МИНИСТЕРСТВА ОБРАЗОВАНИЯ ЧУВАШСКОЙ РЕСПУБЛИКИ",ГАПОУ ЧТТПИК МИНОБРАЗОВАНИЯ ЧУВАШИИ,1082130016627,"428003, Чувашская Республика - Чувашия, г. Чебоксары, ул. Чапаева, д. 10", 56.124537, 47.261380,85.21,Образование профессиональное среднее,https://spark-interfax.ru/chuvashskaya-respublika-chuvashiya-cheboksary/gau-chttpik-minobrazovaniya-chuvashii-inn-2130049610-ogrn-1082130016627-6906d9b1dd5d226ae0531b9aa8c04bb6
"ГОСУДАРСТВЕННОЕ АВТОНОМНОЕ ПРОФЕССИОНАЛЬНОЕ ОБРАЗОВАТЕЛЬНОЕ УЧРЕЖДЕНИЕ ЧУВАШСКОЙ РЕСПУБЛИКИ ""НОВОЧЕБОКСАРСКИЙ ХИМИКО-МЕХАНИЧЕСКИЙ ТЕХНИКУМ"" МИНИСТЕРСТВА ОБРАЗОВАНИЯ ЧУВАШСКОЙ РЕСПУБЛИКИ",НОВОЧЕБОКСАРСКИЙ ХИМИКО-МЕХАНИЧЕСКИЙ ТЕХНИКУМ МИНОБРАЗОВАНИЯ ЧУВАШИИ,1022100909710,"429951, Чувашская Республика - Чувашия, г. Новочебоксарск, ул. Ж.Крутовой, д. 2", 56.124973, 47.503546,85.21,Образование профессиональное среднее,https://spark-interfax.ru/chuvashskaya-respublika-chuvashiya-novocheboksarsk/gau-novocheboksarski-khimiko-mekhanicheski-tekhnikum-minobrazovaniya-chuvashii-inn-2124009874-ogrn-1022100909710-6906d9b1b883226ae0531b9aa8c04bb6
"ГОСУДАРСТВЕННОЕ АВТОНОМНОЕ ПРОФЕССИОНАЛЬНОЕ ОБРАЗОВАТЕЛЬНОЕ УЧРЕЖДЕНИЕ ЧУВАШСКОЙ РЕСПУБЛИКИ ""ЧЕБОКСАРСКИЙ ЭКОНОМИКО-ТЕХНОЛОГИЧЕСКИЙ КОЛЛЕДЖ"" МИНИСТЕРСТВА ОБРАЗОВАНИЯ ЧУВАШСКОЙ РЕСПУБЛИКИ",ЧЕБОКСАРСКИЙ ЭКОНОМИКО-ТЕХНОЛОГИЧЕСКИЙ КОЛЛЕДЖ МИНОБРАЗОВАНИЯ ЧУВАШИИ,1022101141446,"428020, Чувашская Республика - Чувашия, г. Чебоксары, проспект Ленина, д. 61", 56.114472, 47.262871,85.21,Образование профессиональное среднее,https://spark-interfax.ru/chuvashskaya-respublika-chuvashiya-cheboksary/gau-cheboksarski-ekonomiko-tekhnologicheski-kolledzh-minobrazovaniya-chuvashii-inn-2128007116-ogrn-1022101141446-6906d9b1b8a8226ae0531b9aa8c04bb6
"ОБЩЕСТВО С ОГРАНИЧЕННОЙ ОТВЕТСТВЕННОСТЬЮ ""АРКТО""",ООО АРКТО,2123020392,"429336, Чувашская Республика - Чувашия, г. Канаш, парк Индустриальный, стр. 2", 55.511382, 47.506778,28.25,Производство промышленного холодильного и вентиляционного оборудования,https://spark-interfax.ru/chuvashskaya-respublika-chuvashiya-kanash/ooo-arkto-inn-2123020392-ogrn-1182130012338-7b75b89dbc73763ce0531b9aa8c0ba61
"ОБЩЕСТВО С ОГРАНИЧЕННОЙ ОТВЕТСТВЕННОСТЬЮ""ПРОИЗВОДСТВЕННАЯ КОМПАНИЯ""ПРОМТРАКТОР""",ОООПКПРОМТРАКТОР,2130006695,"428028, Чувашская Республика - Чувашия, г. Чебоксары, проспект Тракторостроителей, д. 101 литера / блок 39Е/В каб. 411", 56.115360, 47.333062,28.92,Производство машин и оборудования для добычи полезных ископаемых и строительства,https://spark-interfax.ru/chuvashskaya-respublika-chuvashiya-cheboksary/ooo-pkpromtraktor-inn-2130006695-ogrn-1062130009590-ce361b38aba94deebba4c287135d36f2
"ОБЩЕСТВО С ОГРАНИЧЕННОЙ ОТВЕТСТВЕННОСТЬЮ ""ЧЕБОКСАРСКИЙ ЗАВОД СИЛОВЫХ АГРЕГАТОВ""",ООО ЧЗСА,2127318285,"428028, Чувашская Республика - Чувашия, г. Чебоксары, проспект Тракторостроителей, д. 109", 56.114247, 47.356108,28.11.1,"Производство двигателей, кроме авиационных, автомобильных и мотоциклетных",https://spark-interfax.ru/chuvashskaya-respublika-chuvashiya-cheboksary/ooo-chzsa-inn-2127318285-ogrn-1022100967404-84055f0dfb24475bb0e6af933a812d6b
"ОБЩЕСТВО С ОГРАНИЧЕННОЙ ОТВЕТСТВЕННОСТЬЮ ""ЗАВОД ""АГРОМАШ""",ООО ЗАВОД АГРОМАШ,2456012447,"428028, Чувашская Республика - Чувашия, г. Чебоксары, проспект Тракторостроителей, д. 101 каб. 114А", 56.115360, 47.333062,28.30.2,Производство тракторов для сельского хозяйства,https://spark-interfax.ru/chuvashskaya-respublika-chuvashiya-cheboksary/ooo-zavod-agromash-inn-2456012447-ogrn-1082456000461-87a5e001db9d4df2920efb419105603b
"ПРОФЕССИОНАЛЬНОЕ ОБРАЗОВАТЕЛЬНОЕ ЧАСТНОЕ УЧРЕЖДЕНИЕ ""ЧЕБОКСАРСКИЙ КООПЕРАТИВНЫЙ ТЕХНИКУМ"" ЧУВАШПОТРЕБСОЮЗА",ЧЕБОКСАРСКИЙ КООПЕРАТИВНЫЙ ТЕХНИКУМ ЧУВАШПОТРЕБСОЮЗА,1022101271917,"428018, Чувашская Республика - Чувашия, г. Чебоксары, ул. Константина Иванова, д. 96", 56.147379, 47.222898,85.21,Образование профессиональное среднее,https://spark-interfax.ru/chuvashskaya-respublika-chuvashiya-cheboksary/uch-cheboksarski-kooperativny-tekhnikum-chuvashpotrebsoyuza-inn-2129019160-ogrn-1022101271917-6906d9b18bd9226ae0531b9aa8c04bb6
"ОБЩЕСТВО С ОГРАНИЧЕННОЙ ОТВЕТСТВЕННОСТЬЮ ""ИВОЛГА-МОЛОКО""",ООО ИВОЛГА-МОЛОКО,2102001712,"429256, Чувашская Республика - Чувашия, Аликовский район, с. Яндоба, ул. Шоссейная, д. 7", 55.725277, 46.973498,46.33,"Торговля оптовая молочными продуктами, яйцами и пищевыми маслами и жирами",https://spark-interfax.ru/chuvashskaya-respublika-chuvashiya-alikovski-raion/ooo-ivolga-moloko-inn-2102001712-ogrn-1132133000240-41edc5528cf54b53b05b18f24cbfc016
"СЕЛЬСКОХОЗЯЙСТВЕННЫЙ ПРОИЗВОДСТВЕННЫЙ КООПЕРАТИВ ""ИМ.УЛЬЯНОВА""",СХПК ИМ. УЛЬЯНОВА,2102000148,"429242, Чувашская Республика - Чувашия, Аликовский район, с. Большая Выла, ул. Кооперативная, д. 7", 55.724544, 46.551344,01.41.21,Производство сырого коровьего молока,https://spark-interfax.ru/chuvashskaya-respublika-chuvashiya-alikovski-raion/koop-im-ulyanova-inn-2102000148-ogrn-1022102031060-e7da74d7b56e467cbdc948c059a0e7ff
"ОБЩЕСТВО С ОГРАНИЧЕННОЙ ОТВЕТСТВЕННОСТЬЮ ""КИТ""",ООО КИТ,1327037924,"430030, Мордовия Респ, г.о. Саранск, г Саранск, ул Титова, д. 2А, офис 202", 54.203658, 45.164341,93.29,Деятельность по организации отдыха и развлечений прочая,https://spark-interfax.ru/mordoviya-respublika-saransk/ooo-kit-inn-1327037924-ogrn-1211300004520-d1d185c1dd660b02e053219aa8c05662
"ОБЩЕСТВО С ОГРАНИЧЕННОЙ ОТВЕТСТВЕННОСТЬЮ ""ОЛЕНЬЯ ФЕРМА ""ДИР ЛАЙТ""",ООО ДИР ЛАЙТ,1304000519,"431745, Мордовия респ., Большеберезниковский район, с. Черная Промза, шоссе Паракинское, д. 1", 54.278950, 46.251453,01.49,Разведение прочих животных,https://spark-interfax.ru/mordoviya-respublika-bolshebereznikovski-raion/ooo-dir-lait-inn-1304000519-ogrn-1191326005221-931c805c70695474e0531b9aa8c07638
"МУНИЦИПАЛЬНОЕ БЮДЖЕТНОЕ УЧРЕЖДЕНИЕ КУЛЬТУРЫ ""ТОРБЕЕВСКИЙ РАЙОННЫЙ ДОМ КУЛЬТУРЫ ТОРБЕЕВСКОГО МУНИЦИПАЛЬНОГО РАЙОНА РЕСПУБЛИКИ МОРДОВИЯ""",МБУК ТОРБЕЕВСКИЙ РДК,1091308000233,"431030, Мордовия респ., Торбеевский район, рабочий пос. Торбеево, ул. Ленина, д. 7", 54.075989, 43.245210,90.04.3,"Деятельность учреждений клубного типа: клубов, дворцов и домов культуры, домов народного творчества",https://spark-interfax.ru/mordoviya-respublika-torbeevski-raion/mbu-torbeevski-rdk-inn-1321117330-ogrn-1091308000233-6906d9acab28226ae0531b9aa8c04bb6
"АВТОНОМНАЯ НЕКОММЕРЧЕСКАЯ ОРГАНИЗАЦИЯ ""НАРОДНОЕ ТЕЛЕВИДЕНИЕ МОРДОВИИ""",АНО НТМ,1161326055000,"430034, Мордовия респ., г. Саранск, ул. Лодыгина, д. 3 офис 219", 54.222433, 45.159452,60.20,Деятельность в области телевизионного вещания,https://spark-interfax.ru/mordoviya-respublika-saransk/ano-ntm-inn-1328013115-ogrn-1161326055000-6906d9accb68226ae0531b9aa8c04bb6
"МУНИЦИПАЛЬНОЕ БЮДЖЕТНОЕ УЧРЕЖДЕНИЕ ""СЛУЖБА ХОЗЯЙСТВЕННОГО И КОММУНАЛЬНОГО ОБЕСПЕЧЕНИЯ БОЛЬШЕБЕРЕЗНИКОВСКОГО МУНИЦИПАЛЬНОГО РАЙОНА РЕСПУБЛИКИ МОРДОВИЯ""",МБУ СХКО БОЛЬШЕБЕРЕЗНИКОВСКОГО РАЙОНА,1181326007444,"431750, Мордовия респ., Большеберезниковский район, с. Большие Березники, ул. Ульяновская, д. 19", 54.168271, 45.967089,36.00,"Забор, очистка и распределение воды",https://spark-interfax.ru/mordoviya-respublika-bolshebereznikovski-raion/mbu-skhko-bolshebereznikovskogo-raiona-inn-1304000452-ogrn-1181326007444-7d1c3724f83d6a15e0531b9aa8c0665e
"ОБЩЕСТВО С ОГРАНИЧЕННОЙ ОТВЕТСТВЕННОСТЬЮ ""МК СТАВРОПОЛЬ""",ООО МК СТАВРОПОЛЬ,2623035397,"356244, Ставропольский край, м.о. Шпаковский, х Вязники, ул Промышленная, двлд. 6", 45.114866, 41.972733,10.91.2,Производство муки грубого помола и гранул из люцерны,https://spark-interfax.ru/stavropolski-krai-shpakovski-raion/ooo-mk-stavropol-inn-2623035397-ogrn-1252600008540-393ab8f3b6650af6e063269aa8c0ee7d
"ОБЩЕСТВО С ОГРАНИЧЕННОЙ ОТВЕТСТВЕННОСТЬЮ ""ПРИТЯЖЕНИЕ""",ООО ПРИТЯЖЕНИЕ,1324003878,"431444, Мордовия Респ, м.р-н Рузаевский, г.п. Рузаевка, г Рузаевка, ул 40 лет Победы, д. 3В, кв. 40", 54.079981, 44.950661,85.41.9,"Образование дополнительное детей и взрослых, не включенное в другие группировки",https://spark-interfax.ru/mordoviya-respublika-ruzaevka/ooo-prityazhenie-inn-1324003878-ogrn-1211300003815-ccde2dc1ff972b86e053219aa8c0914f
"ОБЩЕСТВО С ОГРАНИЧЕННОЙ ОТВЕТСТВЕННОСТЬЮ ""ДОВЕРИЕ""",ООО ДОВЕРИЕ,1300000638,"430030, Мордовия Респ, г.о. Саранск, г Саранск, ул Васенко, д. 11, помещ. 17, офис 410/3", 54.195278, 45.169456,96.09,"Предоставление прочих персональных услуг, не включенных в другие группировки",https://spark-interfax.ru/mordoviya-respublika-saransk/ooo-doverie-inn-1300000638-ogrn-1221300002087-e1385ead52e83d9be053259aa8c0bfbd
"ОБЩЕСТВО С ОГРАНИЧЕННОЙ ОТВЕТСТВЕННОСТЬЮ ""МИР""",ООО МИР,1326257758,"430005, Мордовия Респ, г.о. Саранск, г Саранск, ул Московская, д. 44, кв. 167", 54.174530, 45.188422,96.02,Предоставление услуг парикмахерскими и салонами красоты,https://spark-interfax.ru/mordoviya-respublika-saransk/ooo-mir-inn-1326257758-ogrn-1211300005047-d404c1cc1ae162a3e053259aa8c07c49
"ОБЩЕСТВО С ОГРАНИЧЕННОЙ ОТВЕТСТВЕННОСТЬЮ ""ВОСХОД""",ОООВОСХОД,1316105386,"431625, Мордовия респ., Ромодановский район, с. Болтино, ул. Химмашевская, д. 22", 54.488664, 45.517865,01.11.1,Выращивание зерновых культур,https://spark-interfax.ru/mordoviya-respublika-romodanovski-raion/ooo-voskhod-inn-1316105386-ogrn-1021300709737-0a448d4ec68641b89a661f46143a281c
"АКЦИОНЕРНОЕ ОБЩЕСТВО ""ЛАТО""",АО ЛАТО,1322044903,"431720, Мордовия Респ, м.р-н Чамзинский, г.п. Комсомольское, рп Комсомольский, ул Промышленная, зд. 2", 54.436646, 45.821560,23.65,Производство изделий из хризотилцемента и волокнистого цемента,https://spark-interfax.ru/mordoviya-respublika-chamzinski-raion/ao-lato-inn-1322044903-ogrn-1021301578077-654998b519594acf8b85a4d4fe692c4a
"ОБЩЕСТВО С ОГРАНИЧЕННОЙ ОТВЕТСТВЕННОСТЬЮ ""НЕЙРОМ""",ООО НЕЙРОМ,1300006238,"430034, Мордовия Респ, г.о. Саранск, г Саранск, ул Лодыгина, д. 3, этаж 2, К.ОПЫТ.ЗАВ, помещ. 9 ЧАСТЬ 4", 54.222433, 45.159452,72.19,Научные исследования и разработки в области естественных и технических наук прочие,https://spark-interfax.ru/mordoviya-respublika-saransk/ooo-neirom-inn-1300006238-ogrn-1231300002559-fdd2cce8ede73649e053259aa8c06388
"СЕЛЬСКОХОЗЯЙСТВЕННЫЙ ПОТРЕБИТЕЛЬСКИЙ ПЕРЕРАБАТЫВАЮЩИЙ СНАБЖЕНЧЕСКО-СБЫТОВОЙ КООПЕРАТИВ ""АГРОСОЮЗ-С""",СППССК АГРОСОЮЗ-С,1171326001330,"431586, Мордовия респ., Кочкуровский район, с. Сабаево, ул. Крупской, д. 72", 53.992897, 45.715782,10.91,"Производство готовых кормов для животных, содержащихся на фермах",https://spark-interfax.ru/mordoviya-respublika-kochkurovski-raion/koop-agrosoyuz-s-inn-1313000441-ogrn-1171326001330-6906d9accdf6226ae0531b9aa8c04bb6
"ОБЩЕСТВО С ОГРАНИЧЕННОЙ ОТВЕТСТВЕННОСТЬЮ ""САРАНСКИЙ СВЕТОТЕХНИЧЕСКИЙ ЗАВОД ""ЛИСМА""",ООО ССЗ ЛИСМА,1327035412,"430034, Мордовия респ., г. Саранск, ул. Лодыгина, д. 5 стр. 25 пом. 2", 54.221712, 45.168901,27.40,Производство электрических ламп и осветительного оборудования,https://spark-interfax.ru/mordoviya-respublika-saransk/ooo-ssz-lisma-inn-1327035412-ogrn-1191326007333-9acfecd0b96218bce053179aa8c06f7f
"ОБЩЕСТВО С ОГРАНИЧЕННОЙ ОТВЕТСТВЕННОСТЬЮ ""ОРБИТА-СВЕТ""",ООО ОРБИТА-СВЕТ,1328010040,"430904, Мордовия респ., г. Саранск, рабочий пос. Ялга, ул. Пионерская, д. 12", 54.118279, 45.117669,27.90,Производство прочего электрического оборудования,https://spark-interfax.ru/mordoviya-respublika-saransk/ooo-orbita-svet-inn-1328010040-ogrn-1141328001803-0c6f85e10293498a97937b12afea0a96
"ОБЩЕСТВО С ОГРАНИЧЕННОЙ ОТВЕТСТВЕННОСТЬЮ ""РАЦИО ЛЕКС""",ООО РАЦИО ЛЕКС,3700007705,"430030, Мордовия Респ, г.о. Саранск, г Саранск, ул Васенко, д. 15, офис 314/2", 54.195249, 45.165973,69.20,"Деятельность по оказанию услуг в области бухгалтерского учета, по проведению финансового аудита, по налоговому консультированию",https://spark-interfax.ru/mordoviya-respublika-saransk/ooo-ratsio-leks-inn-3700007705-ogrn-1233700005703-fd45fc072f8b5b9de053259aa8c03522
"ЧАСТНОЕ ДОШКОЛЬНОЕ ОБРАЗОВАТЕЛЬНОЕ УЧРЕЖДЕНИЕ ""ДЕТСКИЙ САД ""НЕПОСЕДЫ""",ЧДОУ НЕПОСЕДЫ,1071300000485,"430004, Мордовия респ., г. Саранск, ул. Грузинская, д. 43", 54.171070, 45.172969,85.11,Образование дошкольное,https://spark-interfax.ru/mordoviya-respublika-saransk/uch-neposedy-inn-1326199961-ogrn-1071300000485-6906d9acaf7a226ae0531b9aa8c04bb6
"ОБЩЕСТВО С ОГРАНИЧЕННОЙ ОТВЕТСТВЕННОСТЬЮ ""СТЕКОЛЬНАЯ КОМПАНИЯ ""РАЗВИТИЕ""",ООО СК РАЗВИТИЕ,1324002923,"431448, Мордовия респ., г. Рузаевка, ул. Станиславского, д. 22 офис 47", 54.069202, 44.991913,23.13,Производство полых стеклянных изделий,https://spark-interfax.ru/mordoviya-respublika-ruzaevka/ooo-sk-razvitie-inn-1324002923-ogrn-1191326002438-85e8eb0a6c341dd3e0531b9aa8c0bed0
"ОБЩЕСТВО С ОГРАНИЧЕННОЙ ОТВЕТСТВЕННОСТЬЮ ""ТЕХНОЛОГИЯ ЧИСТОТЫ - М""",ООО ТЕХНОЛОГИЯ ЧИСТОТЫ - М,1328902770,"430027, Мордовия респ., г. Саранск, ул. Ульянова, д. 20А офис 3", 54.163007, 45.150104,46.44.2,Торговля оптовая чистящими средствами,https://spark-interfax.ru/mordoviya-respublika-saransk/ooo-tekhnologiya-chistoty-m-inn-1328902770-ogrn-1041320007080-46e7f5b1d40a43f3beb18de6d144e5fb
"ОБЩЕСТВО С ОГРАНИЧЕННОЙ ОТВЕТСТВЕННОСТЬЮ ""ЛЕКСТЕХ""",ООО ЛЕКСТЕХ,1300002106,"430005, Мордовия Респ, г.о. Саранск, г Саранск, ул Коммунистическая, д. 75А, офис 205", 54.185306, 45.172364,41.20,Строительство жилых и нежилых зданий,https://spark-interfax.ru/mordoviya-respublika-saransk/ooo-lekstekh-inn-1300002106-ogrn-1221300003528-e9789c003f6963b7e053249aa8c0dd3e
"ОБЩЕСТВО С ОГРАНИЧЕННОЙ ОТВЕТСТВЕННОСТЬЮ ""ОПТИКА-ВЕРСАЛЬ""",ООО ОПТИКА-ВЕРСАЛЬ,1314002522,"431261, Мордовия Респ, м.р-н Краснослободский, г.п. Краснослободское, г Краснослободск, мкр 1-й, д. 4А", 54.433527, 43.774895,86.21,Общая врачебная практика,https://spark-interfax.ru/mordoviya-respublika-krasnoslobodski-raion/ooo-optika-versal-inn-1314002522-ogrn-1211300002319-c4111f76d76a1070e053219aa8c01f9b
"ЧАСТНОЕ УЧРЕЖДЕНИЕ ДОПОЛНИТЕЛЬНОГО ОБРАЗОВАНИЯ ""УМНАЯ ШКОЛА""",ЧУДО УМНАЯ ШКОЛА,1171326007720,"430016, Мордовия респ., г. Саранск, ул. Ботевградская, д. 65 кв. 8", 54.187290, 45.172442,85.41,Образование дополнительное детей и взрослых,https://spark-interfax.ru/mordoviya-respublika-saransk/uch-umnaya-shkola-inn-1326249891-ogrn-1171326007720-6906d9acd035226ae0531b9aa8c04bb6
"РЕГИОНАЛЬНАЯ ОБЩЕСТВЕННАЯ ОРГАНИЗАЦИЯ ""СПОРТИВНЫЙ КЛУБ ""КАНКУ""",РОО СПОРТИВНЫЙ КЛУБ КАНКУ,1161326054801,"430032, Мордовия респ., г. Саранск, ул. Энгельса, д. 16А кв. 8", 54.174068, 45.132376,94.99,"Деятельность прочих общественных организаций и некоммерческих организаций, кроме религиозных и политических организаций",https://spark-interfax.ru/mordoviya-respublika-saransk/oo-sportivny-klub-kanku-inn-1326235698-ogrn-1161326054801-6906d9accb5c226ae0531b9aa8c04bb6
"ОБЩЕСТВО С ОГРАНИЧЕННОЙ ОТВЕТСТВЕННОСТЬЮ ""АЛЬФАТЕК""",ООО АЛЬФАТЕК,1327036261,"430003, Мордовия Респ, г.о. Саранск, г Саранск, пр-кт Ленина, д. 23А, помещ. 6", 54.189919, 45.188493,26.20,Производство компьютеров и периферийного оборудования,https://spark-interfax.ru/mordoviya-respublika-saransk/ooo-alfatek-inn-1327036261-ogrn-1201300003530-afb6ee9e47c52ec6e053189aa8c0d775
"ОБЩЕСТВО С ОГРАНИЧЕННОЙ ОТВЕТСТВЕННОСТЬЮ ""БЬЮТОРИКА""",ООО БЬЮТОРИКА,1300009214,"430030, Мордовия Респ, г.о. Саранск, г Саранск, ул Васенко, д. 17, помещ. 5", 54.195257, 45.165010,85.42,Образование профессиональное дополнительное,https://spark-interfax.ru/mordoviya-respublika-saransk/ooo-byutorika-inn-1300009214-ogrn-1231300005507-0dc676ae54462078e063259aa8c06e29
"ОБЩЕСТВО С ОГРАНИЧЕННОЙ ОТВЕТСТВЕННОСТЬЮ ""СЕМЕЙНЫЙ ДОКТОР""",ООО СЕМЕЙНЫЙ ДОКТОР,1322001498,"430031, Мордовия респ., г. Саранск, ул. Косарева, д. 13А", 54.194005, 45.236529,86.21,Общая врачебная практика,https://spark-interfax.ru/mordoviya-respublika-saransk/ooo-semeiny-doktor-inn-1322001498-ogrn-1191326004308-8e29285a15fa1cfde0531c9aa8c05885
"ОБЩЕСТВО С ОГРАНИЧЕННОЙ ОТВЕТСТВЕННОСТЬЮ ""АЙСБРИКЕР""",ООО АЙСБРИКЕР,1326233154,"430003, Мордовия респ., г. Саранск, ул. Большевистская, д. 85 офис 2", 54.192855, 45.183282,63.91,Деятельность информационных агентств,https://spark-interfax.ru/mordoviya-respublika-saransk/ooo-aisbriker-inn-1326233154-ogrn-1151326021440-00289cbb94124bfdb661c2e50d47ca68
"ПУБЛИЧНОЕ АКЦИОНЕРНОЕ ОБЩЕСТВО ""ЗУБОВО-ПОЛЯНСКИЙ ЗАВОД РАДИОДЕТАЛЕЙ""",ПАО ЗПЗР,1308038496,"431110, Мордовия респ., Зубово-Полянский район, рабочий пос. Зубова Поляна, ул. Новикова-Прибоя, д. 35", 54.069609, 42.842413,26.11.9,"Производство частей электронных ламп, трубок и прочих электронных компонентов, не включенных в другие группировки",https://spark-interfax.ru/mordoviya-respublika-zubovo-polyanski-raion/pao-zpzr-inn-1308038496-ogrn-1021300661425-ddfd4513a2c648649754ec73732d1f01
"СЕЛЬСКОХОЗЯЙСТВЕННЫЙ ПОТРЕБИТЕЛЬСКИЙ ОБСЛУЖИВАЮЩИЙ СНАБЖЕНЧЕСКО-СБЫТОВОЙ ПЕРЕРАБАТЫВАЮЩИЙ КООПЕРАТИВ ""НАЛИТОВСКИЙ""",СПОССПК НАЛИТОВСКИЙ,1231300000535,"431782, Мордовия Респ, м.р-н Дубенский, с.п. Пуркаевское, с Пуркаево, ул Пуркаева, д. 105", 54.372811, 46.637629,01.41.21,Производство сырого коровьего молока,https://spark-interfax.ru/mordoviya-respublika-dubenski-raion/koop-nalitovski-inn-1300004216-ogrn-1231300000535-f478edc9a7a95f74e053249aa8c0cf0f
"ОБЩЕСТВО С ОГРАНИЧЕННОЙ ОТВЕТСТВЕННОСТЬЮ ""БОЛОТНИКОВСКОЕ""",ООО БОЛОТНИКОВСКОЕ,1315099901,"431522, Мордовия респ., Лямбирский район, с. Болотниково, ул. Полевая, д. 1", 54.276281, 44.927369,01.41,"Разведение молочного крупного рогатого скота, производство сырого молока",https://spark-interfax.ru/mordoviya-respublika-lyambirski-raion/ooo-bolotnikovskoe-inn-1315099901-ogrn-1031318002781-8cff3f8c86f94d05a66e186bcda93d64
"ОБЩЕСТВО С ОГРАНИЧЕННОЙ ОТВЕТСТВЕННОСТЬЮ ""КУРТАШКИНСКОЕ""",ООО КУРТАШКИНСКОЕ,1302000471,"431054, Мордовия респ., Атюрьевский район, с. Курташки, ул. Новая, д. 3", 54.319599, 43.449993,01.50,Смешанное сельское хозяйство,https://spark-interfax.ru/mordoviya-respublika-atyurevski-raion/ooo-kurtashkinskoe-inn-1302000471-ogrn-1061314010691-6dea76443cf8453a855354c91262c5c8
"ОБЩЕСТВО С ОГРАНИЧЕННОЙ ОТВЕТСТВЕННОСТЬЮ ""НИВА""",ООО НИВА,1322121114,"431725, Мордовия респ., Чамзинский район, с. Отрадное", 54.433655, 45.666630,01.11,"Выращивание зерновых (кроме риса), зернобобовых культур и семян масличных культур",https://spark-interfax.ru/mordoviya-respublika-chamzinski-raion/ooo-niva-inn-1322121114-ogrn-1061322024169-84b81be2ad264ff1ab0d96bf8c11e7a7
"АВТОНОМНАЯ НЕКОММЕРЧЕСКАЯ ОРГАНИЗАЦИЯ ""ЦЕНТР РЕАЛИЗАЦИИ ПРОЕКТОВ И ИНИЦИАТИВ В СФЕРЕ ВНУТРЕННЕГО ТУРИЗМА ""ТРАДИЦИИ МОРДОВИИ""",АНО ЦРПИ ТРАДИЦИИ МОРДОВИИ,1251300001171,"431449, Мордовия Респ, м.р-н Рузаевский, г.п. Рузаевка, г Рузаевка, ул Северная, д. 7, кв. 74", 54.082792, 44.963374,94.99,"Деятельность прочих общественных организаций и некоммерческих организаций, кроме религиозных и политических организаций",https://spark-interfax.ru/mordoviya-respublika-ruzaevka/ano-traditsii-mordovii-inn-1300015137-ogrn-1251300001171-32145167fdd44496e063269aa8c07a1e
"МУНИЦИПАЛЬНОЕ БЮДЖЕТНОЕ УЧРЕЖДЕНИЕ КУЛЬТУРЫ АЛОВСКОГО СЕЛЬСКОГО ПОСЕЛЕНИЯ ""АЛОВСКИЙ СЕЛЬСКИЙ ДОМ КУЛЬТУРЫ""",МБУК АЛОВСКИЙ СДК,1031300002271,"431823, Мордовия респ., Атяшевский район, с. Алово, ул. Школьная, д. 6", 54.638967, 46.440574,91.01,Деятельность библиотек и архивов,https://spark-interfax.ru/mordoviya-respublika-atyashevski-raion/mbu-alovski-sdk-inn-1303068803-ogrn-1031300002271-6906d9aca4cb226ae0531b9aa8c04bb6
"ОБЩЕСТВО С ОГРАНИЧЕННОЙ ОТВЕТСТВЕННОСТЬЮ ""СТРОЙМИРСАМ""",ООО СТРОЙМИРСАМ,2014043551,"364020, Чеченская Респ, г.о. город Грозный, г Грозный, р-н Ахматовский, ул Старопромысловское шоссе, д. 24, к. 3, офис 3/21", 43.365740, 45.611275,31.02,Производство кухонной мебели,https://spark-interfax.ru/chechenskaya-respublika-grozny/ooo-stroimirsam-inn-2014043551-ogrn-1242000008975-25fa5dd7d56e33b4e063269aa8c0b1cf
МЕСТНАЯ МУСУЛЬМАНСКАЯ РЕЛИГИОЗНАЯ ОРГАНИЗАЦИЯ Р.П. ЧАМЗИНКА ЧАМЗИНСКОГО РАЙОНА РЕСПУБЛИКИ МОРДОВИЯ,МЕСТНАЯ МУСУЛЬМАНСКАЯ РЕЛИГИОЗНАЯ ОРГАНИЗАЦИЯ Р.П. ЧАМЗИНКА ЧАМЗИНСКОГО РАЙОНА РЕСПУБЛИКИ МОРДОВИЯ,1081300000682,"431700, Мордовия респ., Чамзинский район, рабочий пос. Чамзинка, микрорайон Шестой, д. 4 офис 64", 54.407948, 45.784023,94.91,Деятельность религиозных организаций,https://spark-interfax.ru/mordoviya-respublika-chamzinski-raion/ro-mestnaya-musulmanskaya-religioznaya-organizatsiya-r-p-chamzinka-chamzinskogo-raiona-respubliki-mordoviya-inn-1322122171-og-6906d9acb5d4226ae0531b9aa8c04bb6
"ОБЩЕСТВО С ОГРАНИЧЕННОЙ ОТВЕТСТВЕННОСТЬЮ ""ФРЕГАТ""",ООО ФРЕГАТ,1303069910,"431720, Мордовия респ., Чамзинский район, рабочий пос. Комсомольский, ул. Калинина, д. 3", 54.441393, 45.830614,46.36,"Торговля оптовая сахаром, шоколадом и сахаристыми кондитерскими изделиями",https://spark-interfax.ru/mordoviya-respublika-chamzinski-raion/ooo-fregat-inn-1303069910-ogrn-1071322000705-617889a842037e1ce0531b9aa8c027ab
"ОБЩЕСТВО С ОГРАНИЧЕННОЙ ОТВЕТСТВЕННОСТЬЮ ""ИСКРА""",ООО ИСКРА,1304096627,"431743, Мордовия респ., Большеберезниковский район, с. Тазино, ул. Ленина, д. 5А", 54.310094, 46.082049,01.11.1,Выращивание зерновых культур,https://spark-interfax.ru/mordoviya-respublika-bolshebereznikovski-raion/ooo-iskra-inn-1304096627-ogrn-1101322000405-05cd68ea8cfb434d9041d2a375e788cf
"ОБЩЕСТВО С ОГРАНИЧЕННОЙ ОТВЕТСТВЕННОСТЬЮ ""САРАНСКИЙ ЗАВОД ТОЧНЫХ ПРИБОРОВ""",ООО СЗТП,1326228122,"430003, Мордовия респ., г. Саранск, ул. Рабочая, д. 111", 54.191846, 45.196629,26.11.2,"Производство диодов, транзисторов и прочих полупроводниковых приборов, включая светоизлучающие диоды, пьезоэлектрические приборы и их части",https://spark-interfax.ru/mordoviya-respublika-saransk/ooo-sztp-inn-1326228122-ogrn-1141326001508-4f67fa6c66074545a019cf7927ccc12a
"ОБЩЕСТВО С ОГРАНИЧЕННОЙ ОТВЕТСТВЕННОСТЬЮ ""НИВА""",ООО НИВА,1309083822,"431438, Мордовия респ., Инсарский район, с. Русская Паевка, ул. Садовая, зд. 22", 53.898775, 44.309524,01.11.1,Выращивание зерновых культур,https://spark-interfax.ru/mordoviya-respublika-insarski-raion/ooo-niva-inn-1309083822-ogrn-1061323003994-efaebd806bb94b24b92a221486925c5a
"АВТОНОМНАЯ НЕКОММЕРЧЕСКАЯ ОРГАНИЗАЦИЯ ""РЕДАКЦИЯ ГАЗЕТЫ ""ВРЕМЯ И ЖИЗНЬ""",АНО РЕДАКЦИЯ ГАЗЕТЫ ВРЕМЯ И ЖИЗНЬ,1071300003114,"431110, Мордовия респ., Зубово-Полянский район, рабочий пос. Зубова Поляна, ул. Парковая, д. 21", 54.079212, 42.830801,58.13,Издание газет,https://spark-interfax.ru/mordoviya-respublika-zubovo-polyanski-raion/ano-redaktsiya-gazety-vremya-i-zhizn-inn-1308083280-ogrn-1071300003114-6906d9ac8c76226ae0531b9aa8c04bb6
ФЕДЕРАЛЬНОЕ БЮДЖЕТНОЕ УЧРЕЖДЕНИЕ МОРДОВСКАЯ ЛАБОРАТОРИЯ СУДЕБНОЙ ЭКСПЕРТИЗЫ МИНИСТЕРСТВА ЮСТИЦИИ РОССИЙСКОЙ ФЕДЕРАЦИИ,ФБУ МОРДОВСКАЯ ЛСЭ МИНЮСТА РОССИИ,1021300975453,"430027, Мордовия респ., г. Саранск, ул. Республиканская, д. 94", 54.172628, 45.174096,71.20.2,Судебно-экспертная деятельность,https://spark-interfax.ru/mordoviya-respublika-saransk/fgbu-mordovskaya-lse-minyusta-rossii-inn-1326026260-ogrn-1021300975453-6906d9ac9a1b226ae0531b9aa8c04bb6
"РЕГИОНАЛЬНОЕ ОТДЕЛЕНИЕ ОБЩЕРОССИЙСКОГО ОБЩЕСТВЕННО-ГОСУДАРСТВЕННОГО ДВИЖЕНИЯ ДЕТЕЙ И МОЛОДЕЖИ ""ДВИЖЕНИЕ ПЕРВЫХ"" РЕСПУБЛИКИ МОРДОВИЯ",РЕГИОНАЛЬНОЕ ОТДЕЛЕНИЕ ОБЩЕРОССИЙСКОГО ОБЩЕСТВЕННО-ГОСУДАРСТВЕННОГО ДВИЖЕНИЯ ДЕТЕЙ И МОЛОДЕЖИ ДВИЖЕНИЕ ПЕРВЫХ РЕСПУБЛИКИ МОРДОВИЯ,1231300000436,"430005, Мордовия Респ, г.о. Саранск, г Саранск, ул Большевистская, д. 33, офис 201", 54.185157, 45.182900,94.99,"Деятельность прочих общественных организаций и некоммерческих организаций, кроме религиозных и политических организаций",https://spark-interfax.ru/mordoviya-respublika-saransk/od-dvizhenie-pervykh-respubliki-mordoviya-inn-1300004110-ogrn-1231300000436-f3ec1ce236820910e053249aa8c04e56
"ОБЩЕСТВО С ОГРАНИЧЕННОЙ ОТВЕТСТВЕННОСТЬЮ ПРОИЗВОДСТВЕННО-КОММЕРЧЕСКАЯ ФИРМА ""АСГАРД""",ООО ПКФ АСГАРД,1318000621,"430004, Мордовия Респ, г.о. Саранск, г Саранск, пер Кириллова, д. 2Б, ком. 513", 54.172204, 45.176161,46.69.5,"Торговля оптовая производственным электротехническим оборудованием, машинами, аппаратурой и материалами",https://spark-interfax.ru/mordoviya-respublika-saransk/ooo-asgard-inn-1318000621-ogrn-1061327012757-346c430eb62d403eb0871b3f378c7cff
"ОБЩЕСТВО С ОГРАНИЧЕННОЙ ОТВЕТСТВЕННОСТЬЮ- ПРЕДПРИЯТИЯ МЕЖФЕРМЕРСКОЙ КООПЕРАЦИИ ""КАДОШКИНСКОЕ""",ООО ПМК КАДОШКИНСКОЕ,1311087648,"431900, Мордовия респ., Кадошкинский район, рабочий пос. Кадошкино, ул. Советская, д. 4", 54.025918, 44.424673,01.11,"Выращивание зерновых (кроме риса), зернобобовых культур и семян масличных культур",https://spark-interfax.ru/mordoviya-respublika-kadoshkinski-raion/ooo-kadoshkinskoe-inn-1311087648-ogrn-1021300887960-b48be30184a24068afb22f00968a05c6
"ФЕДЕРАЛЬНОЕ ГОСУДАРСТВЕННОЕ БЮДЖЕТНОЕ ОБРАЗОВАТЕЛЬНОЕ УЧРЕЖДЕНИЕ ДОПОЛНИТЕЛЬНОГО ПРОФЕССИОНАЛЬНОГО ОБРАЗОВАНИЯ ""МОРДОВСКИЙ ИНСТИТУТ ПЕРЕПОДГОТОВКИ КАДРОВ АГРОБИЗНЕСА""",ФГБОУ МИПКА,1021301114394,"430904, Мордовия респ., г. Саранск, рабочий пос. Ялга, ул. Пионерская, д. 33", 54.130272, 45.131674,85.42,Образование профессиональное дополнительное,https://spark-interfax.ru/mordoviya-respublika-saransk/fgbu-fgbou-mipka-inn-1328042331-ogrn-1021301114394-6906d9ac996f226ae0531b9aa8c04bb6
"СЕЛЬСКОХОЗЯЙСТВЕННЫЙ ПЕРЕРАБАТЫВАЮЩИЙ СНАБЖЕНЧЕСКО-СБЫТОВОЙ ПОТРЕБИТЕЛЬСКИЙ КООПЕРАТИВ ""НАШ ПРОДУКТ""",СПССПК НАШ ПРОДУКТ,1241300000853,"431261, Мордовия Респ, м.р-н Краснослободский, г.п. Краснослободское, г Краснослободск, пер Больничный, д. 8", 54.430463, 43.783943,10.51,Производство молока (кроме сырого) и молочной продукции,https://spark-interfax.ru/mordoviya-respublika-krasnoslobodski-raion/koop-nash-produkt-inn-1300010146-ogrn-1241300000853-13d3707b89497d0fe063259aa8c07db4
"ОТКРЫТОЕ АКЦИОНЕРНОЕ ОБЩЕСТВО ""САРАНСКИЙ ЗАВОД""РЕЗИНОТЕХНИКА""","ОАО СЗРТ, ОАО САРАНСКИЙ ЗАВОД РЕЗИНОТЕХНИКА",1328028538,"430031, Мордовия респ., г. Саранск, шоссе Северо-Восточное, д. 15", 54.214498, 45.251490,22.19.2,"Производство резиновых смесей и изделий из них; производство вулканизированной резины в виде нити, корда, пластин, листов, полос, прутков и профилей",https://spark-interfax.ru/mordoviya-respublika-saransk/pao-szrt-oao-saranski-zavod-rezinotekhnika-inn-1328028538-ogrn-1021301112590-5a2d4c525cf74a7a829a445e1eebe6b9
"ОБЩЕСТВО С ОГРАНИЧЕННОЙ ОТВЕТСТВЕННОСТЬЮ ""ТКАЦКАЯ ФАБРИКА ""ЛЕНТА"" ИМЕНИ 8 МАРТА""",ООО ТКАЦКАЯ ФАБРИКА ЛЕНТА ИМЕНИ 8 МАРТА,1309084791,"431430, Мордовия респ., Инсарский район, г. Инсар, ул. Советская, д. 68", 53.867040, 44.364292,13.99.9,"Производство текстильных изделий различного назначения, не включенных в другие группировки",https://spark-interfax.ru/mordoviya-respublika-insarski-raion/ooo-tkatskaya-fabrika-lenta-imeni-marta-inn-1309084791-ogrn-1111323000458-e4038c365a4c45329fd170cff96ba1fa
"ОБЩЕСТВО С ОГРАНИЧЕННОЙ ОТВЕТСТВЕННОСТЬЮ ""МОРДОВКОММУНЭНЕРГО""",ООО МОРДОВКОММУНЭНЕРГО,1326218861,"430003, Мордовия респ., г. Саранск, ул. Большевистская, д. 111Б офис 101", 54.196254, 45.185295,35.30,"Производство, передача и распределение пара и горячей воды; кондиционирование воздуха",https://spark-interfax.ru/mordoviya-respublika-saransk/ooo-mordovkommunenergo-inn-1326218861-ogrn-1111326001467-544f61e56d0e4ad9b2525e5a3cfee70f
"ФЕДЕРАЛЬНОЕ БЮДЖЕТНОЕ УЧРЕЖДЕНИЕ ЗДРАВООХРАНЕНИЯ ""ЦЕНТР ГИГИЕНЫ И ЭПИДЕМИОЛОГИИ В РЕСПУБЛИКЕ МОРДОВИЯ""",ФБУЗ ЦЕНТР ГИГИЕНЫ И ЭПИДЕМИОЛОГИИ В РЕСПУБЛИКЕ МОРДОВИЯ,1051326002727,"430030, Мордовия респ., г. Саранск, ул. Дальняя, д. 1А", 54.189394, 45.154281,86.90.1,Деятельность организаций санитарно-эпидемиологической службы,https://spark-interfax.ru/mordoviya-respublika-saransk/fgbu-tsentr-gigieny-i-epidemiologii-v-respublike-mordoviya-inn-1326193021-ogrn-1051326002727-6906d9ac9997226ae0531b9aa8c04bb6
"ПУБЛИЧНОЕ АКЦИОНЕРНОЕ ОБЩЕСТВО ""ЭЛЕКТРОВЫПРЯМИТЕЛЬ""",ПАО ЭЛЕКТРОВЫПРЯМИТЕЛЬ,1325013893,"430016, Мордовия респ., г. Саранск, ул. Пролетарская, д. 126", 54.195697, 45.177161,27.11.1,"Производство электродвигателей, генераторов и трансформаторов, кроме ремонта",https://spark-interfax.ru/mordoviya-respublika-saransk/pao-elektrovypryamitel-inn-1325013893-ogrn-1021301064950-c270b537f20142b6a139772ebcfa5670
"ФЕДЕРАЛЬНОЕ ГОСУДАРСТВЕННОЕ БЮДЖЕТНОЕ УЧРЕЖДЕНИЕ ""СУДЕБНО-ЭКСПЕРТНОЕ УЧРЕЖДЕНИЕ ФЕДЕРАЛЬНОЙ ПРОТИВОПОЖАРНОЙ СЛУЖБЫ ""ИСПЫТАТЕЛЬНАЯ ПОЖАРНАЯ ЛАБОРАТОРИЯ"" ПО РЕСПУБЛИКЕ МОРДОВИЯ""",ФГБУ СЭУ ФПС ИПЛ ПО РЕСПУБЛИКЕ МОРДОВИЯ,1061326022218,"430027, Мордовия Респ, г.о. Саранск, г Саранск, ул Фурманова, д. 15В", 54.177387, 45.150080,84.25.1,Деятельность по обеспечению пожарной безопасности,https://spark-interfax.ru/mordoviya-respublika-saransk/fgbu-fgbu-seu-fps-ipl-po-respublike-mordoviya-inn-1326197450-ogrn-1061326022218-6906d9acabd1226ae0531b9aa8c04bb6
"ОБЩЕСТВО С ОГРАНИЧЕННОЙ ОТВЕТСТВЕННОСТЬЮ ""МСА ГРУПП""",ООО МСА ГРУПП,5074064713,"142116, Московская обл, г.о. Подольск, г Подольск, ул Мраморная, д. 12, кв. 85", 55.443496, 37.562897,46.73,"Торговля оптовая лесоматериалами, строительными материалами и санитарно-техническим оборудованием",https://spark-interfax.ru/moskovskaya-oblast-podolsk/ooo-msa-grupp-inn-5074064713-ogrn-1205000053499-aa36c5b7e6931031e053189aa8c0e97f
"ОБЩЕСТВО С ОГРАНИЧЕННОЙ ОТВЕТСТВЕННОСТЬЮ ""РЭБ РМ""",ООО РЭБ РМ,1300010844,"430034, Мордовия Респ, г.о. Саранск, г Саранск, ул Лодыгина, д. 3, эт/пом/раб 2/214/136", 54.222433, 45.159452,72.19,Научные исследования и разработки в области естественных и технических наук прочие,https://spark-interfax.ru/mordoviya-respublika-saransk/ooo-reb-rm-inn-1300010844-ogrn-1241300001557-18c6c87f70fe6274e063259aa8c08571
"АКЦИОНЕРНОЕ ОБЩЕСТВО ""МЕЖДУНАРОДНЫЙ АЭРОПОРТ ""САРАНСК""",АО МЕЖДУНАРОДНЫЙ АЭРОПОРТ САРАНСК,1328905789,"430910, Мордовия респ., г. Саранск, тер. Аэропорт", 54.186710, 45.183830,52.23.11,Деятельность аэропортовая,https://spark-interfax.ru/mordoviya-respublika-saransk/ao-mezhdunarodny-aeroport-saransk-inn-1328905789-ogrn-1061328010897-210ad1e081d24bf49779fca5adff2bfd
"ОБЩЕСТВО С ОГРАНИЧЕННОЙ ОТВЕТСТВЕННОСТЬЮ ""ФЛАЙ""",ООО ФЛАЙ,1300008860,"430034, Мордовия Респ, г.о. Саранск, г Саранск, ул Лодыгина, д. 3, этаж 2, К.ОПЫТ.ЗАВ, помещ. 8 ЧАСТЬ 2", 54.222433, 45.159452,72.19,Научные исследования и разработки в области естественных и технических наук прочие,https://spark-interfax.ru/mordoviya-respublika-saransk/ooo-flai-inn-1300008860-ogrn-1231300005155-0c2003fc50a11868e063259aa8c074d7
"ОБЩЕСТВО С ОГРАНИЧЕННОЙ ОТВЕТСТВЕННОСТЬЮ ""ОСНОВА""",ООО ОСНОВА,1322001794,"431770, Мордовия Респ, м.р-н Дубенский, с.п. Дубенское, с Дубенки, ул Манина, д. 133", 54.435770, 46.284727,08.12.1,Разработка гравийных и песчаных карьеров,https://spark-interfax.ru/mordoviya-respublika-dubenski-raion/ooo-osnova-inn-1322001794-ogrn-1221300000217-d6c4d83fe41041cde053259aa8c0227f
"ОБЩЕСТВО С ОГРАНИЧЕННОЙ ОТВЕТСТВЕННОСТЬЮ ""МЯСОПЕРЕРАБАТЫВАЮЩИЙ КОМПЛЕКС ""АТЯШЕВСКИЙ""",ООО МПКАТЯШЕВСКИЙ,1303066789,"431800, Мордовия респ., Атяшевский район, рабочий пос. Атяшево", 54.588902, 46.080559,10.13.1,"Производство соленого, вареного, запеченого, копченого, вяленого и прочего мяса",https://spark-interfax.ru/mordoviya-respublika-atyashevski-raion/ooo-mpkatyashevski-inn-1303066789-ogrn-1021300546519-2a61a565dfdc4ae1927cfd47e995bd1b
"СЕЛЬСКОХОЗЯЙСТВЕННЫЙ СНАБЖЕНЧЕСКИЙ СБЫТОВОЙ ПЕРЕРАБАТЫВАЮЩИЙ ПОТРЕБИТЕЛЬСКИЙ КООПЕРАТИВ ""ГРАД-АТЕРЬ""",СССППК ГРАД-АТЕРЬ,1221300002330,"431050, Мордовия Респ, м.р-н Атюрьевский, с.п. Атюрьевское, с Атюрьево, ул Московская, д. 49", 54.309941, 43.323747,10.12,Производство и консервирование мяса птицы,https://spark-interfax.ru/mordoviya-respublika-atyurevski-raion/koop-grad-ater-inn-1300000910-ogrn-1221300002330-e2ded158850068d5e053259aa8c0cecf
"СЕЛЬСКОХОЗЯЙСТВЕННЫЙ ПОТРЕБИТЕЛЬСКИЙ ПЕРЕРАБАТЫВАЮЩИЙ СНАБЖЕНЧЕСКО-СБЫТОВОЙ КООПЕРАТИВ ""ВИКТОРИЯ""",СППССК ВИКТОРИЯ,1241300000908,"431540, Мордовия Респ, м.р-н Старошайговский, с.п. Старошайговское, с Старое Шайгово, ул Шишканова, зд. 160", 54.302182, 44.466985,10.11,Переработка и консервирование мяса,https://spark-interfax.ru/mordoviya-respublika-staroshaigovski-raion/koop-viktoriya-inn-1300010192-ogrn-1241300000908-14ed1245d3b57e28e063259aa8c0dd23
"АКЦИОНЕРНОЕ ОБЩЕСТВО ""РУЗАЕВСКИЙ ЗАВОД ХИМИЧЕСКОГО МАШИНОСТРОЕНИЯ""",АО РУЗХИММАШ,1324015626,"431445, Мордовия Респ, м.р-н Рузаевский, г.п. Рузаевка, г Рузаевка, ул Титова, д. 16, стр. 1", 54.038873, 44.934696,30.20.33,"Производство несамоходных железнодорожных, трамвайных и прочих вагонов для перевозки грузов",https://spark-interfax.ru/mordoviya-respublika-ruzaevka/ao-ruzkhimmash-inn-1324015626-ogrn-1021300927845-698151e389b24093a4002e647a039ee9
"ОБЩЕСТВО С ОГРАНИЧЕННОЙ ОТВЕТСТВЕННОСТЬЮ ""АГРОСПУТНИК""",ООО АГРОСПУТНИК,3435137528,"404101, Волгоградская обл, г.о. город Волжский, г Волжский, ул Пушкина, д. 119, офис 201", 48.756668, 44.838448,46.61,"Торговля оптовая машинами, оборудованием и инструментами для сельского хозяйства",https://spark-interfax.ru/volgogradskaya-oblast-volzhski/ooo-agrosputnik-inn-3435137528-ogrn-1193443014280-9783077b9d161e56e0531b9aa8c0e259
"АКЦИОНЕРНОЕ ОБЩЕСТВО ""МОРДОВСКОЕ АГРОТЕХНИЧЕСКОЕ МАШИНОСТРОЕНИЕ""",АО МОРДОВАГРОМАШ,1328035951,"430008, Мордовия респ., г. Саранск, рабочий пос. Луховка, ул. Рабочая, д. 15А", 54.169503, 45.221048,29.20,Производство кузовов для автотранспортных средств; производство прицепов и полуприцепов,https://spark-interfax.ru/mordoviya-respublika-saransk/ao-mordovagromash-inn-1328035951-ogrn-1021301117970-54597df9199144bf8c7715f02441256a
"АКЦИОНЕРНОЕ ОБЩЕСТВО ""ПЛАЙТЕРРА""",АО ПЛАЙТЕРРА,1308080071,"142116, Московская обл, г.о. Подольск, г Подольск, ул Лобачева, д. 6, стр. 4, помещ. 1, офис 195", 55.434912, 37.572385,16.21.1,"Производство фанеры, деревянных фанерованных панелей и аналогичных слоистых материалов, древесных плит из древесины и других одревесневших материалов",https://spark-interfax.ru/moskovskaya-oblast-podolsk/ao-plaiterra-inn-1308080071-ogrn-1021300659588-a8041424c0294894a7937e23d8db503d
"ОБЩЕСТВО С ОГРАНИЧЕННОЙ ОТВЕТСТВЕННОСТЬЮ КФХ "" ВЕДУГА """,ООО КФХ ВЕДУГА,3631000872,"396840, Воронежская обл., Хохольский район, рабочий пос. Хохольский, ул. Мира, д. 36", 51.556905, 38.778454,01.11.1,Выращивание зерновых культур,https://spark-interfax.ru/voronezhskaya-oblast-khokholski-raion/ooo-veduga-inn-3631000872-ogrn-1023601313890-dac0168a30554d14b30e100a099bc814
"ОБЩЕСТВО С ОГРАНИЧЕННОЙ ОТВЕТСТВЕННОСТЬЮ ""ЭКО ТЕХНОЛОГИИ""",ООО ЭКО ТЕХНОЛОГИИ,3610000470,"394018, Воронежская обл, г.о. город Воронеж, г Воронеж, ул Станкевича, д. 36, офис 61,62", 51.655232, 39.194143,01.11.1,Выращивание зерновых культур,https://spark-interfax.ru/voronezhskaya-oblast-voronezh/ooo-eko-tekhnologii-inn-3610000470-ogrn-1153668017360-6db7f178f9804a15acfa30372ab30c41
АДМИНИСТРАЦИЯ ЛИСИЧАНСКОГО СЕЛЬСКОГО ПОСЕЛЕНИЯ ОЛЬХОВАТСКОГО МУНИЦИПАЛЬНОГО РАЙОНА ВОРОНЕЖСКОЙ ОБЛАСТИ,АДМИНИСТРАЦИЯ ЛИСИЧАНСКОГО СЕЛЬСКОГО ПОСЕЛЕНИЯ,1023601233105,"396677, Воронежская обл., Ольховатский район, хутор Дроздово, ул. Ленина, д. 5", 50.334030, 39.390083,84.11.31,Деятельность органов местного самоуправления сельских поселений,https://spark-interfax.ru/voronezhskaya-oblast-olkhovatski-raion/mku-administratsiya-lisichanskogo-selskogo-poseleniya-inn-3618000506-ogrn-1023601233105-6906d94c0a30226ae0531b9aa8c04bb6
"ОЛЬХОВАТСКАЯ ОБЪЕДИНЕННАЯ ПЕРВИЧНАЯ ПРОФСОЮЗНАЯ ОРГАНИЗАЦИЯ ВОРОНЕЖСКОЙ ОБЛАСТНОЙ ОРГАНИЗАЦИИ ОБЩЕРОССИЙСКОГО ОБЩЕСТВЕННОГО ОБЪЕДИНЕНИЯ ""ПРОФЕССИОНАЛЬНЫЙ СОЮЗ РАБОТНИКОВ АГРОПРОМЫШЛЕННОГО КОМПЛЕКСА РОССИЙСКОЙ ФЕДЕРАЦИИ""",ОЛЬХОВАТСКАЯ ОБЪЕДИНЕННАЯ ПЕРВИЧНАЯ ПРОФСОЮЗНАЯ ОРГАНИЗАЦИЯ ВОРОНЕЖСКОЙ ОБЛАСТНОЙ ОРГАНИЗАЦИИ ООО ПРОФСОЮЗА РАБОТНИКОВ АПК РФ,1073600001342,"396670, Воронежская обл., Ольховатский район, рабочий пос. Ольховатка, ул. Октябрьская, д. 64", 50.278136, 39.303906,94.20,Деятельность профессиональных союзов,https://spark-interfax.ru/voronezhskaya-oblast-olkhovatski-raion/ppo-olkhovatskaya-obedinennaya-pervichnaya-profsoyuznaya-organizatsiya-voronezhskoi-oblastnoi-organizatsii-ooo-profsoyuza-ra-6906d94c4b1d226ae0531b9aa8c04bb6
"ОБЩЕСТВО С ОГРАНИЧЕННОЙ ОТВЕТСТВЕННОСТЬЮ ""АГРОЭКО-ЮГ""",ООО АГРОЭКО-ЮГ,3662159260,"396420, Воронежская обл., Павловский район, г. Павловск, ул. Гоголя, д. 40Б пом. 1 офис 4", 50.449322, 40.130475,10.11,Переработка и консервирование мяса,https://spark-interfax.ru/voronezhskaya-oblast-pavlovski-raion/ooo-agroeko-yug-inn-3662159260-ogrn-1103668038231-e0298d62495e4803a95e78750a3cf41c
"ОБЩЕСТВО С ОГРАНИЧЕННОЙ ОТВЕТСТВЕННОСТЬЮ ""НАУЧНО-ПРОИЗВОДСТВЕННОЕ ОБЪЕДИНЕНИЕ ""МЕМБРАНЫ""",ООО НПО МЕМБРАНЫ,3661065725,"394006, Воронежская обл., г. Воронеж, ул. 20-Летия Октября, д. 76 кв. 68", 51.649765, 39.195904,72.19,Научные исследования и разработки в области естественных и технических наук прочие,https://spark-interfax.ru/voronezhskaya-oblast-voronezh/ooo-npo-membrany-inn-3661065725-ogrn-1143668049645-19a5689868d5441c8272b2084949bb77
"ОБЩЕСТВО С ОГРАНИЧЕННОЙ ОТВЕТСТВЕННОСТЬЮ АГРОПРОМЫШЛЕННЫЙ КОМПЛЕКС ""АЛЕКСАНДРОВСКОЕ""",ООО АПК АЛЕКСАНДРОВСКОЕ,3621004620,"396201, Воронежская обл., Панинский район, с. Александровка, ул. Школьная, д. 35", 51.475417, 39.942100,01.11.1,Выращивание зерновых культур,https://spark-interfax.ru/voronezhskaya-oblast-paninski-raion/ooo-aleksandrovskoe-inn-3621004620-ogrn-1033668501910-4f19fd773fbd483cae69e301905c5e2f
"ОБЩЕСТВО С ОГРАНИЧЕННОЙ ОТВЕТСТВЕННОСТЬЮ ""ПТИЦЕФАБРИКА БОБРОВСКАЯ""",ООО ПТИЦЕФАБРИКА БОБРОВСКАЯ,3602013147,"397721, Воронежская обл, м.р-н Бобровский, с.п. Ясенковское, п Ясенки, ул Свободы, зд. 1А", 51.046696, 39.976105,01.47,Разведение сельскохозяйственной птицы,https://spark-interfax.ru/voronezhskaya-oblast-bobrovski-raion/ooo-ptitsefabrika-bobrovskaya-inn-3602013147-ogrn-1213600022206-c6d133efa4cb3a0ae053219aa8c0a7f4
"ОБЩЕСТВО С ОГРАНИЧЕННОЙ ОТВЕТСТВЕННОСТЬЮ ""СЕЛЬХОЗТЕХНИКА""",ООО СЕЛЬХОЗТЕХНИКА,3619010610,"397837, Воронежская обл., Острогожский район, пос. Элеваторный, ул. Химиков, д. 13", 50.831238, 39.097507,01.11,"Выращивание зерновых (кроме риса), зернобобовых культур и семян масличных культур",https://spark-interfax.ru/voronezhskaya-oblast-ostrogozhski-raion/ooo-selkhoztekhnika-inn-3619010610-ogrn-1093619001145-f5e282f52ce34ec8b930a5fe4a3d6806
"ОБЩЕСТВО С ОГРАНИЧЕННОЙ ОТВЕТСТВЕННОСТЬЮ ""ЗОЛОТАЯ НИВА""",ООО ЗОЛОТАЯ НИВА,3607003382,"396115, Воронежская обл, м.р-н Верхнехавский, с.п. Правохавское, с Правая Хава, ул Леваневского, зд. 23, офис 7", 51.723723, 39.781717,01.11,"Выращивание зерновых (кроме риса), зернобобовых культур и семян масличных культур",https://spark-interfax.ru/voronezhskaya-oblast-verkhnekhavski-raion/ooo-zolotaya-niva-inn-3607003382-ogrn-1023600938019-d776710567ab4cd8bd8e996626fac3e3
"ОБЩЕСТВО С ОГРАНИЧЕННОЙ ОТВЕТСТВЕННОСТЬЮ ""АГРОМИР""",ООО АГРОМИР,3626017006,"396381, Воронежская обл., Репьёвский район, с. Одинцовка, ул. Школьная, зд. 1 пом. I", 51.095172, 38.437440,01.11,"Выращивание зерновых (кроме риса), зернобобовых культур и семян масличных культур",https://spark-interfax.ru/voronezhskaya-oblast-repevski-raion/ooo-agromir-inn-3626017006-ogrn-1203600002869-9e1cd220365b3ec5e053179aa8c0801a
"АКЦИОНЕРНОЕ ОБЩЕСТВО ФИРМА ""МОЛОКО""",АО ФИРМА МОЛОКО,3627001190,"396650, Воронежская обл., Россошанский район, г. Россошь, ул. Льва Толстого, д. 53", 50.204444, 39.574984,10.51,Производство молока (кроме сырого) и молочной продукции,https://spark-interfax.ru/voronezhskaya-oblast-rossoshanski-raion/ao-moloko-inn-3627001190-ogrn-1023601231785-edf5b2902ca5494fbb66ea525765e931
"ОБЩЕСТВО С ОГРАНИЧЕННОЙ ОТВЕТСТВЕННОСТЬЮ ""НАК""",ООО НАК,3624024985,"396560, Воронежская обл., Подгоренский район, пгт. Подгоренский, ул. Кооперативная, д. 5", 50.403614, 39.638832,10.51.3,Производство сыра и сырных продуктов,https://spark-interfax.ru/voronezhskaya-oblast-podgorenski-raion/ooo-nak-inn-3624024985-ogrn-1143668052549-886e3fc6800b4a58a7a596cffbc42fa3
"ОБЩЕСТВО С ОГРАНИЧЕННОЙ ОТВЕТСТВЕННОСТЬЮ ""АГЗС-СЕРВИС""",ООО АГЗС-СЕРВИС,3665063260,"394035, Воронежская обл., г. Воронеж, ул. Мало-Стрелецкая, д. 6", 51.654603, 39.198788,33.20,Монтаж промышленных машин и оборудования,https://spark-interfax.ru/voronezhskaya-oblast-voronezh/ooo-agzs-servis-inn-3665063260-ogrn-1073667027048-0c85afaa8ccf4dc09bf906b460b52d1b
"КРЕСТЬЯНСКОЕ ХОЗЯЙСТВО ""СЕРГИЕНКО""",КХ СЕРГИЕНКО,1033664500088,"396624, Воронежская обл., Россошанский район, с. Александровка, ул. Ленина, д. 293", 49.997359, 39.380737,01.11.1,Выращивание зерновых культур,https://spark-interfax.ru/voronezhskaya-oblast-rossoshanski-raion/sergienko-inn-3627000710-ogrn-1033664500088-617889546fc97e1ce0531b9aa8c027ab
"АКЦИОНЕРНОЕ ОБЩЕСТВО ""НИЖНЕКИСЛЯЙСКАЯ МОЛОЧНАЯ КОМПАНИЯ""",АО НМК,3605007590,"397535, Воронежская обл., Бутурлиновский район, рабочий пос. Нижний Кисляй, ул. Дзержинского, д. 19", 50.861807, 40.160856,10.5,Производство молочной продукции,https://spark-interfax.ru/voronezhskaya-oblast-buturlinovski-raion/ao-nmk-inn-3605007590-ogrn-1113629000121-44d6a10363dd4d84a3df3659c51e8482
"ОБЩЕСТВО С ОГРАНИЧЕННОЙ ОТВЕТСТВЕННОСТЬЮ ""ГОРОДСКОЙ МОЛОЧНЫЙ ЗАВОД ""ЛИСКИНСКИЙ""",ООО ГМЗ ЛИСКИНСКИЙ,3614003249,"397908, Воронежская обл., Лискинский район, г. Лиски, ул. Индустриальная, д. 15", 51.003607, 39.499998,10.51.3,Производство сыра и сырных продуктов,https://spark-interfax.ru/voronezhskaya-oblast-liskinski-raion/ooo-gmz-liskinski-inn-3614003249-ogrn-1023601513990-7951d8f660ee46da9aeb76ca17837b59
"КРЕСТЬЯНСКОЕ (ФЕРМЕРСКОЕ) ХОЗЯЙСТВО ""ВЕСНА""",КФХ ВЕСНА,1023600934235,"396110, Воронежская обл., Верхнехавский район, с. Верхняя Хава, ул. Буденного, д. 87", 51.851341, 39.948899,01.11.1,Выращивание зерновых культур,https://spark-interfax.ru/voronezhskaya-oblast-verkhnekhavski-raion/kfkh-vesna-inn-3607000494-ogrn-1023600934235-6906d94ba6f9226ae0531b9aa8c04bb6
"ОБЩЕСТВО С ОГРАНИЧЕННОЙ ОТВЕТСТВЕННОСТЬЮ ""7 УТРА""",ООО 7 УТРА,3666062693,"394065, Воронежская обл, г.о. город Воронеж, г Воронеж, пр-кт Патриотов, д. 61Б, офис 203", 51.641672, 39.105709,10.51,Производство молока (кроме сырого) и молочной продукции,https://spark-interfax.ru/voronezhskaya-oblast-voronezh/ooo-utra-inn-3666062693-ogrn-1023601556186-939da0c543c14f4ba91dceb017be190d
"ОБЩЕСТВО С ОГРАНИЧЕННОЙ ОТВЕТСТВЕННОСТЬЮ ""БОБРОВСКИЙ СЫРОДЕЛЬНЫЙ ЗАВОД""",ООО БОБРОВСКИЙ СЫРЗАВОД,3602011132,"397727, Воронежская обл., Бобровский район, с. Тройня, ул. Молодежная, д. 25", 51.036091, 40.435158,10.51.3,Производство сыра и сырных продуктов,https://spark-interfax.ru/voronezhskaya-oblast-bobrovski-raion/ooo-bobrovski-syrzavod-inn-3602011132-ogrn-1093652001190-d6a1215a927344f4a95fab1ec34b6c4a
"ОБЩЕСТВО С ОГРАНИЧЕННОЙ ОТВЕТСТВЕННОСТЬЮ ""САВАЛА""",ООО САВАЛА,3630002926,"397130, Воронежская обл., Терновский район, с. Поповка, ул. Крупской, зд. 24", 51.537285, 41.730831,01.11.1,Выращивание зерновых культур,https://spark-interfax.ru/voronezhskaya-oblast-ternovski-raion/ooo-savala-inn-3630002926-ogrn-1043659501731-26f44f58ef484ed3a7fa85ae45574204
"ОБЩЕСТВО С ОГРАНИЧЕННОЙ ОТВЕТСТВЕННОСТЬЮ ФИРМА ""РЕГИОН ВОЛГА""",ООО ФИРМА РЕГИОН ВОЛГА,6320011250,"445043, Самарская обл., г. Тольятти, ул. Северная, зд. 18А", 53.581559, 49.286920,22.29.9,Предоставление услуг в области производства прочих пластмассовых изделий,https://spark-interfax.ru/samarskaya-oblast-tolyatti/ooo-region-volga-inn-6320011250-ogrn-1036301050059-a43af0cf14e54f3b9d370b3030c3499e
"ОБЩЕСТВО С ОГРАНИЧЕННОЙ ОТВЕТСТВЕННОСТЬЮ ""СВАЙП ЭНД ЛАЙК""",ООО СВАЙП ЭНД ЛАЙК,6316281461,"443001, Самарская обл, г.о. Самара, вн.р-н Ленинский, г Самара, ул Садовая, д. 212Б, кв. 33", 52.747492, 50.137535,62.01,Разработка компьютерного программного обеспечения,https://spark-interfax.ru/samarskaya-oblast-samara/ooo-svaip-end-laik-inn-6316281461-ogrn-1226300041890-eb1f0ead67a116e2e053249aa8c028dd
"ОБЩЕСТВО С ОГРАНИЧЕННОЙ ОТВЕТСТВЕННОСТЬЮ ""ДАРА""",ООО ДАРА,6324070231,"445003, Самарская обл., г. Тольятти, ул. Комзина, д. 6 офис 1", 53.474637, 49.353829,55.30,"Деятельность по предоставлению мест для временного проживания в кемпингах, жилых автофургонах и туристических автоприцепах",https://spark-interfax.ru/samarskaya-oblast-tolyatti/ooo-dara-inn-6324070231-ogrn-1166313075862-389a2c539065433b946d29eaba8beb3c
"ОБЩЕСТВО С ОГРАНИЧЕННОЙ ОТВЕТСТВЕННОСТЬЮ ""ЭЛИТ-МАСТЕР""",ООО ЭЛИТ-МАСТЕР,6311087125,"443029, Самарская обл., г. Самара, ул. Ново-Вокзальная, д. 279/31 офис 210", 53.229222, 50.228319,95.2,Ремонт предметов личного потребления и хозяйственно-бытового назначения,https://spark-interfax.ru/samarskaya-oblast-samara/ooo-elit-master-inn-6311087125-ogrn-1066311042423-befde95a2f844e1590e24aded23f7427
"ОБЩЕСТВО С ОГРАНИЧЕННОЙ ОТВЕТСТВЕННОСТЬЮ ""ТАВРИЯ""",ООО ТАВРИЯ,6325051538,"446010, Самарская обл., г. Сызрань, ул. Дизельная, д. 12 литера Ф каб. 4", 53.183757, 48.516300,13.20,Производство текстильных тканей,https://spark-interfax.ru/samarskaya-oblast-syzran/ooo-tavriya-inn-6325051538-ogrn-1096325001464-bbe012f8e2b04b999fe6269cb8a3dff8
"ОБЩЕСТВО С ОГРАНИЧЕННОЙ ОТВЕТСТВЕННОСТЬЮ ""ДЭСКА""",ООО ДЭСКА,6321290430,"445043, Самарская обл, г.о. Тольятти, г Тольятти, ул Северная, двлд. 22, офис 303", 53.580982, 49.276219,29.31,Производство электрического и электронного оборудования для автотранспортных средств,https://spark-interfax.ru/samarskaya-oblast-tolyatti/ooo-deska-inn-6321290430-ogrn-1126320007692-8f99f245b3e5492181c243c7081de0e4
"ОБЩЕСТВО С ОГРАНИЧЕННОЙ ОТВЕТСТВЕННОСТЬЮ ""ШАХ""",ООО ШАХ,6377014865,"446643, Самарская обл., Алексеевский район, пос. Авангард, ул. Придорожная, д. 13 ком. 6", 52.618591, 51.278488,01.11,"Выращивание зерновых (кроме риса), зернобобовых культур и семян масличных культур",https://spark-interfax.ru/samarskaya-oblast-alekseevski-raion/ooo-shakh-inn-6377014865-ogrn-1116377000244-58421eb7af994d41912555cda6b7d4fb
"ОБЩЕСТВО С ОГРАНИЧЕННОЙ ОТВЕТСТВЕННОСТЬЮ ""КРАСНОЯРСКОЕ ЖИЛИЩНО-КОММУНАЛЬНОЕ ХОЗЯЙСТВО""",ООО КЖКХ,6376065352,"446370, Самарская обл., Красноярский район, с. Красный Яр, ул. Совхозная, д. 1", 53.499922, 50.397912,68.32.1,Управление эксплуатацией жилого фонда за вознаграждение или на договорной основе,https://spark-interfax.ru/samarskaya-oblast-krasnoyarski-raion/ooo-kzhkkh-inn-6376065352-ogrn-1086376000391-ffd04dca7e3f4ffc9dccd637165e692e
"КРЕСТЬЯНСКОЕ (ФЕРМЕРСКОЕ) ХОЗЯЙСТВО ""ЧАЙКА""",КФХ ЧАЙКА,1026303858767,"446611, Самарская обл., Нефтегорский район, с. Дмитриевка, ул. Заозерная, д. 3 кв. 1", 52.787805, 50.642777,01.11,"Выращивание зерновых (кроме риса), зернобобовых культур и семян масличных культур",https://spark-interfax.ru/samarskaya-oblast-neftegorski-raion/kfkh-chaika-inn-6377001961-ogrn-1026303858767-6906d957e683226ae0531b9aa8c04bb6
СЕЛЬСКОХОЗЯСТВЕННЫЙ ПРОИЗВОДСТВЕННЫЙ КООПЕРАТИВ ИМЕНИ ДАВЫДОВА,СПК ИМ. ДАВЫДОВА,6385000633,"446861, Самарская обл., Челно-Вершинский район, с. Токмакла", 54.340172, 51.142967,01.11,"Выращивание зерновых (кроме риса), зернобобовых культур и семян масличных культур",https://spark-interfax.ru/samarskaya-oblast-chelno-vershinski-raion/koop-davydova-inn-6385000633-ogrn-1026303767269-e747ef6b716842569352a79baeb1c6b7
"ОБЩЕСТВО С ОГРАНИЧЕННОЙ ОТВЕТСТВЕННОСТЬЮ ""ТРОФИМОВСКОЕ""",ООО ТРОФИМОВСКОЕ,6377006663,"446609, Самарская обл., Нефтегорский район, с. Трофимовка, ул. Центральная, д. 9 офис 2", 52.821872, 50.842666,01.11.1,Выращивание зерновых культур,https://spark-interfax.ru/samarskaya-oblast-neftegorski-raion/ooo-trofimovskoe-inn-6377006663-ogrn-1046303050771-8decf718942e4b28b776031a033a9062
"ОБЩЕСТВО С ОГРАНИЧЕННОЙ ОТВЕТСТВЕННОСТЬЮ ""КРЕСТЬЯНСКОЕ ХОЗЯЙСТВО РАССВЕТ""",ООО КХ РАССВЕТ,6365004076,"446290, Самарская обл., Большечерниговский район, с. Большая Черниговка, ул. Дорожная, домовладение 3А", 52.087186, 50.856240,01.11,"Выращивание зерновых (кроме риса), зернобобовых культур и семян масличных культур",https://spark-interfax.ru/samarskaya-oblast-bolshechernigovski-raion/ooo-kkh-rassvet-inn-6365004076-ogrn-1026303463405-470cd2855c7141d6a1c4efc3a0a0b5f9
"СЕЛЬСКОХОЗЯЙСТВЕННЫЙ ПРОИЗВОДСТВЕННЫЙ КООПЕРАТИВ ""ПЕРСПЕКТИВА""",СПК ПЕРСПЕКТИВА,6361003120,"446640, Самарская обл., с. Алексеевка, ул. Юбилейная, д. 1А", 52.587452, 51.260314,01.1,Выращивание однолетних культур,https://spark-interfax.ru/samarskaya-oblast-alekseevski-raion/koop-perspektiva-inn-6361003120-ogrn-1026303859691-6178895e4f3a7e1ce0531b9aa8c027ab
"АКЦИОНЕРНОЕ ОБЩЕСТВО ""САМАРСКАЯ КАБЕЛЬНАЯ КОМПАНИЯ""",АО СКК,6318101450,"443022, Самарская обл, г.о. Самара, вн.р-н Советский, г Самара, ул Кабельная, д. 9, этаж 3, помещ. 36", 53.190896, 50.267575,27.32,Производство прочих проводов и кабелей для электронного и электрического оборудования,https://spark-interfax.ru/samarskaya-oblast-samara/ao-skk-inn-6318101450-ogrn-1026301512027-c5ee2c178a0a4503b4568efb55f35ebc
"ОБЩЕСТВО С ОГРАНИЧЕННОЙ ОТВЕТСТВЕННОСТЬЮ ""НОВЫЙ СЕЗОН""",ООО НОВЫЙ СЕЗОН,6372026419,"446812, Самарская обл, м.р-н Кошкинский, с.п. Большая Константиновка, п Алексеевка, ул Полевая, двлд. 13", 54.336749, 50.229223,01.11,"Выращивание зерновых (кроме риса), зернобобовых культур и семян масличных культур",https://spark-interfax.ru/samarskaya-oblast-koshkinski-raion/ooo-novy-sezon-inn-6372026419-ogrn-1216300026337-c4111f76da071070e053219aa8c01f9b
"ОБЩЕСТВО С ОГРАНИЧЕННОЙ ОТВЕТСТВЕННОСТЬЮ ""БЕТА""",ООО БЕТА,6330026738,"446218, Самарская обл, г.о. Новокуйбышевск, г Новокуйбышевск, ул Свердлова, д. 19А, кв. 2", 53.089541, 49.977876,41.20,Строительство жилых и нежилых зданий,https://spark-interfax.ru/samarskaya-oblast-novokuibyshevsk/ooo-beta-inn-6330026738-ogrn-1046301411617-9f298442232e4116bbd7a4f0378265d2
КРЕСТЬЯНСКОЕ (ФЕРМЕРСКОЕ) ХОЗЯЙСТВО СКРИПНИК Н.П.,КФХ СКРИПНИК Н.П.,1026303858580,"443110, Самарская обл., Алексеевский район, пос. Субботинский, ул. Пионерская, домовладение 55", 52.603256, 51.422461,01.1,Выращивание однолетних культур,https://spark-interfax.ru/samarskaya-oblast-alekseevski-raion/kfkh-skripnik-n-p-inn-6361000088-ogrn-1026303858580-6906d957cdc8226ae0531b9aa8c04bb6
"ОБЩЕСТВО С ОГРАНИЧЕННОЙ ОТВЕТСТВЕННОСТЬЮ ""АГРОСЕРВИС""",ООО АГРОСЕРВИС,6377017584,"446660, Самарская обл, м.р-н Борский, с.п. Борское, с Борское, ул Неверовская, д. 33Б", 53.024237, 51.698097,46.21,"Торговля оптовая зерном, необработанным табаком, семенами и кормами для сельскохозяйственных животных",https://spark-interfax.ru/samarskaya-oblast-borski-raion/ooo-agroservis-inn-6377017584-ogrn-1236300033860-0c2003fc4e551868e063259aa8c074d7
СОБРАНИЕ ПРЕДСТАВИТЕЛЕЙ СЕЛЬСКОГО ПОСЕЛЕНИЯ МАЛЯЧКИНО МУНИЦИПАЛЬНОГО РАЙОНА ШИГОНСКИЙ САМАРСКОЙ ОБЛАСТИ,СОБРАНИЕ ПРЕДСТАВИТЕЛЕЙ СЕЛЬСКОГО ПОСЕЛЕНИЯ МАЛЯЧКИНО,1056325050011,"446727, Самарская обл., Шигонский район, с. Малячкино, ул. Советская, д. 64", 53.390296, 48.590537,84.11.31,Деятельность органов местного самоуправления сельских поселений,https://spark-interfax.ru/samarskaya-oblast-shigonski-raion/mku-sobranie-predstavitelei-selskogo-poseleniya-malyachkino-inn-6325037759-ogrn-1056325050011-6906d9589b00226ae0531b9aa8c04bb6
"ОБЩЕСТВО С ОГРАНИЧЕННОЙ ОТВЕТСТВЕННОСТЬЮ ""КРАСНЫЙЯРАГРОСНАБ""",ООО КРАСНЫЙЯРАГРОСНАБ,6376025776,"446370, Самарская обл., Красноярский район, с. Красный Яр, ул. Степная, д. 10", 53.488754, 50.400110,46.61,"Торговля оптовая машинами, оборудованием и инструментами для сельского хозяйства",https://spark-interfax.ru/samarskaya-oblast-krasnoyarski-raion/ooo-krasnyyaragrosnab-inn-6376025776-ogrn-1156313059198-8b03acb621a0481f84adb79f6c93dae6
"ОБЩЕСТВО С ОГРАНИЧЕННОЙ ОТВЕТСТВЕННОСТЬЮ ""САНО ВОЛГА""",ООО САНО ВОЛГА,6382064004,"445043, Самарская обл., г. Тольятти, шоссе 2-Е (Оэз Ппт Тер.), зд. 3 стр. 4 ком. 104", 53.514988, 49.407332,29.32,Производство прочих комплектующих и принадлежностей для автотранспортных средств,https://spark-interfax.ru/samarskaya-oblast-tolyatti/ooo-sano-volga-inn-6382064004-ogrn-1126382001790-7661cbe848ef4abd997b60924f94232f
"КРЕСТЬЯНСКОЕ (ФЕРМЕРСКОЕ) ХОЗЯЙСТВО ""ЮЛАЙ""",КФХ ЮЛАЙ,1026303463570,"446187, Самарская обл., Большеглушицкий район, с. Таш-Кустьяново, ул. Набережная, д. 1", 52.299449, 51.234923,01.11.1,Выращивание зерновых культур,https://spark-interfax.ru/samarskaya-oblast-bolsheglushitski-raion/kfkh-yulai-inn-6364002492-ogrn-1026303463570-6906d957eab0226ae0531b9aa8c04bb6
"КРЕСТЬЯНСКОЕ (ФЕРМЕРСКОЕ) ХОЗЯЙСТВО ""РУСЛАН""",КФХ РУСЛАН,1036302280244,"446187, Самарская обл., Большеглушицкий район, с. Таш-Кустьяново, ул. Набережная, д. 11 офис 1", 52.298209, 51.238462,01.11.1,Выращивание зерновых культур,https://spark-interfax.ru/samarskaya-oblast-bolsheglushitski-raion/kfkh-ruslan-inn-6364002566-ogrn-1036302280244-6906d957c58f226ae0531b9aa8c04bb6
"КРЕСТЬЯНСКОЕ ХОЗЯЙСТВО ""ФЕНИКС""",КХ ФЕНИКС,1026303401222,"446673, Самарская обл., Борский район, с. Заплавное, ул. Любимовка, д. 75", 52.976598, 51.699643,01.11.1,Выращивание зерновых культур,https://spark-interfax.ru/samarskaya-oblast-borski-raion/kfkh-feniks-inn-6366002811-ogrn-1026303401222-6906d957f086226ae0531b9aa8c04bb6
"ОБЩЕСТВО С ОГРАНИЧЕННОЙ ОТВЕТСТВЕННОСТЬЮ "" ПРОИЗВОДСТВЕННО-КОММЕРЧЕСКАЯ ФИРМА ДЕМЕТРА-2000""",ООО ПКФ ДЕМЕТРА-2000,6314017172,"446602, Самарская обл., Нефтегорский район, с. Утевка, ул. Погорелова, д. 49 кв. 2", 52.895792, 50.944274,99999,99999,https://spark-interfax.ru/samarskaya-oblast-neftegorski-raion/ooo-demetra-inn-6314017172-ogrn-1026300898579-6178895e64397e1ce0531b9aa8c027ab
"ОБЩЕСТВО С ОГРАНИЧЕННОЙ ОТВЕТСТВЕННОСТЬЮ ""АУТОКОМПОНЕНТ ИНЖИНИРИНГ-2""",ООО АУТОКОМПОНЕНТ ИНЖИНИРИНГ-2,7702649695,"445244, Самарская обл., г. Октябрьск, ул. Аносова, д. 7", 53.165222, 48.658071,29.32,Производство прочих комплектующих и принадлежностей для автотранспортных средств,https://spark-interfax.ru/samarskaya-oblast-oktyabrsk/ooo-autokomponent-inzhiniring-inn-7702649695-ogrn-1077759035090-a75f8dde57be410c9c76764a7fda6e39
"АКЦИОНЕРНОЕ ОБЩЕСТВО ""78 ЦЕНТРАЛЬНАЯ ИНЖЕНЕРНАЯ БАЗА""",АО 78 ЦЕНТРАЛЬНАЯ ИНЖЕНЕРНАЯ БАЗА,6325051400,"446024, Самарская обл., г. Сызрань, ул. Карбышева, зд. 2", 53.172051, 48.440854,45.20.2,Техническое обслуживание и ремонт прочих автотранспортных средств,https://spark-interfax.ru/samarskaya-oblast-syzran/ao-tsentralnaya-inzhenernaya-baza-inn-6325051400-ogrn-1096325001321-439b64afac6a492cac86d156d90e80c2
КРЕСТЬЯНСКОЕ ХОЗЯЙСТВО ВЕРИНА В.П.,КХ ВЕРИНА В.П.,1026303401079,"446636, Самарская обл., Богатовский район, с. Тростянка, ул. Молодежная, д. 8 офис 1", 53.119106, 51.185411,01.11,"Выращивание зерновых (кроме риса), зернобобовых культур и семян масличных культур",https://spark-interfax.ru/samarskaya-oblast-bogatovski-raion/kfkh-verina-v-p-inn-6363001697-ogrn-1026303401079-6906d957a28d226ae0531b9aa8c04bb6
"ОБЩЕСТВО С ОГРАНИЧЕННОЙ ОТВЕТСТВЕННОСТЬЮ "" ПОВОЛЖСКАЯ МИС """,ООО ПОВОЛЖСКАЯ МИС,6371006650,"446442, Самарская обл, г.о. Кинель, пгт Усть-Кинельский, ул Невежий овраг, д. 14", 53.264799, 50.553680,68.20,Аренда и управление собственным или арендованным недвижимым имуществом,https://spark-interfax.ru/samarskaya-oblast-kinel/ooo-povolzhskaya-mis-inn-6371006650-ogrn-1026303276163-400b20d0a24d4080968689842ab42484
"ОБЩЕСТВО С ОГРАНИЧЕННОЙ ОТВЕТСТВЕННОСТЬЮ ""СТРОИТЕЛЬ""",ООО СТРОИТЕЛЬ,6318226949,"443028, Самарская обл, г.о. Самара, вн.р-н Красноглинский, г Самара, тер 20 км Московского шоссе, зд. 33, офис 318", 53.198627, 50.113987,41.20,Строительство жилых и нежилых зданий,https://spark-interfax.ru/samarskaya-oblast-samara/ooo-stroitel-inn-6318226949-ogrn-1126318007463-7ca9f7b77bd94734bbc4647194b142db
"МУНИЦИПАЛЬНОЕ УНИТАРНОЕ ПРЕДПРИЯТИЕ ""ЖИЛИЩНО-КОММУНАЛЬНАЯ СЛУЖБА МУНИЦИПАЛЬНОГО РАЙОНА АЛЕКСЕЕВСКИЙ САМАРСКОЙ ОБЛАСТИ""",МУП ЖКС,6377015989,"446640, Самарская обл., Алексеевский район, с. Алексеевка, ул. Советская, д. 58", 52.585427, 51.274766,35.30.2,Передача пара и горячей воды (тепловой энергии),https://spark-interfax.ru/samarskaya-oblast-alekseevski-raion/mup-zhks-inn-6377015989-ogrn-1126377000496-6906d9578fc1226ae0531b9aa8c04bb6
"АВТОНОМНАЯ НЕКОММЕРЧЕСКАЯ ОРГАНИЗАЦИЯ ДОПОЛНИТЕЛЬНОГО ПРОФЕССИОНАЛЬНОГО ОБРАЗОВАНИЯ ""АЛЬЯНС-ОБУЧЕНИЕ""",АНО ДПО АЛЬЯНС-ОБУЧЕНИЕ,1086300001413,"446010, Самарская обл., г. Сызрань, ул. Дизельная, зд. 12А офис 14", 53.183757, 48.516300,85.42,Образование профессиональное дополнительное,https://spark-interfax.ru/samarskaya-oblast-syzran/ano-alyans-obuchenie-inn-6325047323-ogrn-1086300001413-6906d957a4e9226ae0531b9aa8c04bb6
"МУНИЦИПАЛЬНОЕ УНИТАРНОЕ ПРЕДПРИЯТИЕ ""ЖИЛИЩНО-КОММУНАЛЬНОЕ ХОЗЯЙСТВО МУНИЦИПАЛЬНОГО РАЙОНА СЕРГИЕВСКИЙ""",МУП ЖКХ МУНИЦИПАЛЬНОГО РАЙОНА СЕРГИЕВСКИЙ,6381000826,"446540, Самарская обл., Сергиевский район, с. Сергиевск, ул. Гагарина, д. 2А", 53.940962, 51.180060,96.04,Деятельность физкультурно-оздоровительная,https://spark-interfax.ru/samarskaya-oblast-sergievski-raion/mup-zhkkh-munitsipalnogo-raiona-sergievski-inn-6381000826-ogrn-1026303909610-6906d957ea9b226ae0531b9aa8c04bb6
"ОБЩЕСТВО С ОГРАНИЧЕННОЙ ОТВЕТСТВЕННОСТЬЮ ""СЭД""",ООО СЭД,6325033232,"445015, Самарская обл, г.о. Тольятти, г Тольятти, ул Никонова, д. 52, стр. 1, ком. 1", 53.463743, 49.550008,22.29.2,"Производство прочих изделий из пластмасс, не включенных в другие группировки, кроме устройств пломбировочных из пластика",https://spark-interfax.ru/samarskaya-oblast-tolyatti/ooo-sed-inn-6325033232-ogrn-1036301263349-357afdf74bbe4b66a357bb9bf640db49
"ОБЩЕСТВО С ОГРАНИЧЕННОЙ ОТВЕТСТВЕННОСТЬЮ ""СТАЛЬ-ПРОКАТ""",ООО СТАЛЬ-ПРОКАТ,6321318879,"445043, Самарская обл., г. Тольятти, ул. Коммунальная, владение 16 стр. 4", 53.558709, 49.330209,24.20,"Производство стальных труб, полых профилей и фитингов",https://spark-interfax.ru/samarskaya-oblast-tolyatti/ooo-stal-prokat-inn-6321318879-ogrn-1136320017371-37c68f1614bd45e384956c759332d655
"ОБЩЕСТВО С ОГРАНИЧЕННОЙ ОТВЕТСТВЕННОСТЬЮ ""УПРАВЛЯЮЩАЯ КОМПАНИЯ ""СИМВОЛ""",ООО УК СИМВОЛ,6325074077,"445240, Самарская обл., г. Октябрьск, ул. Ленина, д. 47 кв. 16", 53.163763, 48.667156,68.32.1,Управление эксплуатацией жилого фонда за вознаграждение или на договорной основе,https://spark-interfax.ru/samarskaya-oblast-oktyabrsk/ooo-uk-simvol-inn-6325074077-ogrn-1196313015425-829c055373d638d4e0531b9aa8c0741d
"АВТОНОМНАЯ НЕКОММЕРЧЕСКАЯ ПРОФЕССИОНАЛЬНАЯ ОБРАЗОВАТЕЛЬНАЯ ОРГАНИЗАЦИЯ ""ФОРТУНА ПЛЮС""",АНПОО ФОРТУНА ПЛЮС,1156313085026,"446011, Самарская обл., г. Сызрань, ул. Котовского, д. 2", 53.174824, 48.419882,85.42.1,Деятельность школ подготовки водителей автотранспортных средств,https://spark-interfax.ru/samarskaya-oblast-syzran/ano-fortuna-plyus-inn-6325067680-ogrn-1156313085026-6906d958f040226ae0531b9aa8c04bb6
"ОБЩЕСТВО С ОГРАНИЧЕННОЙ ОТВЕТСТВЕННОСТЬЮ ""ТРЕТЬЯКОВСКОЕ""",ООО ТРЕТЬЯКОВСКОЕ,3604013449,"397156, Воронежская обл., Борисоглебский район, с. Третьяки, ул. Народная, д. 42", 51.356508, 42.488121,01.11.1,Выращивание зерновых культур,https://spark-interfax.ru/voronezhskaya-oblast-borisoglebsk/ooo-tretyakovskoe-inn-3604013449-ogrn-1023600610868-edc5d3ca092b4105aa53fd80dda4b063
"ОБЩЕСТВО С ОГРАНИЧЕННОЙ ОТВЕТСТВЕННОСТЬЮ ""ЯГОДЫ ЧЕРНОЗЕМЬЯ""",ООО ЯГОДЫ ЧЕРНОЗЕМЬЯ,3666219665,"396304, Воронежская обл, м.р-н Новоусманский, с.п. Трудовское, п Трудовое, ул Центральная, д. 1, помещ. 2", 51.765994, 39.738284,01.25.1,Выращивание прочих плодовых и ягодных культур,https://spark-interfax.ru/voronezhskaya-oblast-novousmanski-raion/ooo-yagody-chernozemya-inn-3666219665-ogrn-1173668031272-007e56a167024370b839e5cf8b6d2957
"ЗАКРЫТОЕ АКЦИОНЕРНОЕ ОБЩЕСТВО ""ОСТРОГОЖСКСАДПИТОМНИК""",ЗАО ОСТРОГОЖСКСАДПИТОМНИК,3619006116,"397807, Воронежская обл., Острогожский район, пос. Центрального Отделения Свх Острогожский, ул. Центральная, д. 21", 50.887171, 38.858035,01.25,"Выращивание прочих плодовых деревьев, кустарников и орехов",https://spark-interfax.ru/voronezhskaya-oblast-ostrogozhski-raion/ao-ostrogozhsksadpitomnik-inn-3619006116-ogrn-1023601035127-2be92f4fd2c14ebd93173489d1af9492
"КАЛАЧЕЕВСКОЕ ОТКРЫТОЕ АКЦИОНЕРНОЕ ОБЩЕСТВО ""СЕЛЬХОЗТЕХНИКА""",КАЛАЧ ОАО СХТ,3610001113,"397602, Воронежская обл., Калачеевский район, г. Калач, ул. Северная, д. 45", 50.443348, 41.034283,01.11,"Выращивание зерновых (кроме риса), зернобобовых культур и семян масличных культур",https://spark-interfax.ru/voronezhskaya-oblast-kalacheevski-raion/pao-skht-inn-3610001113-ogrn-1023600794249-01b209d709884f70a3434d0041b3ef92
"КРЕСТЬЯНСКОЕ (ФЕРМЕРСКОЕ) ХОЗЯЙСТВО ""ЕЛАНЬ""",КФХ ЕЛАНЬ,1023600991611,"397433, Воронежская обл., Новохоперский район, пос. Михайловка", 50.911484, 41.285198,01.11.1,Выращивание зерновых культур,https://spark-interfax.ru/voronezhskaya-oblast-novokhoperski-raion/elan-inn-3617002571-ogrn-1023600991611-617889547b7e7e1ce0531b9aa8c027ab
"ЗАКРЫТОЕ АКЦИОНЕРНОЕ ОБЩЕСТВО ""ИСКРА""",ЗАО ИСКРА,3604015005,"397144, Воронежская обл., Борисоглебский район, с. Тюковка, ул. Молодежная, д. 12", 51.444622, 42.617451,01.11.1,Выращивание зерновых культур,https://spark-interfax.ru/voronezhskaya-oblast-borisoglebsk/ao-iskra-inn-3604015005-ogrn-1043659505768-a62778b847da40a5b4331be23c610143
"ОБЩЕСТВО С ОГРАНИЧЕННОЙ ОТВЕТСТВЕННОСТЬЮ СЕЛЬСКОХОЗЯЙСТВЕННОЕ ПРЕДПРИЯТИЕ ""ВИКТОРИЯ""",ООО СХП ВИКТОРИЯ,3604085620,"397026, Воронежская обл, м.р-н Эртильский, с.п. Самовецкое, с Большой Самовец, ул Школьная, д. 9А, офис 21", 51.907103, 40.480878,01.11,"Выращивание зерновых (кроме риса), зернобобовых культур и семян масличных культур",https://spark-interfax.ru/voronezhskaya-oblast-ertilski-raion/ooo-viktoriya-inn-3604085620-ogrn-1253600003425-91011a4e46b3439b99a73f6edafad701
"КРЕСТЬЯНСКОЕ (ФЕРМЕРСКОЕ) ХОЗЯЙСТВО ""ЛУЧ""",КФХ ЛУЧ,1023601495631,"396083, Воронежская обл., Каширский район, с. Данково, ул. Новая, д. 9", 51.293507, 39.526703,01.11.1,Выращивание зерновых культур,https://spark-interfax.ru/voronezhskaya-oblast-kashirski-raion/kfkh-luch-inn-3613000630-ogrn-1023601495631-6906d94c03a3226ae0531b9aa8c04bb6
"ОБЩЕСТВО С ОГРАНИЧЕННОЙ ОТВЕТСТВЕННОСТЬЮ ""НИКО""",ООО НИКО,3623006976,"397302, Воронежская обл., Поворинский район, с. Октябрьское, ул. Ленинская, д. 87", 51.238913, 41.945627,01.11.1,Выращивание зерновых культур,https://spark-interfax.ru/voronezhskaya-oblast-povorinski-raion/ooo-niko-inn-3623006976-ogrn-1073604000216-0e4f4f703718449d8d381bcc633a7d0e
"ТОВАРИЩЕСТВО НА ВЕРЕ "" ПЧЕЛИНОВСКОЕ, ЗИНЧЕНКО И КОМПАНИЯ ""","ТНВ ПЧЕЛИНОВСКОЕ, ЗИНЧЕНКО И КОМПАНИЯ",3602006333,"397723, Воронежская обл., Бобровский район, с. Пчелиновка, ул. Советская, д. 30", 50.938357, 40.004178,01.11.1,Выращивание зерновых культур,https://spark-interfax.ru/voronezhskaya-oblast-bobrovski-raion/tv-pchelinovskoe-zinchenko-i-kompaniya-inn-3602006333-ogrn-1023600531426-2854fe7fde3a4982a473fb90445d3021
