Название,Название Кратко,ИНН,адрес,lat,lon,Код оквэд,Основной вид деятельности,Ссылка
"МУНИЦИПАЛЬНОЕ БЮДЖЕТНОЕ УЧРЕЖДЕНИЕ ""АРХИВ МОРГАУШСКОГО МУНИЦИПАЛЬНОГО ОКРУГА ЧУВАШСКОЙ РЕСПУБЛИКИ""",МБУ АРХИВ МОРГАУШСКОГО МУНИЦИПАЛЬНОГО ОКРУГА,1062136001070,"429530, Чувашская Республика - Чувашия, Моргаушский район, с. Моргауши, ул. Мира, д. 6А", 55.967999, 46.771867,91.01,Деятельность библиотек и архивов,https://spark-interfax.ru/chuvashskaya-respublika-chuvashiya-morgaushski-raion/mbu-arkhiv-morgaushskogo-munitsipalnogo-okruga-inn-2112389572-ogrn-1062136001070-6906d9b1cf27226ae0531b9aa8c04bb6
"МУНИЦИПАЛЬНОЕ БЮДЖЕТНОЕ ОБЩЕОБРАЗОВАТЕЛЬНОЕ УЧРЕЖДЕНИЕ ""СРЕДНЯЯ ОБЩЕОБРАЗОВАТЕЛЬНАЯ ШКОЛА № 11"" ГОРОДА ЧЕБОКСАРЫ ЧУВАШСКОЙ РЕСПУБЛИКИ",МБОУ СОШ № 11 Г. ЧЕБОКСАРЫ,1022100983453,"428008, Чувашская Республика - Чувашия, г. Чебоксары, ул. Аркадия Гайдара, д. 3", 56.144490, 47.267137,85.14,Образование среднее общее,https://spark-interfax.ru/chuvashskaya-respublika-chuvashiya-cheboksary/mbu-sosh-n-g-cheboksary-inn-2127305582-ogrn-1022100983453-6906d9b1bf78226ae0531b9aa8c04bb6
"МУНИЦИПАЛЬНОЕ БЮДЖЕТНОЕ ОБЩЕОБРАЗОВАТЕЛЬНОЕ УЧРЕЖДЕНИЕ ""СРЕДНЯЯ ОБЩЕОБРАЗОВАТЕЛЬНАЯ ШКОЛА № 10 ИМЕНИ ЛЁТЧИКА-КОСМОНАВТА А.Г.НИКОЛАЕВА"" ГОРОДА ЧЕБОКСАРЫ ЧУВАШСКОЙ РЕСПУБЛИКИ",МБОУ СОШ № 10 Г.ЧЕБОКСАРЫ,1022101141622,"428020, Чувашская Республика - Чувашия, г. Чебоксары, ул. Космонавта Николаева А.Г., д. 1", 56.121828, 47.271598,85.14,Образование среднее общее,https://spark-interfax.ru/chuvashskaya-respublika-chuvashiya-cheboksary/mbu-sosh-n-g-cheboksary-inn-2128019619-ogrn-1022101141622-6906d9b1bfeb226ae0531b9aa8c04bb6
"МУНИЦИПАЛЬНОЕ БЮДЖЕТНОЕ ОБЩЕОБРАЗОВАТЕЛЬНОЕ УЧРЕЖДЕНИЕ ""СРЕДНЯЯ ОБЩЕОБРАЗОВАТЕЛЬНАЯ ШКОЛА № 45"" ГОРОДА ЧЕБОКСАРЫ ЧУВАШСКОЙ РЕСПУБЛИКИ",МБОУ СОШ №45,1022101286393,"428035, Чувашская Республика - Чувашия, г. Чебоксары, ул. Ахазова, д. 9 к. А", 56.146243, 47.174522,85.14,Образование среднее общее,https://spark-interfax.ru/chuvashskaya-respublika-chuvashiya-cheboksary/mbu-sosh-n-inn-2129039174-ogrn-1022101286393-6906d9b1c3a3226ae0531b9aa8c04bb6
"МУНИЦИПАЛЬНОЕ БЮДЖЕТНОЕ ОБЩЕОБРАЗОВАТЕЛЬНОЕ УЧРЕЖДЕНИЕ ""ЛИЦЕЙ № 2"" ГОРОДА ЧЕБОКСАРЫ ЧУВАШСКОЙ РЕСПУБЛИКИ",МБОУ ЛИЦЕЙ № 2 Г. ЧЕБОКСАРЫ,1022101141061,"428003, Чувашская Республика - Чувашия, г.о. город Чебоксары, г Чебоксары, ул Шевченко, д. 2", 56.129217, 47.245516,85.14,Образование среднее общее,https://spark-interfax.ru/chuvashskaya-respublika-chuvashiya-cheboksary/mbu-litsei-n-g-cheboksary-inn-2128019390-ogrn-1022101141061-6906d9b1bffd226ae0531b9aa8c04bb6
"МУНИЦИПАЛЬНОЕ БЮДЖЕТНОЕ ОБЩЕОБРАЗОВАТЕЛЬНОЕ УЧРЕЖДЕНИЕ ""СРЕДНЯЯ ОБЩЕОБРАЗОВАТЕЛЬНАЯ ШКОЛА № 7 ИМЕНИ ОЛЕГА БЕСПАЛОВА, ВОИНА-ДЕСАНТНИКА, ПОГИБШЕГО В АФГАНИСТАНЕ"" ГОРОДА ЧЕБОКСАРЫ ЧУВАШСКОЙ РЕСПУБЛИКИ",МБОУ СОШ №7 ИМЕНИ ОЛЕГА БЕСПАЛОВА Г. ЧЕБОКСАРЫ,1022101281388,"428006, Чувашская Республика - Чувашия, г. Чебоксары, пл. Победы, д. 3", 56.108823, 47.171953,85.14,Образование среднее общее,https://spark-interfax.ru/chuvashskaya-respublika-chuvashiya-cheboksary/mbu-sosh-n-imeni-olega-bespalova-g-cheboksary-inn-2129036159-ogrn-1022101281388-6906d9b1c053226ae0531b9aa8c04bb6
"МУНИЦИПАЛЬНОЕ БЮДЖЕТНОЕ ОБЩЕОБРАЗОВАТЕЛЬНОЕ УЧРЕЖДЕНИЕ ""КАДЕТСКАЯ ШКОЛА ИМЕНИ ГЕНЕРАЛ-МАЙОРА МИЛИЦИИ В.А. АРХИПОВА"" ГОРОДА ЧЕБОКСАРЫ ЧУВАШСКОЙ РЕСПУБЛИКИ",МБОУ КАДЕТСКАЯ ШКОЛА Г. ЧЕБОКСАРЫ,1022101285458,"428023, Чувашская Республика - Чувашия, г.о. город Чебоксары, г Чебоксары, ул Гражданская, д. 50", 56.125659, 47.204800,85.14,Образование среднее общее,https://spark-interfax.ru/chuvashskaya-respublika-chuvashiya-cheboksary/mbu-kadetskaya-shkola-g-cheboksary-inn-2129036303-ogrn-1022101285458-6906d9b1c056226ae0531b9aa8c04bb6
"МУНИЦИПАЛЬНОЕ БЮДЖЕТНОЕ ОБЩЕОБРАЗОВАТЕЛЬНОЕ УЧРЕЖДЕНИЕ ""ГИМНАЗИЯ № 4"" ГОРОДА ЧЕБОКСАРЫ ЧУВАШСКОЙ РЕСПУБЛИКИ",МБОУ ГИМНАЗИЯ № 4 Г.ЧЕБОКСАРЫ,1022101147540,"428003, Чувашская Республика - Чувашия, г. Чебоксары, ул. Энгельса, д. 1 к. А", 56.128446, 47.254980,85.14,Образование среднее общее,https://spark-interfax.ru/chuvashskaya-respublika-chuvashiya-cheboksary/mbu-gimnaziya-n-g-cheboksary-inn-2128031408-ogrn-1022101147540-6906d9b1c3bd226ae0531b9aa8c04bb6
"МУНИЦИПАЛЬНОЕ БЮДЖЕТНОЕ ОБЩЕОБРАЗОВАТЕЛЬНОЕ УЧРЕЖДЕНИЕ ""СРЕДНЯЯ ОБЩЕОБРАЗОВАТЕЛЬНАЯ ШКОЛА № 9"" ГОРОДА ЧЕБОКСАРЫ ЧУВАШСКОЙ РЕСПУБЛИКИ",МБОУ СОШ № 9 Г. ЧЕБОКСАРЫ,1022101139092,"428010, Чувашская Республика - Чувашия, г. Чебоксары, ул. Богдана Хмельницкого, д. 75", 56.120648, 47.227472,85.13,Образование основное общее,https://spark-interfax.ru/chuvashskaya-respublika-chuvashiya-cheboksary/mbu-sosh-n-g-cheboksary-inn-2128019601-ogrn-1022101139092-6906d9b1bffc226ae0531b9aa8c04bb6
"МУНИЦИПАЛЬНОЕ БЮДЖЕТНОЕ ОБЩЕОБРАЗОВАТЕЛЬНОЕ УЧРЕЖДЕНИЕ ""СРЕДНЯЯ ОБЩЕОБРАЗОВАТЕЛЬНАЯ ШКОЛА № 30 ИМЕНИ А.И. ТРОФИМОВА"" ГОРОДА ЧЕБОКСАРЫ ЧУВАШСКОЙ РЕСПУБЛИКИ",МБОУ СОШ № 30 Г.ЧЕБОКСАРЫ,1022100979427,"428022, Чувашская Республика - Чувашия, г. Чебоксары, ул. Патриса Лумумбы, д. 10А", 56.130050, 47.277334,85.14,Образование среднее общее,https://spark-interfax.ru/chuvashskaya-respublika-chuvashiya-cheboksary/mbu-sosh-n-g-cheboksary-inn-2127305470-ogrn-1022100979427-6906d9b1bf82226ae0531b9aa8c04bb6
"МУНИЦИПАЛЬНОЕ БЮДЖЕТНОЕ ОБЩЕОБРАЗОВАТЕЛЬНОЕ УЧРЕЖДЕНИЕ ""СРЕДНЯЯ ОБЩЕОБРАЗОВАТЕЛЬНАЯ ШКОЛА № 20"" ГОРОДА ЧЕБОКСАРЫ ЧУВАШСКОЙ РЕСПУБЛИКИ",МБОУ СОШ №20 Г.ЧЕБОКСАРЫ,1022101138278,"428029, Чувашская Республика - Чувашия, г. Чебоксары, ул. Хузангая, д. 8", 56.098715, 47.272932,85.14,Образование среднее общее,https://spark-interfax.ru/chuvashskaya-respublika-chuvashiya-cheboksary/mbu-sosh-n-g-cheboksary-inn-2128019496-ogrn-1022101138278-6906d9b1bfff226ae0531b9aa8c04bb6
"МУНИЦИПАЛЬНОЕ БЮДЖЕТНОЕ ОБЩЕОБРАЗОВАТЕЛЬНОЕ УЧРЕЖДЕНИЕ ""СРЕДНЯЯ ОБЩЕОБРАЗОВАТЕЛЬНАЯ ШКОЛА № 29"" ГОРОДА ЧЕБОКСАРЫ ЧУВАШСКОЙ РЕСПУБЛИКИ",МБОУ СОШ № 29 Г. ЧЕБОКСАРЫ,1022101279012,"428017, Чувашская Республика - Чувашия, г. Чебоксары, ул. Т.Кривова, д. 15 к. А", 56.144861, 47.190142,85.14,Образование среднее общее,https://spark-interfax.ru/chuvashskaya-respublika-chuvashiya-cheboksary/mbu-sosh-n-g-cheboksary-inn-2129037723-ogrn-1022101279012-6906d9b1c162226ae0531b9aa8c04bb6
"ОБЩЕСТВО С ОГРАНИЧЕННОЙ ОТВЕТСТВЕННОСТЬЮ ""РЦТ""",ООО РЦТ,3662256472,"394026, Воронежская обл., г. Воронеж, проспект Московский, д. 11 литера Б", 51.690107, 39.180924,26.51,"Производство инструментов и приборов для измерения, тестирования и навигации",https://spark-interfax.ru/voronezhskaya-oblast-voronezh/ooo-rtst-inn-3662256472-ogrn-1173668058376-5e4e619f62205e8be0531b9aa8c0095f
"ОБЩЕСТВО С ОГРАНИЧЕННОЙ ОТВЕТСТВЕННОСТЬЮ ""ТАХОГРАФ""",ООО ТАХОГРАФ,3666186709,"394036, Воронежская обл., г. Воронеж, ул. 25 Октября, д. 15 кв. 31", 51.662367, 39.213213,46.69,Торговля оптовая прочими машинами и оборудованием,https://spark-interfax.ru/voronezhskaya-oblast-voronezh/ooo-takhograf-inn-3666186709-ogrn-1133668037788-e3d65433ddcf442cb3cdf0af4118a7e4
"ОБЩЕСТВО С ОГРАНИЧЕННОЙ ОТВЕТСТВЕННОСТЬЮ ""БАСТИОН-ЦЕНТР""",ООО БАСТИОН-ЦЕНТР,3661177531,"394042, Воронежская обл, г.о. город Воронеж, г Воронеж, ул Остужева, д. 36, помещ. 2, офис 5", 51.683801, 39.269250,14.13,Производство прочей верхней одежды,https://spark-interfax.ru/voronezhskaya-oblast-voronezh/ooo-bastion-tsentr-inn-3661177531-ogrn-1213600020952-c52ac14d35217279e053219aa8c0b681
"АВТОНОМНАЯ НЕКОММЕРЧЕСКАЯ ОРГАНИЗАЦИЯ ""РЕДАКЦИЯ ГАЗЕТЫ ""ТРУДОВАЯ ПРАВДА""",АНО РЕДАКЦИЯ ГАЗЕТЫ ТРУДОВАЯ ПРАВДА,1071300002872,"431540, Мордовия респ., Старошайговский район, с. Старое Шайгово, ул. Кирова, зд. 2", 54.301983, 44.468387,58.13,Издание газет,https://spark-interfax.ru/mordoviya-respublika-staroshaigovski-raion/ano-redaktsiya-gazety-trudovaya-pravda-inn-1318000808-ogrn-1071300002872-6906d9ac8ed4226ae0531b9aa8c04bb6
"МИНИСТЕРСТВО СОЦИАЛЬНОЙ ЗАЩИТЫ, ТРУДА И ЗАНЯТОСТИ НАСЕЛЕНИЯ РЕСПУБЛИКИ МОРДОВИЯ",МИНСОЦТРУДЗАНЯТОСТИ РЕСПУБЛИКИ МОРДОВИЯ,1061326007489,"430027, Мордовия респ., г. Саранск, ул. Титова, д. 133", 54.172746, 45.159256,84.11.21,"Деятельность органов государственной власти субъектов Российской Федерации (республик, краев, областей), кроме судебной власти, представительств исполнительных органов государственной власти субъектов Российской Федерации при Президенте Российской Федерации",https://spark-interfax.ru/mordoviya-respublika-saransk/gku-minsotstrudzanyatosti-respubliki-mordoviya-inn-1326196216-ogrn-1061326007489-6906d9acac5c226ae0531b9aa8c04bb6
"АВТОНОМНАЯ НЕКОММЕРЧЕСКАЯ ОРГАНИЗАЦИЯ ""ЦЕНТР РАЗВИТИЯ ОБЩЕСТВЕННЫХ ИНИЦИАТИВ РЕСПУБЛИКИ МОРДОВИЯ""",АНО ЦЕНТР РАЗВИТИЯ ОБЩЕСТВЕННЫХ ИНИЦИАТИВ РЕСПУБЛИКИ МОРДОВИЯ,1241300001062,"430005, Мордовия Респ, г.о. Саранск, г Саранск, ул Большевистская, д. 33", 54.185157, 45.182900,94.99,"Деятельность прочих общественных организаций и некоммерческих организаций, кроме религиозных и политических организаций",https://spark-interfax.ru/mordoviya-respublika-saransk/ano-tsentr-razvitiya-obshchestvennykh-initsiativ-respubliki-mordoviya-inn-1300010354-ogrn-1241300001062-1579e329552c36a7e063259aa8c0b779
"АВТОНОМНАЯ НЕКОММЕРЧЕСКАЯ ОРГАНИЗАЦИЯ ""РЕДАКЦИЯ ГАЗЕТЫ ""ПРИЗЫВ""",АНО РЕДАКЦИЯ ГАЗЕТЫ ПРИЗЫВ,1071300002773,"431510, Мордовия респ., Лямбирский район, с. Лямбирь, ул. Полевая, зд. 19А", 54.291146, 45.119369,58.13,Издание газет,https://spark-interfax.ru/mordoviya-respublika-lyambirski-raion/ano-redaktsiya-gazety-prizyv-inn-1315488320-ogrn-1071300002773-6906d9ac8c79226ae0531b9aa8c04bb6
"СЕЛЬСКОХОЗЯЙСТВЕННЫЙ ПОТРЕБИТЕЛЬСКИЙ ПЕРЕРАБАТЫВАЮЩИЙ СНАБЖЕНЧЕСКО-СБЫТОВОЙ КООПЕРАТИВ ""БЕЖИН ЛУГ""",СППССК БЕЖИН ЛУГ,1251300000742,"431640, Мордовия Респ, м.р-н Ичалковский, с.п. Кемлянское, с Кемля, пер Спортивный, д. 2, кабинет 34", 54.691043, 45.261820,10.13,Производство продукции из мяса убойных животных и мяса птицы,https://spark-interfax.ru/mordoviya-respublika-ichalkovski-raion/koop-bezhin-lug-inn-1300014704-ogrn-1251300000742-306ddebdadb8070fe063269aa8c0d686
"АВТОНОМНАЯ НЕКОММЕРЧЕСКАЯ ОРГАНИЗАЦИЯ ""РЕДАКЦИЯ ГАЗЕТЫ ""ПРИМОКШАНЬЕ""",АНО РЕДАКЦИЯ ГАЗЕТЫ ПРИМОКШАНЬЕ,1071300002806,"431210, Мордовия респ., Теньгушевский район, с. Теньгушево, ул. Первомайская, д. 50", 54.769720, 42.726167,58.13,Издание газет,https://spark-interfax.ru/mordoviya-respublika-tengushevski-raion/ano-redaktsiya-gazety-primokshane-inn-1320000530-ogrn-1071300002806-6906d9ac8ee6226ae0531b9aa8c04bb6
"ФЕДЕРАЛЬНОЕ ГОСУДАРСТВЕННОЕ БЮДЖЕТНОЕ УЧРЕЖДЕНИЕ ""ГОСУДАРСТВЕННЫЙ ЦЕНТР АГРОХИМИЧЕСКОЙ СЛУЖБЫ ""МОРДОВСКИЙ""",ФГБУ ГЦАС МОРДОВСКИЙ,1021301114559,"430904, Мордовия респ., г. Саранск, рабочий пос. Ялга, ул. Пионерская, д. 35", 54.129527, 45.130443,01.61,Предоставление услуг в области растениеводства,https://spark-interfax.ru/mordoviya-respublika-saransk/fgbu-gtsas-mordovski-inn-1328159668-ogrn-1021301114559-6906d9ac9963226ae0531b9aa8c04bb6
"САРАНСКАЯ ГОРОДСКАЯ ДЕТСКАЯ ЭКОЛОГИЧЕСКАЯ ОБЩЕСТВЕННАЯ ОРГАНИЗАЦИЯ ""ЗЕЛЕНЫЙ МИР""",ДЭО ЗЕЛЕНЫЙ МИР,1041322002468,"430031, Мордовия респ., г. Саранск, проспект 70 Лет Октября, д. 102", 54.194263, 45.232014,94.99,"Деятельность прочих общественных организаций и некоммерческих организаций, кроме религиозных и политических организаций",https://spark-interfax.ru/mordoviya-respublika-saransk/oo-zeleny-mir-inn-1328165774-ogrn-1041322002468-6906d9acaa0d226ae0531b9aa8c04bb6
"СЕЛЬСКОХОЗЯЙСТВЕННЫЙ ПОТРЕБИТЕЛЬСКИЙ СНАБЖЕНЧЕСКО-СБЫТОВОЙ ПЕРЕРАБАТЫВАЮЩИЙ КООПЕРАТИВ ""МОЛОЧНЫЙ ДВОР""",СПССПК МОЛОЧНЫЙ ДВОР,1221300000030,"431823, Мордовия Респ, м.р-н Атяшевский, с.п. Аловское, с Алово, ул Советская, д. 138", 54.622214, 46.420683,46.33.1,Торговля оптовая молочными продуктами,https://spark-interfax.ru/mordoviya-respublika-atyashevski-raion/koop-molochny-dvor-inn-1322001787-ogrn-1221300000030-d5ab3bfd916c6a0ae053259aa8c020f0
"СЕЛЬСКОХОЗЯЙСТВЕННЫЙ ПОТРЕБИТЕЛЬСКИЙ ПЕРЕРАБАТЫВАЮЩИЙ СНАБЖЕНЧЕСКО-СБЫТОВОЙ КООПЕРАТИВ ""РЕСУРС""",СППССК РЕСУРС,1241300003867,"431586, Мордовия Респ, м.р-н Кочкуровский, с.п. Сабаевское, с Сабаево, ул Крупской, д. 72", 53.992897, 45.715782,46.21,"Торговля оптовая зерном, необработанным табаком, семенами и кормами для сельскохозяйственных животных",https://spark-interfax.ru/mordoviya-respublika-kochkurovski-raion/koop-resurs-inn-1300013154-ogrn-1241300003867-2713ff95212139bee063269aa8c0ef3b
"СЕЛЬСКОХОЗЯЙСТВЕННЫЙ ПОТРЕБИТЕЛЬСКИЙ ПЕРЕРАБАТЫВАЮЩИЙ СНАБЖЕНЧЕСКО-СБЫТОВОЙ КООПЕРАТИВ ""СУРСКОЕ""",СППССК СУРСКОЕ,1231300001525,"431586, Мордовия Респ, м.р-н Кочкуровский, с.п. Сабаевское, с Сабаево, ул Крупской, д. 72", 53.992897, 45.715782,10.91,"Производство готовых кормов для животных, содержащихся на фермах",https://spark-interfax.ru/mordoviya-respublika-kochkurovski-raion/koop-surskoe-inn-1300005202-ogrn-1231300001525-f96c45cd18204ad3e053249aa8c08a40
"СЕЛЬСКОХОЗЯЙСТВЕННЫЙ ПОТРЕБИТЕЛЬСКИЙ СНАБЖЕНЧЕСКИЙ СБЫТОВОЙ КООПЕРАТИВ ""ЮНОСТЬ""",СПССК ЮНОСТЬ,1307000147,"431370, Мордовия респ., Ельниковский район, с. Ельники, пл. 1 Мая, д. 17", 54.619390, 43.864429,46.21,"Торговля оптовая зерном, необработанным табаком, семенами и кормами для сельскохозяйственных животных",https://spark-interfax.ru/mordoviya-respublika-elnikovski-raion/koop-yunost-inn-1307000147-ogrn-1061314000769-6906d9ac86b6226ae0531b9aa8c04bb6
"СЕЛЬСКОХОЗЯЙСТВЕННЫЙ ПОТРЕБИТЕЛЬСКИЙ ПЕРЕРАБАТЫВАЮЩИЙ СНАБЖЕНЧЕСКО-СБЫТОВОЙ КООПЕРАТИВ ""ПОДВОРЬЕ""",СППССК ПОДВОРЬЕ,1171326001615,"431650, Мордовия Респ, м.р-н Ичалковский, с.п. Ладское, д Инсаровка, ул Полевая, зд. 17", 54.589606, 45.395381,10.11,Переработка и консервирование мяса,https://spark-interfax.ru/mordoviya-respublika-ichalkovski-raion/koop-podvore-inn-1310000563-ogrn-1171326001615-6906d9acce0e226ae0531b9aa8c04bb6
"СЕЛЬСКОХОЗЯЙСТВЕННЫЙ ПОТРЕБИТЕЛЬСКИЙ ПЕРЕРАБАТЫВАЮЩИЙ ОБСЛУЖИВАЮЩИЙ СНАБЖЕНЧЕСКО-СБЫТОВОЙ КООПЕРАТИВ ""СОЮЗ-АГРО""",СППОССК СОЮЗ-АГРО,1201300000571,"431210, Мордовия респ., Теньгушевский район, с. Кураево, ул. Ленина, д. 56", 54.711075, 42.630161,10.51,Производство молока (кроме сырого) и молочной продукции,https://spark-interfax.ru/mordoviya-respublika-tengushevski-raion/koop-soyuz-agro-inn-1320001365-ogrn-1201300000571-9ea98bf8a461723fe053179aa8c0100c
МИКРОКРЕДИТНАЯ КОМПАНИЯ ФОНД ПОДДЕРЖКИ ПРЕДПРИНИМАТЕЛЬСТВА РЕСПУБЛИКИ МОРДОВИЯ,МКК ФОНД ПОДДЕРЖКИ ПРЕДПРИНИМАТЕЛЬСТВА РМ,1111300000932,"430005, Мордовия респ., г. Саранск, ул. Московская, д. 14 пом. 2", 54.177407, 45.186646,64.92,Предоставление займов и прочих видов кредита,https://spark-interfax.ru/mordoviya-respublika-saransk/fond-mkk-fond-podderzhki-predprinimatelstva-rm-inn-1326960625-ogrn-1111300000932-6906d9acbf3e226ae0531b9aa8c04bb6
"АВТОНОМНАЯ НЕКОММЕРЧЕСКАЯ ОРГАНИЗАЦИЯ ГРАЖДАНСКО-ПАТРИОТИЧЕСКОГО РАЗВИТИЯ МОЛОДЕЖИ ""ПОДВИГИ""",АНО ПОДВИГИ,1181326002660,"430005, Мордовия респ., г. Саранск, ул. Советская, д. 33 кв. 2", 54.181093, 45.188464,85.41.9,"Образование дополнительное детей и взрослых, не включенное в другие группировки",https://spark-interfax.ru/mordoviya-respublika-saransk/ano-podvigi-inn-1326251467-ogrn-1181326002660-6af533ba313b8e8ce0531b9aa8c08965
"АКЦИОНЕРНОЕ ОБЩЕСТВО ""САРАНСКИЙ ПРИБОРОСТРОИТЕЛЬНЫЙ ЗАВОД""",АО СПЗ,1325003052,"430030, Мордовия респ., г. Саранск, ул. Васенко, д. 9", 54.195085, 45.173924,26.51.5,Производство приборов для контроля прочих физических величин,https://spark-interfax.ru/mordoviya-respublika-saransk/ao-spz-inn-1325003052-ogrn-1021301063464-80dd4c150be746f89662386379ee2061
"ОБЩЕСТВО С ОГРАНИЧЕННОЙ ОТВЕТСТВЕННОСТЬЮ ""МОЛОКО""",ООО МОЛОКО,1326227457,"430005, Мордовия респ., г. Саранск, ул. Московская, д. 34 кв. 31", 54.176090, 45.186565,10.51.2,"Производство сливочного масла, топленого масла, масляной пасты, молочного жира, спредов и топленых сливочно-растительных смесей",https://spark-interfax.ru/mordoviya-respublika-saransk/ooo-moloko-inn-1326227457-ogrn-1141326000628-813d1da7adba4564adb4e5cc93d4392b
"АКЦИОНЕРНОЕ ОБЩЕСТВО ""МОРДОВИЯГОСПЛЕМ""",АО МОРДОВИЯГОСПЛЕМ,1328906292,"430024, Мордовия респ., г. Саранск, пос. Озерный, ул. Молодежная, д. 21", 54.233887, 45.290435,01.41,"Разведение молочного крупного рогатого скота, производство сырого молока",https://spark-interfax.ru/mordoviya-respublika-saransk/ao-mordoviyagosplem-inn-1328906292-ogrn-1061328012460-03e45a94c58b492382948f7b06ecd97e
"АКЦИОНЕРНОЕ ОБЩЕСТВО ""ТЕПЛИЧНОЕ""",АО ТЕПЛИЧНОЕ,1328016109,"430024, Мордовия респ., г. Саранск, пос. Озерный", 54.232468, 45.285317,01.13.1,Выращивание овощей,https://spark-interfax.ru/mordoviya-respublika-saransk/ao-teplichnoe-inn-1328016109-ogrn-1181326002296-6906d9ac81bb226ae0531b9aa8c04bb6
"СЕЛЬСКОХОЗЯЙСТВЕННЫЙ ПОТРЕБИТЕЛЬСКИЙ ПЕРЕРАБАТЫВАЮЩИЙ КООПЕРАТИВ ""ЭКО-НИКА""",СППК ЭКО-НИКА,1322001025,"431725, Мордовия респ., Чамзинский район, с. Отрадное, ул. К.Маркса, д. 16", 54.437737, 45.674049,10.31,Переработка и консервирование картофеля,https://spark-interfax.ru/mordoviya-respublika-chamzinski-raion/koop-eko-nika-inn-1322001025-ogrn-1161326051655-6906d9acca4f226ae0531b9aa8c04bb6
"ОБЩЕСТВО С ОГРАНИЧЕННОЙ ОТВЕТСТВЕННОСТЬЮ ""КОМСОМОЛЕЦ""",ООО КОМСОМОЛЕЦ,1316105724,"431600, Мордовия респ., Ромодановский район, пос. Ромоданово, ул. Полежаева, д. 43", 54.424009, 45.319429,01.11,"Выращивание зерновых (кроме риса), зернобобовых культур и семян масличных культур",https://spark-interfax.ru/mordoviya-respublika-romodanovski-raion/ooo-komsomolets-inn-1316105724-ogrn-1041304001090-90d6376535ba4e80a7c344d7e6480560
"ОБЩЕСТВО С ОГРАНИЧЕННОЙ ОТВЕТСТВЕННОСТЬЮ ""НИВА""",ООО НИВА,1315487654,"431510, Мордовия респ., Лямбирский район, с. Лямбирь, ул. Полевая, д. 6", 54.291146, 45.119369,01.50,Смешанное сельское хозяйство,https://spark-interfax.ru/mordoviya-respublika-lyambirski-raion/ooo-niva-inn-1315487654-ogrn-1061310001026-ee064ffd947c4c389caf05127d67cb00
"ФЕДЕРАЛЬНОЕ ГОСУДАРСТВЕННОЕ БЮДЖЕТНОЕ ОБРАЗОВАТЕЛЬНОЕ УЧРЕЖДЕНИЕ ВЫСШЕГО ОБРАЗОВАНИЯ ""МОРДОВСКИЙ ГОСУДАРСТВЕННЫЙ ПЕДАГОГИЧЕСКИЙ УНИВЕРСИТЕТ ИМЕНИ М. Е. ЕВСЕВЬЕВА""","МГПУ, МОРДОВСКИЙ ГОСУДАРСТВЕННЫЙ ПЕДАГОГИЧЕСКИЙ УНИВЕРСИТЕТ ИМЕНИ М. Е. ЕВСЕВЬЕВА",1021301115791,"430007, Мордовия респ., г. Саранск, ул. Студенческая, д. 11А", 54.160520, 45.158768,85.22,Образование высшее,https://spark-interfax.ru/mordoviya-respublika-saransk/fgbu-mgpu-mordovski-gosudarstvenny-pedagogicheski-universitet-imeni-m-e-evseveva-inn-1328159925-ogrn-1021301115791-6906d9ac99b8226ae0531b9aa8c04bb6
"ОБЩЕСТВО С ОГРАНИЧЕННОЙ ОТВЕТСТВЕННОСТЬЮ ""НОРОВСКОЕ МОЛОКО""",ОООНОРОВСКОЕ МОЛОКО,1313902707,"431590, Мордовия респ., Кочкуровский район, пос. Ст. Воеводское, ул. Рабочая, д. 1", 54.031414, 45.434708,01.41,"Разведение молочного крупного рогатого скота, производство сырого молока",https://spark-interfax.ru/mordoviya-respublika-kochkurovski-raion/ooo-norovskoe-moloko-inn-1313902707-ogrn-1081324000603-28f33a435d0a492ab1863c31387717a6
"ОБЩЕСТВО С ОГРАНИЧЕННОЙ ОТВЕТСТВЕННОСТЬЮ ""ВОСТОК""",ООО ВОСТОК,5227001463,"607910, Нижегородская обл, м.о. Починковский, с Починки, ул Березовая, зд. 1А", 54.710709, 44.819293,01.41,"Разведение молочного крупного рогатого скота, производство сырого молока",https://spark-interfax.ru/nizhegorodskaya-oblast-pochinkovski-raion/ooo-vostok-inn-5227001463-ogrn-1165243050455-cf3c1c3bfef84b51bfe7edf47559f755
"АКЦИОНЕРНОЕ ОБЩЕСТВО ""АГРОФИРМА""ОКТЯБРЬСКАЯ""",АО АГРОФИРМАОКТЯБРЬСКАЯ,1315012925,"431503, Мордовия респ., Лямбирский район, с. Большая Елховка, ул. Заводская, д. 12", 54.271669, 45.309780,01.47,Разведение сельскохозяйственной птицы,https://spark-interfax.ru/mordoviya-respublika-lyambirski-raion/pao-agrofirmaoktyabrskaya-inn-1315012925-ogrn-1021301062122-ded3f245145947b1a5c8c3ccd19621be
"ОБЩЕСТВО С ОГРАНИЧЕННОЙ ОТВЕТСТВЕННОСТЬЮ ""НОВОМИЛК""",ООО НОВОМИЛК,1324002610,"431444, Мордовия респ., г. Рузаевка, ул. Луначарского, д. 166", 54.077074, 44.949006,10.51.9,Производство прочей молочной продукции,https://spark-interfax.ru/mordoviya-respublika-ruzaevka/ooo-novomilk-inn-1324002610-ogrn-1181326003352-6ae7be0e826148139483018c45b2e469
"ОБЩЕСТВО С ОГРАНИЧЕННОЙ ОТВЕТСТВЕННОСТЬЮ ""СЫРОВАРЕННЫЙ ЗАВОД ""САРМИЧ""",ООО СЗ САРМИЧ,1309084255,"431430, Мордовия респ., Инсарский район, г. Инсар, ул. Строительная, д. 139", 53.873314, 44.350332,10.51,Производство молока (кроме сырого) и молочной продукции,https://spark-interfax.ru/mordoviya-respublika-insarski-raion/ooo-sarmich-inn-1309084255-ogrn-1071323000286-6d1305bc5ed04b67a0a152fc88c2f24e
"АКЦИОНЕРНОЕ ОБЩЕСТВО ""НАДЕЖДА""",АО НАДЕЖДА,1323008834,"431350, Мордовия респ., г. Ковылкино, ул. Добролюбова, д. 10А", 54.039405, 43.899886,10.51,Производство молока (кроме сырого) и молочной продукции,https://spark-interfax.ru/mordoviya-respublika-kovylkino/ao-nadezhda-inn-1323008834-ogrn-1021300885814-ac846dacc5954c7399e5481251ec79aa
"ОБЩЕСТВО С ОГРАНИЧЕННОЙ ОТВЕТСТВЕННОСТЬЮ ""КРАСНОСЛОБОДСКИЙ МОЛОЧНЫЙ ЗАВОД""",ООО КРАСНОСЛОБОДСКИЙ МОЛОЧНЫЙ ЗАВОД,1314000099,"431261, Мордовия респ., Краснослободский район, г. Краснослободск, пер. Больничный, д. 8", 54.430463, 43.783943,10.5,Производство молочной продукции,https://spark-interfax.ru/mordoviya-respublika-krasnoslobodski-raion/ooo-krasnoslobodski-molochny-zavod-inn-1314000099-ogrn-1051314032043-6ca08d07c5ce40cb9b5f9ee6f4a8fd72
"ОБЩЕСТВО С ОГРАНИЧЕННОЙ ОТВЕТСТВЕННОСТЬЮ ""АГРОФИРМА ЮБИЛЕЙНАЯ""",ООО АГРОФИРМА ЮБИЛЕЙНАЯ,1306075608,"431770, Мордовия респ., Дубенский район, с. Дубенки, ул. Бровцева, д. 136", 54.429802, 46.309820,10.51.1,Производство питьевого молока и питьевых сливок,https://spark-interfax.ru/mordoviya-respublika-dubenski-raion/ooo-agrofirma-yubileinaya-inn-1306075608-ogrn-1041310004262-a8e815689278471d8708011dffbfb6b3
"АКЦИОНЕРНОЕ ОБЩЕСТВО ""КОНСЕРВНЫЙ ЗАВОД ""САРАНСКИЙ""",АО КОНСЕРВНЫЙ ЗАВОД САРАНСКИЙ,1326026310,"430003, Мордовия респ., г. Саранск, проспект Ленина, д. 54", 54.201045, 45.188484,10.39.1,Переработка и консервирование овощей (кроме картофеля) и грибов,https://spark-interfax.ru/mordoviya-respublika-saransk/ao-konservny-zavod-saranski-inn-1326026310-ogrn-1021300976828-c57e34b3433742ffb86e65dae0a3bd2f
"ОБЩЕСТВО С ОГРАНИЧЕННОЙ ОТВЕТСТВЕННОСТЬЮ ""МЕЧТА""",ООО МЕЧТА,1322122421,"431700, Мордовия респ., Чамзинский район, рабочий пос. Чамзинка, ул. Республиканская, д. 30", 54.406511, 45.773769,10.51,Производство молока (кроме сырого) и молочной продукции,https://spark-interfax.ru/mordoviya-respublika-chamzinski-raion/ooo-mechta-inn-1322122421-ogrn-1091322001110-9d8f053c1e61472fb3f96efc0244b211
"ОБЩЕСТВО С ОГРАНИЧЕННОЙ ОТВЕТСТВЕННОСТЬЮ АГРОПРОМЫШЛЕННОЕ ОБЪЕДИНЕНИЕ ""МОКША""",ООО АПО МОКША,1314001776,"431274, Мордовия респ., Краснослободский район, с. Гумны, ул. Молодежная, д. 29", 54.385903, 43.732641,01.11,"Выращивание зерновых (кроме риса), зернобобовых культур и семян масличных культур",https://spark-interfax.ru/mordoviya-respublika-krasnoslobodski-raion/ooo-moksha-inn-1314001776-ogrn-1101314000567-989fa028afec41a793898d7059d869da
"ОБЩЕСТВО С ОГРАНИЧЕННОЙ ОТВЕТСТВЕННОСТЬЮ ""ДРУЖБА""",ОООДРУЖБА,1310086360,"431640, Мордовия Респ, м.р-н Ичалковский, с.п. Кемлянское, с Кергуды, ул Молодежная, стр. 33", 54.712780, 45.190517,01.41,"Разведение молочного крупного рогатого скота, производство сырого молока",https://spark-interfax.ru/mordoviya-respublika-ichalkovski-raion/ooo-druzhba-inn-1310086360-ogrn-1021300707735-cfdddbf79d4b4a30ac127ba3a088e06c
"ПРОФЕССИОНАЛЬНАЯ КОНСУЛЬТАЦИОННАЯ ОРГАНИЗАЦИЯ АССОЦИАЦИЯ ""ЦЕНТР КОМПЕТЕНЦИЙ В СФЕРЕ СЕЛЬСКОХОЗЯЙСТВЕННОЙ КООПЕРАЦИИ И ПОДДЕРЖКИ ФЕРМЕРОВ""",ПКОА ЦЕНТР КОМПЕТЕНЦИЙ,1041320002085,"430005, Мордовия респ., г. Саранск, ул. Коммунистическая, д. 50 офис 304-305", 54.184820, 45.171861,74.90.4,Предоставление консультационных услуг в области сельского хозяйства,https://spark-interfax.ru/mordoviya-respublika-saransk/obedinenie-tsentr-kompetentsi-inn-1328902001-ogrn-1041320002085-6906d9ac85dc226ae0531b9aa8c04bb6
"ОБЩЕСТВО С ОГРАНИЧЕННОЙ ОТВЕТСТВЕННОСТЬЮ ""ВОЛКОТ""",ООО ВОЛКОТ,1328017825,"430027, Мордовия Респ, г.о. Саранск, г Саранск, ул А.Невского, д. 101Б, офис 4", 54.170813, 45.159078,14.12,Производство спецодежды,https://spark-interfax.ru/mordoviya-respublika-saransk/ooo-volkot-inn-1328017825-ogrn-1191326003945-8d0f8693920e8e79e0531c9aa8c00b5f
"ОБЩЕСТВО С ОГРАНИЧЕННОЙ ОТВЕТСТВЕННОСТЬЮ ""ЭМ-КАБЕЛЬ""",ООО ЭМ-КАБЕЛЬ,1327010175,"430006, Мордовия респ., г. Саранск, ул. Промышленная 2-Я, д. 10А", 54.237054, 45.197614,27.32,Производство прочих проводов и кабелей для электронного и электрического оборудования,https://spark-interfax.ru/mordoviya-respublika-saransk/ooo-em-kabel-inn-1327010175-ogrn-1101327000532-188838cec65340c7a1b07d074f544571
"ОБЩЕСТВО С ОГРАНИЧЕННОЙ ОТВЕТСТВЕННОСТЬЮ ""РУЗАЕВСКАЯ ФАБРИКА - РВ""",ООО РУЗАЕВСКАЯ ФАБРИКА - РВ,1324001782,"431440, Мордовия респ., г. Рузаевка, пл. Привокзальная, д. 4", 54.057742, 44.950102,14.14,Производство нательного белья,https://spark-interfax.ru/mordoviya-respublika-ruzaevka/ooo-ruzaevskaya-fabrika-rv-inn-1324001782-ogrn-1161324050040-6dcf28540aa34e7dad7cc1ccf2bddcc1
"ОБЩЕСТВО С ОГРАНИЧЕННОЙ ОТВЕТСТВЕННОСТЬЮ ""КОНСТРУКЦИОННЫЕ КОМПОЗИТЫ""",ООО КОНСТРУКЦИОННЫЕ КОМПОЗИТЫ,1324003162,"431451, Мордовия Респ, м.р-н Рузаевский, г.п. Рузаевка, г Рузаевка, ул Промышленная, д. 5, офис 1", 54.058735, 44.954391,22.21,"Производство пластмассовых плит, полос, труб и профилей",https://spark-interfax.ru/mordoviya-respublika-ruzaevka/ooo-konstruktsionnye-kompozity-inn-1324003162-ogrn-1191326005705-94c2f30b19ef5877e0531b9aa8c08823
ФОНД РАЗВИТИЯ ПРОМЫШЛЕННОСТИ РЕСПУБЛИКИ МОРДОВИЯ,ФРП РМ,1171326000779,"430009, Мордовия респ., г. Саранск, ул. Псковская, д. 2А", 54.186199, 45.226097,64.99,"Предоставление прочих финансовых услуг, кроме услуг по страхованию и пенсионному обеспечению, не включенных в другие группировки",https://spark-interfax.ru/mordoviya-respublika-saransk/fond-rm-inn-1328014373-ogrn-1171326000779-6906d9accdbd226ae0531b9aa8c04bb6
"ОБЩЕСТВО С ОГРАНИЧЕННОЙ ОТВЕТСТВЕННОСТЬЮ ""ЭМ-КАТ""",ООО ЭМ-КАТ,1327015254,"430006, Мордовия респ., г. Саранск, ул. Промышленная 2-Я, д. 10А", 54.237054, 45.197614,24.42,Производство алюминия,https://spark-interfax.ru/mordoviya-respublika-saransk/ooo-em-kat-inn-1327015254-ogrn-1121327000189-e904b44a1e98480893e901ecf8a3a0fe
"АКЦИОНЕРНОЕ ОБЩЕСТВО ""ОРБИТА""",АО ОРБИТА,1325029808,"430904, Мордовия респ., г. Саранск, рабочий пос. Ялга, ул. Пионерская, д. 12", 54.118279, 45.117669,26.11.2,"Производство диодов, транзисторов и прочих полупроводниковых приборов, включая светоизлучающие диоды, пьезоэлектрические приборы и их части",https://spark-interfax.ru/mordoviya-respublika-saransk/ao-orbita-inn-1325029808-ogrn-1021301112667-45bba03e908c4d88ab97d597a23c0c29
"АВТОНОМНАЯ НЕКОММЕРЧЕСКАЯ ОРГАНИЗАЦИЯ ""РЕДАКЦИЯ ГАЗЕТЫ ""ЗНАМЯ""",АНО РЕДАКЦИЯ ГАЗЕТЫ ЗНАМЯ,1071300002861,"431700, Мордовия респ., Чамзинский район, рабочий пос. Чамзинка, ул. Республиканская, д. 20", 54.407493, 45.775351,58.13,Издание газет,https://spark-interfax.ru/mordoviya-respublika-chamzinski-raion/ano-redaktsiya-gazety-znamya-inn-1322121724-ogrn-1071300002861-6906d9ac8ce1226ae0531b9aa8c04bb6
"ГОСУДАРСТВЕННОЕ БЮДЖЕТНОЕ УЧРЕЖДЕНИЕ РЕСПУБЛИКИ МОРДОВИЯ ""КОМПЛЕКСНЫЙ ЦЕНТР СОЦИАЛЬНОГО ОБСЛУЖИВАНИЯ ПО ГОРОДСКОМУ ОКРУГУ САРАНСК""",ГБУ РМ КОМПЛЕКСНЫЙ ЦЕНТР СОЦИАЛЬНОГО ОБСЛУЖИВАНИЯ ПО Г. О. САРАНСК,1091327000137,"430034, Мордовия респ., г. Саранск, ул. Воинова, д. 29", 54.218475, 45.114469,88.10,Предоставление социальных услуг без обеспечения проживания престарелым и инвалидам,https://spark-interfax.ru/mordoviya-respublika-saransk/gbu-kompleksny-tsentr-sotsialnogo-obsluzhivaniya-po-g-o-saransk-inn-1327007790-ogrn-1091327000137-6906d9acb729226ae0531b9aa8c04bb6
"ОБЩЕСТВО С ОГРАНИЧЕННОЙ ОТВЕТСТВЕННОСТЬЮ ""ФЕНИКС""",ООО ФЕНИКС,3628001080,"396910, Воронежская обл., Семилукский район, с. Нижняя Ведуга, ул. Ленина, д. 105", 51.741369, 38.653683,01.11.1,Выращивание зерновых культур,https://spark-interfax.ru/voronezhskaya-oblast-semilukski-raion/ooo-feniks-inn-3628001080-ogrn-1023601316518-2cdb516b669548fbb5c649dad679a4a4
АГРОПРОМЫШЛЕННЫЙ СОЮЗ НИЖНЕДЕВИЦКОГО РАЙОНА ВОРОНЕЖСКОЙ ОБЛАСТИ,АГРОПРОМСОЮЗ НИЖНЕДЕВИЦКОГО РАЙОНА ВОРОНЕЖСКОЙ ОБЛАСТИ,3615003428,"396870, Воронежская обл., с. Нижнедевицк, ул. Братьев Серых, д. 6", 51.543349, 38.364492,94.11,Деятельность предпринимательских членских некоммерческих организаций,https://spark-interfax.ru/voronezhskaya-oblast-nizhnedevitski-raion/obedinenie-agropromsoyuz-nizhnedevitskogo-raiona-voronezhskoi-oblasti-inn-3615003428-ogrn-1043676502540-6906d94c2b8c226ae0531b9aa8c04bb6
"ОБЩЕСТВО С ОГРАНИЧЕННОЙ ОТВЕТСТВЕННОСТЬЮ ""ГЕРА И ПРОЙСС""",ООО ГЕРА И ПРОЙСС,3610010502,"397601, Воронежская обл., Калачеевский район, г. Калач, ул. Элеваторная, д. 23", 50.422749, 40.979769,01.11,"Выращивание зерновых (кроме риса), зернобобовых культур и семян масличных культур",https://spark-interfax.ru/voronezhskaya-oblast-kalacheevski-raion/ooo-gera-i-proiss-inn-3610010502-ogrn-1073610000628-d4863f516ce44162b8c263ace2bd3bf5
"ОБЩЕСТВО С ОГРАНИЧЕННОЙ ОТВЕТСТВЕННОСТЬЮ ""БРИГ""",ООО БРИГ,3632007221,"397030, Воронежская обл., Эртильский район, г. Эртиль, ул. Строителей, зд. 2А", 51.836719, 40.798280,10.61,Производство продуктов мукомольной и крупяной промышленности,https://spark-interfax.ru/voronezhskaya-oblast-ertilski-raion/ooo-brig-inn-3632007221-ogrn-1093601000250-a54bedb8aba64918895059f1d8e61c09
"ОБЩЕСТВО С ОГРАНИЧЕННОЙ ОТВЕТСТВЕННОСТЬЮ ""ЧАПАЕВСКОЕ""",ООО ЧАПАЕВСКОЕ,3610008510,"397600, Воронежская обл., г. Калач, ул. Пугачева, д. 9", 50.432846, 40.996947,01.11,"Выращивание зерновых (кроме риса), зернобобовых культур и семян масличных культур",https://spark-interfax.ru/voronezhskaya-oblast-kalacheevski-raion/ooo-chapaevskoe-inn-3610008510-ogrn-1033680000640-617889546e557e1ce0531b9aa8c027ab
"ОБЩЕСТВО С ОГРАНИЧЕННОЙ ОТВЕТСТВЕННОСТЬЮ ""ПОБЕДА""",ООО ПОБЕДА,3632005376,"397010, Воронежская обл., Эртильский район, пос. Перво-Эртиль, ул. Центральная, д. 41", 51.732356, 40.816251,01.11.1,Выращивание зерновых культур,https://spark-interfax.ru/voronezhskaya-oblast-ertilski-raion/ooo-pobeda-inn-3632005376-ogrn-1043668501910-60e64beb893041e694cdac4b6878beca
"КРЕСТЬЯНСКОЕ ХОЗЯЙСТВО ""ВЕСНА""",КХ ВЕСНА,1023601071560,"396420, Воронежская обл., г. Павловск, ул. Транспортная, д. 9А", 50.454134, 40.148084,01.11,"Выращивание зерновых (кроме риса), зернобобовых культур и семян масличных культур",https://spark-interfax.ru/voronezhskaya-oblast-pavlovski-raion/vesna-inn-3620003705-ogrn-1023601071560-617889547b667e1ce0531b9aa8c027ab
СОЮЗ СЕЛЬСКОХОЗЯЙСТВЕННЫХ ТОВАРОПРОИЗВОДИТЕЛЕЙ СЕМИЛУКСКОГО РАЙОНА ВОРОНЕЖСКОЙ ОБЛАСТИ,СОЮЗ СЕЛЬСКОХОЗЯЙСТВЕННЫХ ТОВАРОПРОИЗВОДИТЕЛЕЙ СЕМИЛУКСКОГО РАЙОНА ВОРОНЕЖСКОЙ ОБЛАСТИ,1193600000857,"396901, Воронежская обл., Семилукский район, г. Семилуки, ул. Ленина, зд. 11 офис 315", 51.682468, 39.028717,94.12,Деятельность профессиональных членских организаций,https://spark-interfax.ru/voronezhskaya-oblast-semilukski-raion/obedinenie-selskokhozyaistvennykh-tovaroproizvoditelei-semilukskogo-raiona-voronezhskoi-oblasti-inn-3628020300-ogrn-119360000-8f42ca1337765995e0531b9aa8c0db7f
"ОБЩЕСТВО С ОГРАНИЧЕННОЙ ОТВЕТСТВЕННОСТЬЮ ""ПРОСТОРЫ ЧЕРНОЗЕМЬЯ""",ООО ПРОСТОРЫ ЧЕРНОЗЕМЬЯ,3605007984,"397501, Воронежская обл., Бутурлиновский район, г. Бутурлиновка, ул. Беговая, д. 2В пом. неж офис 1", 50.809925, 40.646340,01.11,"Выращивание зерновых (кроме риса), зернобобовых культур и семян масличных культур",https://spark-interfax.ru/voronezhskaya-oblast-buturlinovski-raion/ooo-prostory-chernozemya-inn-3605007984-ogrn-1153668035773-474223906ade4ce69e8af7493987c30e
"ОБЩЕСТВО С ОГРАНИЧЕННОЙ ОТВЕТСТВЕННОСТЬЮ АГРОФИРМА ""РОС-ПРОДУКТ""",ООО АГРОФИРМА РОС-ПРОДУКТ,3632005351,"397009, Воронежская обл., Эртильский район, пос. Сергеевка, пер. Народный, д. 3", 51.665752, 40.733727,01.11,"Выращивание зерновых (кроме риса), зернобобовых культур и семян масличных культур",https://spark-interfax.ru/voronezhskaya-oblast-ertilski-raion/ooo-ros-produkt-inn-3632005351-ogrn-1043668501216-6178895478107e1ce0531b9aa8c027ab
"КРЕСТЬЯНСКОЕ ХОЗЯЙСТВО ""БЕРЕЗКА""",КХ БЕРЕЗКА,1023600617446,"397225, Воронежская обл, м.р-н Грибановский, с.п. Новомакаровское, с Новомакарово, ул Ленина, д. 25", 51.458099, 41.233398,01.11.1,Выращивание зерновых культур,https://spark-interfax.ru/voronezhskaya-oblast-gribanovski-raion/kfkh-berezka-inn-3609000330-ogrn-1023600617446-6906d94bb094226ae0531b9aa8c04bb6
"АССОЦИАЦИЯ ФЕРМЕРСКИХ ХОЗЯЙСТВ, ЛИЧНЫХ ПОДСОБНЫХ ХОЗЯЙСТВ И СЕЛЬСКОХОЗЯЙСТВЕННЫХ КООПЕРАТИВОВ ТЕРНОВСКОГО РАЙОНА ВОРОНЕЖСКОЙ ОБЛАСТИ ""НОВЫЙ ПУТЬ""",АССОЦИАЦИЯ ФЕРМЕРОВ НОВЫЙ ПУТЬ,1173600000705,"397110, Воронежская обл., Терновский район, с. Терновка, ул. Свободы, д. 31", 51.684789, 41.584691,94.12,Деятельность профессиональных членских организаций,https://spark-interfax.ru/voronezhskaya-oblast-ternovski-raion/obedinenie-novy-put-inn-3630003817-ogrn-1173600000705-6906d94cdf42226ae0531b9aa8c04bb6
"ОБЩЕСТВО С ОГРАНИЧЕННОЙ ОТВЕТСТВЕННОСТЬЮ ""СХ МИР""",ООО СХ МИР,3622000717,"397683, Воронежская обл., Петропавловский район, с. Новотроицкое, пл. Авраменко, д. 48 офис 22-23", 50.131226, 41.095371,01.11,"Выращивание зерновых (кроме риса), зернобобовых культур и семян масличных культур",https://spark-interfax.ru/voronezhskaya-oblast-petropavlovski-raion/ooo-skh-mir-inn-3622000717-ogrn-1183668001835-63ce97db5d1e8839e0531b9aa8c0591a
"СЕЛЬСКОХОЗЯЙСТВЕННЫЙ СБЫТОВОЙ ПЕРЕРАБАТЫВАЮЩИЙ ПОТРЕБИТЕЛЬСКИЙ КООПЕРАТИВ ""БОЕВСКИЙ""",ССППК БОЕВСКИЙ,3613004264,"396304, Воронежская обл., Новоусманский район, пос. Трудовое, ул. Садовая, д. 27 офис 9", 51.764771, 39.729667,10.39.1,Переработка и консервирование овощей (кроме картофеля) и грибов,https://spark-interfax.ru/voronezhskaya-oblast-novousmanski-raion/koop-boevski-inn-3613004264-ogrn-1063616004891-6906d94c3e87226ae0531b9aa8c04bb6
"ОБЩЕСТВО С ОГРАНИЧЕННОЙ ОТВЕТСТВЕННОСТЬЮ СЕЛЬСКОХОЗЯЙСТВЕННОЕ ПРЕДПРИЯТИЕ ""ТИТАРЕВСКОЕ""",ООО СХП ТИТАРЕВСКОЕ,3612006702,"396742, Воронежская обл., Кантемировский район, с. Титаревка, ул. Победы, д. 144", 49.744911, 40.163935,01.11.1,Выращивание зерновых культур,https://spark-interfax.ru/voronezhskaya-oblast-kantemirovski-raion/ooo-titarevskoe-inn-3612006702-ogrn-1023600847676-c22d67e0034a45768e1292d392b9c943
"КРЕСТЬЯНСКОЕ ХОЗЯЙСТВО ""ВАНТ""",КХ ВАНТ,1023601078445,"396790, Воронежская обл., г. Богучар, нп. Военный Городок, д. 26 кв. 8", 49.942639, 40.530553,01.11,"Выращивание зерновых (кроме риса), зернобобовых культур и семян масличных культур",https://spark-interfax.ru/voronezhskaya-oblast-bogucharski-raion/vant-inn-3603001480-ogrn-1023601078445-617889546a6c7e1ce0531b9aa8c027ab
"СЕЛЬСКОХОЗЯЙСТВЕННАЯ АРТЕЛЬ ""СТАРОКРИУШАНСКАЯ""",СЕЛЬХОЗАРТЕЛЬ СТАРОКРИУШАНСКАЯ,3622000072,"397685, Воронежская обл., Петропавловский район, с. Старая Криуша, ул. Молодежная, д. 6Б", 50.175348, 41.130117,01.11.1,Выращивание зерновых культур,https://spark-interfax.ru/voronezhskaya-oblast-petropavlovski-raion/kolkhoz-starokriushanskaya-inn-3622000072-ogrn-1023600793655-32827aed229f47d09ec43768fb58c48a
"АССОЦИАЦИЯ КРЕСТЬЯНСКИХ (ФЕРМЕРСКИХ) ХОЗЯЙСТВ ""СОДЕЙСТВИЕ""",АССОЦИАЦИЯ КФХ СОДЕЙСТВИЕ,1023600507985,"397030, Воронежская обл., Эртильский район, г. Эртиль, пл. Ленина, д. 5", 51.835510, 40.800339,70.22,Консультирование по вопросам коммерческой деятельности и управления,https://spark-interfax.ru/voronezhskaya-oblast-ertilski-raion/obedinenie-sodeistvie-inn-3632001942-ogrn-1023600507985-6906d94c0ee8226ae0531b9aa8c04bb6
"ОБЩЕСТВО С ОГРАНИЧЕННОЙ ОТВЕТСТВЕННОСТЬЮ ЗЕРНОВАЯ КОМПАНИЯ ""ЦЕНТРАЛЬНЫЙ РЕГИОН""",ООО ЗК ЦЕНТРАЛЬНЫЙ РЕГИОН,3666187371,"394086, Воронежская обл., г. Воронеж, ул. Южно-Моравская, д. 15Б офис 363", 51.653030, 39.115353,01.11,"Выращивание зерновых (кроме риса), зернобобовых культур и семян масличных культур",https://spark-interfax.ru/voronezhskaya-oblast-voronezh/ooo-tsentralny-region-inn-3666187371-ogrn-1133668042540-f0626580a01e46cea8694c198373960d
"ОБЩЕСТВО С ОГРАНИЧЕННОЙ ОТВЕТСТВЕННОСТЬЮ ""ПРИТОК""",ООО ПРИТОК,3629007207,"397481, Воронежская обл., Таловский район, рабочий пос. Таловая, ул. 50 Лет Ссср, д. 15", 51.112388, 40.699728,46.21.11,Торговля оптовая зерном,https://spark-interfax.ru/voronezhskaya-oblast-talovski-raion/ooo-pritok-inn-3629007207-ogrn-1103629000232-61788954c4237e1ce0531b9aa8c027ab
"ОБЩЕСТВО С ОГРАНИЧЕННОЙ ОТВЕТСТВЕННОСТЬЮ ""ШКОЛА УСПЕХА""",ООО ШКОЛА УСПЕХА,6330083782,"446200, Самарская обл., г. Новокуйбышевск, ул. Чернышевского, д. 10 ком. 1", 53.094586, 49.947092,85.41,Образование дополнительное детей и взрослых,https://spark-interfax.ru/samarskaya-oblast-novokuibyshevsk/ooo-shkola-uspekha-inn-6330083782-ogrn-1186313086200-779bf690a133797fe0531b9aa8c0eece
"ОБЩЕСТВО С ОГРАНИЧЕННОЙ ОТВЕТСТВЕННОСТЬЮ "" ПОЗИТИВ""",ООО ПОЗИТИВ,6330047294,"446200, Самарская обл., г. Новокуйбышевск, проспект Победы, зд. 1Ж ком. 59", 53.101909, 49.958730,93.29.9,"Деятельность зрелищно-развлекательная прочая, не включенная в другие группировки",https://spark-interfax.ru/samarskaya-oblast-novokuibyshevsk/ooo-pozitiv-inn-6330047294-ogrn-1116330001149-5b32ecc6f9e24bd3bee52fa54a774d53
"ОБЩЕСТВО С ОГРАНИЧЕННОЙ ОТВЕТСТВЕННОСТЬЮ СЕЛЬСКОХОЗЯЙСТВЕННОЕ ПРЕДПРИЯТИЕ ""НИВА""",ООО СХП НИВА,6381009025,"446857, Самарская обл., Челно-Вершинский район, с. Новая Таяба, ул. Центральная, д. 1", 54.571360, 51.321977,01.1,Выращивание однолетних культур,https://spark-interfax.ru/samarskaya-oblast-chelno-vershinski-raion/ooo-niva-inn-6381009025-ogrn-1056381001302-6178895ea25a7e1ce0531b9aa8c027ab
"ОБЩЕСТВО С ОГРАНИЧЕННОЙ ОТВЕТСТВЕННОСТЬЮ ""СЕВ-07""",ООО СЕВ-07,6362013890,"445556, Самарская обл., Приволжский район, с. Спасское, ул. Молодежная, зд. 25", 52.891332, 48.618820,01.11,"Выращивание зерновых (кроме риса), зернобобовых культур и семян масличных культур",https://spark-interfax.ru/samarskaya-oblast-privolzhski-raion/ooo-sev-inn-6362013890-ogrn-1076362000340-61899053240f4cccb9c068a26deac71c
"СЕЛЬСКОХОЗЯЙСТВЕННЫЙ ПРОИЗВОДСТВЕННЫЙ КООПЕРАТИВ (КОЛХОЗ) ""РОДНИК""",СПК (КОЛХОЗ) РОДНИК,6385002045,"446860, Самарская обл., Челно-Вершинский район, с. Малое Девлезеркино, ул. Школьная, д. 1 к. А", 54.475165, 51.236702,01.11.1,Выращивание зерновых культур,https://spark-interfax.ru/samarskaya-oblast-chelno-vershinski-raion/koop-rodnik-inn-6385002045-ogrn-1026303766818-0f9f4795c16f44d3b5bf4ffa047dc33d
"ОБЩЕСТВО С ОГРАНИЧЕННОЙ ОТВЕТСТВЕННОСТЬЮ ""КОЛОС""",ООО КОЛОС,6368003560,"446876, Самарская обл, м.р-н Елховский, с.п. Сухие Аврали, с Мулловка, ул Кооперативная, двлд. 22", 53.774875, 50.160959,01.11,"Выращивание зерновых (кроме риса), зернобобовых культур и семян масличных культур",https://spark-interfax.ru/samarskaya-oblast-elkhovski-raion/ooo-kolos-inn-6368003560-ogrn-1086376000094-fe40299ab0234b0f953dd4bd025562e1
"СЕЛЬСКОХОЗЯЙСТВЕННЫЙ ПРОИЗВОДСТВЕННЫЙ КООПЕРАТИВ ""СОЮЗ""",СПК СОЮЗ,6384000327,"445581, Самарская обл, м.р-н Хворостянский, с.п. Владимировка, с Владимировка, ул В.Суркова, д. 53", 52.709149, 48.931936,01.11.1,Выращивание зерновых культур,https://spark-interfax.ru/samarskaya-oblast-khvorostyanski-raion/koop-soyuz-inn-6384000327-ogrn-1026303883760-56f71f33dbf346d5aff57abb413cc139
"ОБЩЕСТВО С ОГРАНИЧЕННОЙ ОТВЕТСТВЕННОСТЬЮ ""ЖЕМЧУЖИНА""",ООО ЖЕМЧУЖИНА,6372020142,"446350, Самарская обл., Кинель-Черкасский район, с. Кинель-Черкассы, ул. Ленинская, д. 50", 53.466007, 51.471400,86.23,Стоматологическая практика,https://spark-interfax.ru/samarskaya-oblast-kinel-cherkasski-raion/ooo-zhemchuzhina-inn-6372020142-ogrn-1126372000149-eefd55d15fb14d43a75ddd1e18cbd231
"ОБЩЕСТВО С ОГРАНИЧЕННОЙ ОТВЕТСТВЕННОСТЬЮ ""УСПЕШНОЕ РАЗВИТИЕ""",ООО УСПЕШНОЕ РАЗВИТИЕ,6381021311,"446558, Самарская обл., Сергиевский район, с. Боровка, ул. Юбилейная, зд. 34 этаж / ком. 2/18", 54.016531, 51.295123,01.11,"Выращивание зерновых (кроме риса), зернобобовых культур и семян масличных культур",https://spark-interfax.ru/samarskaya-oblast-sergievski-raion/ooo-uspeshnoe-razvitie-inn-6381021311-ogrn-1206300036370-a890530bd6205f27e053189aa8c0150b
"ОБЩЕСТВО С ОГРАНИЧЕННОЙ ОТВЕТСТВЕННОСТЬЮ ""КОЛОС""",ООО КОЛОС,6381007941,"446555, Самарская обл., Сергиевский район, с. Кармало-Аделяково, ул. Ленина, д. 70 офис 2", 53.845476, 51.404637,01.11.1,Выращивание зерновых культур,https://spark-interfax.ru/samarskaya-oblast-sergievski-raion/ooo-kolos-inn-6381007941-ogrn-1036303161740-17bb5fbd180e44428aadfdbf1cdae3f1
"ОБЩЕСТВО С ОГРАНИЧЕННОЙ ОТВЕТСТВЕННОСТЬЮ ""КУБ""",ООО КУБ,631401001,"443042, Самарская обл, г.о. Самара, вн.р-н Куйбышевский, г Самара, ул Белорусская, д. 88А, офис 18", 53.143683, 50.053517,95.24,Ремонт мебели и предметов домашнего обихода,https://spark-interfax.ru/samarskaya-oblast-samara/ooo-kub-inn-6314050652-ogrn-1256300017467-3a543e22ed0d521ae063269aa8c04130
"ОБЩЕСТВО С ОГРАНИЧЕННОЙ ОТВЕТСТВЕННОСТЬЮ АГРОКОМПЛЕКС ""КОНЕЗАВОД ""САМАРСКИЙ""",ООО АГРОКОМПЛЕКС КОНЕЗАВОД САМАРСКИЙ,6376065391,"Самарская обл, м.р-н Сергиевский, г.п. Суходол, пгт Суходол, ул ДРП-2, зд. 7, ком. 22", 53.903328, 51.218029,01.1,Выращивание однолетних культур,https://spark-interfax.ru/samarskaya-oblast-sergievski-raion/ooo-konezavod-samarski-inn-6376065391-ogrn-1086376000435-d210b77b4edf42638e206429c8a4e144
"КРЕСТЬЯНСКОЕ ФЕРМЕРСКОЕ ХОЗЯЙСТВО ""ДОНСКОЕ""",КФХ ДОНСКОЕ,1026303803239,"446884, Самарская обл., Елховский район, с. Никитинка, ул. Полевая к. 18 офис 1", 53.932466, 50.557930,01.1,Выращивание однолетних культур,https://spark-interfax.ru/samarskaya-oblast-elkhovski-raion/kfkh-donskoe-inn-6368000432-ogrn-1026303803239-6906d957b44c226ae0531b9aa8c04bb6
"АВТОНОМНАЯ НЕКОММЕРЧЕСКАЯ ОБРАЗОВАТЕЛЬНАЯ ОРГАНИЗАЦИЯ ДОШКОЛЬНОГО ОБРАЗОВАНИЯ ЦЕНТР РАЗВИТИЯ РЕБЕНКА ""ПЛАНЕТА ДЕТСТВА+""",АНОО ДО ПЛАНЕТА ДЕТСТВА+,1206300037514,"443086, Самарская обл., г. Самара, ул. Революционная, д. 77 кв. 198", 53.213807, 50.167026,85.11,Образование дошкольное,https://spark-interfax.ru/samarskaya-oblast-samara/ano-planeta-detstva-inn-6316266061-ogrn-1206300037514-a91d23f026ee3ae5e053189aa8c0df2b
"ОБЩЕСТВО С ОГРАНИЧЕННОЙ ОТВЕТСТВЕННОСТЬЮ СЕЛЬСКОХОЗЯЙСТВЕННОЕ ПРЕДПРИЯТИЕ ""ЯКУШКИНО""",ООО СХП ЯКУШКИНО,6381030242,"446575, Самарская обл., Исаклинский район, с. Новое Якушкино, ул. Центральная, владение 31 офис 3", 53.945057, 51.523096,01.1,Выращивание однолетних культур,https://spark-interfax.ru/samarskaya-oblast-isaklinski-raion/ooo-yakushkino-inn-6381030242-ogrn-1136381000249-e91d706386ac432081e2db5b29a0bf95
"ОБЩЕСТВО С ОГРАНИЧЕННОЙ ОТВЕТСТВЕННОСТЬЮ СЕЛЬСКОХОЗЯЙСТВЕННОЕ ПРЕДПРИЯТИЕ ""САМСОНОВСКОЕ""",ООО СХП САМСОНОВСКОЕ,6381018012,"446575, Самарская обл., Исаклинский район, с. Самсоновка, ул. Первомайская, д. 4", 53.890297, 51.509727,01.4,Животноводство,https://spark-interfax.ru/samarskaya-oblast-isaklinski-raion/ooo-samsonovskoe-inn-6381018012-ogrn-1116381000482-91a0d483bb3c4c0b932ae5a32f4ae3d7
КРЕСТЬЯНСКОЕ (ФЕРМЕРСКОЕ) ХОЗЯЙСТВО КАРАСЕВА ЮРИЯ АЛЕКСЕЕВИЧА,КФХ КАРАСЕВА Ю.А.,1026303858998,"446647, Самарская обл., Алексеевский район, пос. Субботинский, ул. Советская, д. 39", 52.600655, 51.426140,01.1,Выращивание однолетних культур,https://spark-interfax.ru/samarskaya-oblast-alekseevski-raion/kfkh-karaseva-yu-a-inn-6361000539-ogrn-1026303858998-6906d957b0fa226ae0531b9aa8c04bb6
"ЗАКРЫТОЕ АКЦИОНЕРНОЕ ОБЩЕСТВО ""ЛАКТО""",ЗАО ЛАКТО,6384009513,"445590, Самарская обл., Хворостянский район, с. Хворостянка, ул. Пролетарская", 52.614723, 48.978438,01.1,Выращивание однолетних культур,https://spark-interfax.ru/samarskaya-oblast-khvorostyanski-raion/ao-lakto-inn-6384009513-ogrn-1026303883792-fd7c03363fa440288e62a8b2759e10c7
"СЕЛЬСКОХОЗЯЙСТВЕННЫЙ ПОТРЕБИТЕЛЬСКИЙ ПЕРЕРАБАТЫВАЮЩИЙ СНАБЖЕНЧЕСКИЙ СБЫТОВОЙ ОБСЛУЖИВАЮЩИЙ КООПЕРАТИВ ""МЕДЕО""",СППССОК МЕДЕО,1206300073858,"445564, Самарская обл, м.р-н Приволжский, с.п. Приволжье, с Федоровка, ул Фрунзе, д. 126", 52.801751, 48.530907,01.41.2,"Производство сырого коровьего молока и сырого молока прочего крупного рогатого скота (буйволов, яков и др.)",https://spark-interfax.ru/samarskaya-oblast-privolzhski-raion/koop-medeo-inn-6330092890-ogrn-1206300073858-b7f72bf0e8c03223e053219aa8c0e12f
"ОБЩЕСТВО С ОГРАНИЧЕННОЙ ОТВЕТСТВЕННОСТЬЮ ""НИВА""",ООО НИВА,6362012664,"446220, Самарская обл., Безенчукский район, с. Калиновка, д. 1 кв. 1", 53.019427, 49.066690,01.11,"Выращивание зерновых (кроме риса), зернобобовых культур и семян масличных культур",https://spark-interfax.ru/samarskaya-oblast-bezenchukski-raion/ooo-niva-inn-6362012664-ogrn-1056362036224-6178895eb06b7e1ce0531b9aa8c027ab
"СЕЛЬСКОХОЗЯЙСТВЕННЫЙ ПРОИЗВОДСТВЕННЫЙ КООПЕРАТИВ ""ПЕНЗИНО""",СПК ПЕНЗИНО,6365000032,"446272, Самарская обл., Большечерниговский район, пос. Пензено, ул. Советская, д. 31", 52.112502, 50.451525,01.11,"Выращивание зерновых (кроме риса), зернобобовых культур и семян масличных культур",https://spark-interfax.ru/samarskaya-oblast-bolshechernigovski-raion/koop-penzino-inn-6365000032-ogrn-1026303462778-3cccbcb327914e9db83c6bfbaa6dadcd
"ГОСУДАРСТВЕННОЕ КАЗЕННОЕ УЧРЕЖДЕНИЕ САМАРСКОЙ ОБЛАСТИ ""ОБЛАСТНОЙ ЦЕНТР СОЦИАЛЬНОЙ ПОМОЩИ СЕМЬЕ И ДЕТЯМ""",ГКУ СО ОБЛАСТНОЙ ЦЕНТР СОЦИАЛЬНОЙ ПОМОЩИ СЕМЬЕ И ДЕТЯМ,1026300773730,"443077, Самарская обл., г. Самара, ул. Пугачевская, д. 27", 53.230166, 50.274321,87.90,Деятельность по уходу с обеспечением проживания прочая,https://spark-interfax.ru/samarskaya-oblast-samara/gku-oblastnoi-tsentr-sotsialnoi-pomoshchi-seme-i-detyam-inn-6318100544-ogrn-1026300773730-6906d9584f6c226ae0531b9aa8c04bb6
"ПОТРЕБИТЕЛЬСКОЕ ОБЩЕСТВО ""КУЙБЫШЕВСКОЕ""",ПО КУЙБЫШЕВСКОЕ,1076317003014,"443015, Самарская обл., г. Самара, пер. Заливной, д. 15 офис 1", 53.161095, 50.080140,46.3,"Торговля оптовая пищевыми продуктами, напитками и табачными изделиями",https://spark-interfax.ru/samarskaya-oblast-samara/pob-kuibyshevskoe-inn-6314028431-ogrn-1076317003014-6906d958bd2c226ae0531b9aa8c04bb6
"ОБЩЕСТВО С ОГРАНИЧЕННОЙ ОТВЕТСТВЕННОСТЬЮ СЕЛЬСКОХОЗЯЙСТВЕННОЕ ПРЕДПРИЯТИЕ ""ЗОЛОТОЕ РУНО""",ООО СХП ЗОЛОТОЕ РУНО,6372007840,"446351, Самарская обл., Кинель-Черкасский район, с. Кинель-Черкассы, ул. Чкалова, зд. 82", 53.468530, 51.544211,01.11.1,Выращивание зерновых культур,https://spark-interfax.ru/samarskaya-oblast-kinel-cherkasski-raion/ooo-zolotoe-runo-inn-6372007840-ogrn-1026303715591-c2ed078043c24247872cbd0eab43661b
"ОБЩЕСТВО С ОГРАНИЧЕННОЙ ОТВЕТСТВЕННОСТЬЮ ""АГРОИНВЕСТ""",ООО АГРОИНВЕСТ,6362015224,"445590, Самарская обл., Хворостянский район, с. Хворостянка, ул. Степная, д. 1А", 52.597237, 48.960671,01.1,Выращивание однолетних культур,https://spark-interfax.ru/samarskaya-oblast-khvorostyanski-raion/ooo-agroinvest-inn-6362015224-ogrn-1096362000460-28e435bcfba94d2f92c712439cb2bcc6
"ОБЩЕСТВО С ОГРАНИЧЕННОЙ ОТВЕТСТВЕННОСТЬЮ ""СОЮЗ""",ООО СОЮЗ,6375191700,"446178, Самарская обл., Пестравский район, с. Майское, ул. Шоссейная, зд. 22", 52.268429, 50.045912,01.11.1,Выращивание зерновых культур,https://spark-interfax.ru/samarskaya-oblast-pestravski-raion/ooo-soyuz-inn-6375191700-ogrn-1066375003958-ac0040fe6d7a4d5db825046931a621cf
"ЗАКРЫТОЕ АКЦИОНЕРНОЕ ОБЩЕСТВО "" БОБРОВСКОЕ""",ЗАО БОБРОВСКОЕ,6371000471,"446406, Самарская обл., Кинельский район, с. Бобровка, ул. Восточная, зд. 11", 53.153186, 50.659811,01.11,"Выращивание зерновых (кроме риса), зернобобовых культур и семян масличных культур",https://spark-interfax.ru/samarskaya-oblast-kinelski-raion/ao-bobrovskoe-inn-6371000471-ogrn-1026303273919-039d84c5d2dd493a9d8397b812fcd9f4
"ОБЩЕСТВО С ОГРАНИЧЕННОЙ ОТВЕТСТВЕННОСТЬЮ ""ЮГ ПОВОЛЖЬЯ""",ООО ЮГ ПОВОЛЖЬЯ,6375192975,"446281, Самарская обл., Большечерниговский район, с. Августовка, ул. Гаражная, д. 12", 52.243494, 50.746055,01.11.1,Выращивание зерновых культур,https://spark-interfax.ru/samarskaya-oblast-bolshechernigovski-raion/ooo-yug-povolzhya-inn-6375192975-ogrn-1076375000778-56f4e0d7412043d5bc3b8368f5949823
"ОБЩЕСТВО С ОГРАНИЧЕННОЙ ОТВЕТСТВЕННОСТЬЮ ""КОЛОС ПОВОЛЖЬЯ""",ООО КОЛОС ПОВОЛЖЬЯ,6375001934,"446156, Самарская обл., Красноармейский район, с. Криволучье-Ивановка, ПРОИЗ. база", 52.740864, 49.549303,01.11,"Выращивание зерновых (кроме риса), зернобобовых культур и семян масличных культур",https://spark-interfax.ru/samarskaya-oblast-krasnoarmeiski-raion/ooo-kolos-povolzhya-inn-6375001934-ogrn-1146375000089-d445cc5db6864101b536676acde2c6d3
"СЕЛЬСКОХОЗЯЙСТВЕННЫЙ ПРОИЗВОДСТВЕННЫЙ КООПЕРАТИВ ""ЗАРЯ""",СПК ЗАРЯ,6384009048,"445589, Самарская обл., Хворостянский район, с. Новотулка, ул. Набережная, д. 55 офис 2", 52.663839, 48.750469,01.11.1,Выращивание зерновых культур,https://spark-interfax.ru/samarskaya-oblast-khvorostyanski-raion/koop-zarya-inn-6384009048-ogrn-1026303888490-60d1652a291e4314ab8433629f924b71
"ОБЩЕСТВО С ОГРАНИЧЕННОЙ ОТВЕТСТВЕННОСТЬЮ ""ПЕТРА-СТАЛЬ""",ООО ПЕТРА-СТАЛЬ,7842159771,"195197, г. Санкт-Петербург, вн.тер.г. муниципальный округ Финляндский округ, ул Минеральная, д. 7, литера А, секция 4", 59.966735, 30.378947,46.77,Торговля оптовая отходами и ломом,https://spark-interfax.ru/sankt-peterburg-kalininski/ooo-petra-stal-inn-7842159771-ogrn-1187847234464-744ebcdc53737adbe0531b9aa8c0433f
"ОБЩЕСТВО С ОГРАНИЧЕННОЙ ОТВЕТСТВЕННОСТЬЮ ""АГРОПРОМЫШЛЕННАЯ КОМПАНИЯ КОМСОМОЛЕЦ""",ООО АПК КОМСОМОЛЕЦ,6371006770,"446412, Самарская обл., Кинельский район, пос. Комсомольский, ул. 50 Лет Октября, д. 24", 53.229598, 50.844152,01.11.1,Выращивание зерновых культур,https://spark-interfax.ru/samarskaya-oblast-kinelski-raion/ooo-apk-komsomolets-inn-6371006770-ogrn-1026303272687-3be9265f9c424933962d0c889955d6e4
"ОБЩЕСТВО С ОГРАНИЧЕННОЙ ОТВЕТСТВЕННОСТЬЮ ""НАУЧНО-ПРОИЗВОДСТВЕННЫЙ ЦЕНТР БЕСПИЛОТНЫХ АВИАЦИОННЫХ СИСТЕМ ""ПРОИЗВОДСТВО""",ООО НПЦ БАС ПРОИЗВОДСТВО,6320080951,"445043, Самарская обл, г.о. Тольятти, г Тольятти, ш Южное, зд. 161А", 53.556469, 49.217390,72.19,Научные исследования и разработки в области естественных и технических наук прочие,https://spark-interfax.ru/samarskaya-oblast-tolyatti/ooo-npts-bas-proizvodstvo-inn-6320080951-ogrn-1246300014476-195390520d9a54c5e063259aa8c0ca74
"ОБЩЕСТВО С ОГРАНИЧЕННОЙ ОТВЕТСТВЕННОСТЬЮ ""КОСМОС""",ООО КОСМОС,6376121021,"Самарская обл, м.р-н Красноярский, с.п. Светлое Поле, тер Детский оздоровительный лагерь Космос 2, зд. 3, ком. 306", 53.500475, 50.255886,85.41.91,Деятельность по организации отдыха детей и их оздоровления,https://spark-interfax.ru/samarskaya-oblast-krasnoyarski-raion/ooo-kosmos-inn-6376121021-ogrn-1056376000603-6e9074bcf7a34e50bb239201183cbc74
"ОБЩЕСТВО С ОГРАНИЧЕННОЙ ОТВЕТСТВЕННОСТЬЮ СЕЛЬСКОХОЗЯЙСТВЕННОЕ ПРЕДПРИЯТИЕ ""ОЛИМП - АГРО""",ООО СХП ОЛИМП - АГРО,6382044030,"445134, Самарская обл., Ставропольский район, с. Нижнее Санчелеево, ул. Советская, зд. 124/1", 53.683352, 49.424169,01.11.1,Выращивание зерновых культур,https://spark-interfax.ru/samarskaya-oblast-stavropolski-raion/ooo-olimp-agro-inn-6382044030-ogrn-1026303951222-39cc210b98994f49a811e46ce0949e7b
"ОБЩЕСТВО С ОГРАНИЧЕННОЙ ОТВЕТСТВЕННОСТЬЮ ""МТС- АГРО""",ООО МТС - АГРО,3617006897,"397431, Воронежская обл., Новохопёрский район, рабочий пос. Елань-Коленовский, проспект Кольцова, д. 4А пом. 1", 51.172630, 41.151002,01.11,"Выращивание зерновых (кроме риса), зернобобовых культур и семян масличных культур",https://spark-interfax.ru/voronezhskaya-oblast-novokhoperski-raion/ooo-mts-agro-inn-3617006897-ogrn-1043690000606-1e58b533fa9844eb9e1ed8ad783cd5a9
"ОБЩЕСТВО С ОГРАНИЧЕННОЙ ОТВЕТСТВЕННОСТЬЮ ""ОБЪЕДИНЕННАЯ ПРОИЗВОДСТВЕННАЯ КОМПАНИЯ""",ООО ОПК,3621005536,"396154, Воронежская обл., Панинский район, пос. Алое Поле, ул. Центральная, д. 57", 51.609760, 40.052143,01.11,"Выращивание зерновых (кроме риса), зернобобовых культур и семян масличных культур",https://spark-interfax.ru/voronezhskaya-oblast-paninski-raion/ooo-opk-inn-3621005536-ogrn-1103601000337-1d7ac1e4a1a74b4a8dbfd33fae16b8a9
"ОБЩЕСТВО С ОГРАНИЧЕННОЙ ОТВЕТСТВЕННОСТЬЮ ""АГРОТЕХ-ГАРАНТ"" ВЕРХНЕ ТОЙДЕНСКИЙ",ООО АГРОТЕХ-ГАРАНТ ВЕРХНЕ ТОЙДЕНСКИЙ,3601010256,"396210, Воронежская обл., Аннинский район, с. Верхняя Тойда, ул. Ленина, зд. 4А", 51.423302, 40.304199,01.11,"Выращивание зерновых (кроме риса), зернобобовых культур и семян масличных культур",https://spark-interfax.ru/voronezhskaya-oblast-anninski-raion/ooo-agrotekh-garant-verkhne-toidenski-inn-3601010256-ogrn-1093601000162-55efc03ee8ec49f4be91c5c91d894c31
"ОБЩЕСТВО С ОГРАНИЧЕННОЙ ОТВЕТСТВЕННОСТЬЮ ""РОССОШЬГИБРИД""",ООО РОССОШЬГИБРИД,3627025970,"396651, Воронежская обл., Россошанский район, г. Россошь, ул. Элеваторная, д. 2", 50.191150, 39.598266,01.11.1,Выращивание зерновых культур,https://spark-interfax.ru/voronezhskaya-oblast-rossoshanski-raion/ooo-rossoshgibrid-inn-3627025970-ogrn-1093627001544-8f86337c1c554d5593bd0d2b5bc692ef
"ОБЩЕСТВО С ОГРАНИЧЕННОЙ ОТВЕТСТВЕННОСТЬЮ ""ГОРЯЙНОВО-АГРО""",ООО ГОРЯЙНОВО-АГРО,4608004870,"306740, Курская обл., Касторенский район, с. Горяиново, ул. Центральная, д. 10 к. _ офис", 51.834504, 38.393503,01.11.1,Выращивание зерновых культур,https://spark-interfax.ru/kurskaya-oblast-kastorenski-raion/ooo-goryainovo-agro-inn-4608004870-ogrn-1054600009056-727b100eeb0e46529307743b992b46a8
"АКЦИОНЕРНОЕ ОБЩЕСТВО ""ЗАРЯ""",АО ЗАРЯ,3601012020,"396240, Воронежская обл., Аннинский район, с. Бродовое, ул. Школьная, д. 14", 51.484378, 40.499376,01.41,"Разведение молочного крупного рогатого скота, производство сырого молока",https://spark-interfax.ru/voronezhskaya-oblast-anninski-raion/ao-zarya-inn-3601012020-ogrn-1203600037530-ff419879289d4345a122ff5c029aa199
"СЕЛЬСКОХОЗЯЙСТВЕННЫЙ ПРОИЗВОДСТВЕННЫЙ КООПЕРАТИВ ""АГРО-НИВА""",СПК АГРО-НИВА,3601010200,"396202, Воронежская обл., Аннинский район, пос. Денисовка", 51.616791, 40.424911,01.11,"Выращивание зерновых (кроме риса), зернобобовых культур и семян масличных культур",https://spark-interfax.ru/voronezhskaya-oblast-anninski-raion/koop-agro-niva-inn-3601010200-ogrn-1093601000118-f8547dd40c90488793f464c2376bc928
"ОБЩЕСТВО С ОГРАНИЧЕННОЙ ОТВЕТСТВЕННОСТЬЮ ""КОЛБИНО""",ООО КОЛБИНО,3626003162,"396372, Воронежская обл., Репьёвский район, с. Колбино, ул. Советская, зд. 36", 51.042910, 38.915101,01.11,"Выращивание зерновых (кроме риса), зернобобовых культур и семян масличных культур",https://spark-interfax.ru/voronezhskaya-oblast-repevski-raion/ooo-kolbino-inn-3626003162-ogrn-1043683006773-48a779a226834d48af38ac855e17617b
"МЕСТНАЯ РЕЛИГИОЗНАЯ ОРГАНИЗАЦИЯ ПРАВОСЛАВНЫЙ ПРИХОД ВОСКРЕСЕНСКОГО ХРАМА С. ПЕСКИ ПЕТРОПАВЛОВСКОГО РАЙОНА ВОРОНЕЖСКОЙ ОБЛАСТИ РЕЛИГИОЗНОЙ ОРГАНИЗАЦИИ ""РОССОШАНСКАЯ ЕПАРХИЯ РУССКОЙ ПРАВОСЛАВНОЙ ЦЕРКВИ (МОСКОВСКИЙ ПАТРИАРХАТ)""",МЕСТНАЯ РЕЛИГИОЗНАЯ ОРГАНИЗАЦИЯ ПРАВОСЛАВНЫЙ ПРИХОД ВОСКРЕСЕНСКОГО ХРАМА С. ПЕСКИ ПЕТРОПАВЛОВСКОГО РАЙОНА ВОРОНЕЖСКОЙ ОБЛАСТИ РЕЛИГИОЗНОЙ ОРГАНИЗАЦИИ РОССОШАНСКАЯ ЕПАРХИЯ РУССКОЙ ПРАВОСЛАВНОЙ ЦЕРКВИ (МОСКОВСКИЙ ПАТРИАРХАТ),1163600050954,"397692, Воронежская обл., Петропавловский район, с. Пески, ул. Центральная, д. 77А", 50.263743, 40.877052,94.91,Деятельность религиозных организаций,https://spark-interfax.ru/voronezhskaya-oblast-petropavlovski-raion/ro-rossoshanskaya-eparkhiya-russkoi-pravoslavnoi-tserkvi-moskovski-patriarkhat-inn-3622000548-ogrn-1163600050954-6906d94ccc78226ae0531b9aa8c04bb6
"ОБЩЕСТВО С ОГРАНИЧЕННОЙ ОТВЕТСТВЕННОСТЬЮ СЕЛЬСКОХОЗЯЙСТВЕННОЕ ПРЕДПРИЯТИЕ ""ЯРКОВСКАЯ""",ООО СП ЯРКОВСКАЯ,3617009016,"397425, Воронежская обл, м.р-н Новохопёрский, с.п. Ярковское, с Ярки, ул Центральная, зд. 12А", 51.345847, 41.143473,01.11.1,Выращивание зерновых культур,https://spark-interfax.ru/voronezhskaya-oblast-novokhoperski-raion/ooo-yarkovskaya-inn-3617009016-ogrn-1213600030962-2c7e764d57714116893751fd4b4cbfaf
"ОБЩЕСТВО С ОГРАНИЧЕННОЙ ОТВЕТСТВЕННОСТЬЮ ""ЗЕРНОВОЙ ДОМ""",ООО ЗЕРНОВОЙ ДОМ,3662112826,"396045, Воронежская обл., Рамонский район, с. Гремячье, ул. Центральная, д. 21", 51.976742, 38.798203,01.1,Выращивание однолетних культур,https://spark-interfax.ru/voronezhskaya-oblast-ramonski-raion/ooo-zernovoi-dom-inn-3662112826-ogrn-1063667244519-c3af79c14ba54d03831a42b8ca098c38
"ОБЩЕСТВО С ОГРАНИЧЕННОЙ ОТВЕТСТВЕННОСТЬЮ ""КАРДАИЛ""",ООО КАРДАИЛ,3623007345,"397340, Воронежская обл., Поворинский район, с. Пески, ул. Линейная, д. 9", 51.239235, 42.472696,46.71,"Торговля оптовая твердым, жидким и газообразным топливом и подобными продуктами",https://spark-interfax.ru/voronezhskaya-oblast-povorinski-raion/ooo-kardail-inn-3623007345-ogrn-1113604000113-ace2a9a934bf4984ba8ee08d4d339749
"ОБЩЕСТВО С ОГРАНИЧЕННОЙ ОТВЕТСТВЕННОСТЬЮ ""ЭКОПОЛЕ""",ООО ЭКОПОЛЕ,3664232935,"394018, Воронежская обл., г. Воронеж, ул. Станкевича, д. 36 офис 86", 51.655232, 39.194143,01.11,"Выращивание зерновых (кроме риса), зернобобовых культур и семян масличных культур",https://spark-interfax.ru/voronezhskaya-oblast-voronezh/ooo-ekopole-inn-3664232935-ogrn-1173668064624-610e73695d6e8bfee0531b9aa8c0cfad
"ОБЩЕСТВО С ОГРАНИЧЕННОЙ ОТВЕТСТВЕННОСТЬЮ ""ВОЗРОЖДЕНИЕАГРО""",ООО ВОЗРОЖДЕНИЕАГРО,3604018905,"397150, Воронежская обл., Борисоглебский район, с. Чигорак, ул. Колхозная, д. 24 офис 1", 51.429142, 42.141727,01.11,"Выращивание зерновых (кроме риса), зернобобовых культур и семян масличных культур",https://spark-interfax.ru/voronezhskaya-oblast-borisoglebsk/ooo-vozrozhdenieagro-inn-3604018905-ogrn-1093604000841-f0e211249d3149bebbf8720ba723147c
"ОБЩЕСТВО С ОГРАНИЧЕННОЙ ОТВЕТСТВЕННОСТЬЮ ""НЕДРА""",ООО НЕДРА,3608001719,"397612, Воронежская обл, м.р-н Калачеевский, с.п. Подгоренское, с Подгорное, ул Буденовская, д. 25, офис 1", 50.448993, 41.194049,08.1,"Добыча камня, песка и глины",https://spark-interfax.ru/voronezhskaya-oblast-kalacheevski-raion/ooo-nedra-inn-3608001719-ogrn-1023600796889-734e934623dd4e9486cdec7328a57a0f
"АССОЦИАЦИЯ ФЕРМЕРСКИХ ХОЗЯЙСТВ, ЛИЧНЫХ ПОДСОБНЫХ ХОЗЯЙСТВ И СЕЛЬСКОХОЗЯЙСТВЕННЫХ КООПЕРАТИВОВ ТЕРНОВСКОГО РАЙОНА ВОРОНЕЖСКОЙ ОБЛАСТИ ""НОВЫЙ ПУТЬ""",АССОЦИАЦИЯ ФЕРМЕРОВ НОВЫЙ ПУТЬ,1173600000705,"397110, Воронежская обл., Терновский район, с. Терновка, ул. Свободы, д. 31", 51.684789, 41.584691,94.12,Деятельность профессиональных членских организаций,https://spark-interfax.ru/voronezhskaya-oblast-ternovski-raion/obedinenie-novy-put-inn-3630003817-ogrn-1173600000705-6906d94cdf42226ae0531b9aa8c04bb6
"ОБЩЕСТВО С ОГРАНИЧЕННОЙ ОТВЕТСТВЕННОСТЬЮ ""АГРОКОМПЛЕКС ГРИБАНОВСКИЙ""",ООО АГРОКОМПЛЕКС ГРИБАНОВСКИЙ,3609004695,"397213, Воронежская обл., Грибановский район, с. Малые Алабухи 1-Е, ул. Первомайская, д. 1", 51.539505, 42.156314,01.11.1,Выращивание зерновых культур,https://spark-interfax.ru/voronezhskaya-oblast-gribanovski-raion/ooo-agrokompleks-gribanovski-inn-3609004695-ogrn-1023600615488-29f6bb80afdc4df38f8db91145ceef08
"ОБЩЕСТВО С ОГРАНИЧЕННОЙ ОТВЕТСТВЕННОСТЬЮ ""АГРОЛАЙН""",ООО АГРОЛАЙН,3629008112,"397482, Воронежская обл, м.р-н Таловский, г.п. Таловское, рп Таловая, проезд Свободы, д. 36А, офис 1", 51.113321, 40.738755,01.11,"Выращивание зерновых (кроме риса), зернобобовых культур и семян масличных культур",https://spark-interfax.ru/voronezhskaya-oblast-talovski-raion/ooo-agrolain-inn-3629008112-ogrn-1213600024527-c991486c9caa4f62e053219aa8c05c62
"ОБЩЕСТВО С ОГРАНИЧЕННОЙ ОТВЕТСТВЕННОСТЬЮ ""ЗОЛОТОЙ КОЛОС АГРО""",ООО ЗОЛОТОЙ КОЛОС АГРО,3623006119,"397316, Воронежская обл, м.р-н Поворинский, с.п. Байчуровское, с Каменка, ул Советская, зд. 75А", 51.324193, 42.767938,01.11.1,Выращивание зерновых культур,https://spark-interfax.ru/voronezhskaya-oblast-povorinski-raion/ooo-zolotoi-kolos-agro-inn-3623006119-ogrn-1023600611000-8e7aa38900ca4030bb4a40be2d2a424f
"АКЦИОНЕРНОЕ ОБЩЕСТВО ""ПУТЬ ЛЕНИНА""",АО ПУТЬ ЛЕНИНА,3601011309,"396247, Воронежская обл., Аннинский район, с. Берёзовка, ул. Советская, зд. 1", 51.308321, 40.195299,01.11.1,Выращивание зерновых культур,https://spark-interfax.ru/voronezhskaya-oblast-anninski-raion/ao-put-lenina-inn-3601011309-ogrn-1093601000261-b52fcd2ef20948ebbbe54ba888db6c6b
"ОБЩЕСТВО С ОГРАНИЧЕННОЙ ОТВЕТСТВЕННОСТЬЮ ""РУССКОЕ ПОЛЕ""",ООО РУССКОЕ ПОЛЕ,3666095280,"397600, Воронежская обл., Калачеевский район, г. Калач, ул. Красноармейская, д. 9", 50.428165, 41.018474,01.11.1,Выращивание зерновых культур,https://spark-interfax.ru/voronezhskaya-oblast-kalacheevski-raion/ooo-russkoe-pole-inn-3666095280-ogrn-1023601576228-f9422369156f4997b085864165b660d8
АКЦИОНЕРНОЕ ОБЩЕСТВО ИМЕНИ ТИМИРЯЗЕВА,АО ИМЕНИ ТИМИРЯЗЕВА,3611006146,"396510, Воронежская обл., Каменский район, с. Тимирязево, ул. Центральная, д. 24", 50.718543, 39.378308,01.11.1,Выращивание зерновых культур,https://spark-interfax.ru/voronezhskaya-oblast-kamenski-raion/ao-imeni-timiryazeva-inn-3611006146-ogrn-1093652000584-365827ac017b4ebea040afca7508d6be
"ВЕРХНЕХАВСКАЯ РАЙОННАЯ ОБЩЕСТВЕННАЯ ОРГАНИЗАЦИЯ ВСЕРОССИЙСКОЙ ОБЩЕСТВЕННОЙ ОРГАНИЗАЦИИ ВЕТЕРАНОВ (ПЕНСИОНЕРОВ) ВОЙНЫ, ТРУДА, ВООРУЖЕННЫХ СИЛ И ПРАВООХРАНИТЕЛЬНЫХ ОРГАНОВ",ВЕРХНЕХАВСКАЯ РАЙОННАЯ ОБЩЕСТВЕННАЯ ОРГАНИЗАЦИЯ ВСЕРОССИЙСКОЙ ОБЩЕСТВЕННОЙ ОРГАНИЗАЦИИ ВЕТЕРАНОВ,1193600001099,"396110, Воронежская обл., Верхнехавский район, с. Верхняя Хава, ул. 50 Лет Октября, д. 17А офис 102", 51.842258, 39.939860,94.99,"Деятельность прочих общественных организаций и некоммерческих организаций, кроме религиозных и политических организаций",https://spark-interfax.ru/voronezhskaya-oblast-verkhnekhavski-raion/oo-verkhnekhavskaya-raionnaya-obshchestvennaya-organizatsiya-vserossiskoi-obshchestvennoi-organizatsii-veteranov-inn-3607-928faf796b612075e0531b9aa8c0bc6a
АССОЦИАЦИЯ КРЕСТЬЯНСКИХ (ФЕРМЕРСКИХ) ХОЗЯЙСТВ И СЕЛЬСКОХОЗЯЙСТВЕННЫХ КООПЕРАТИВОВ АННИНСКОГО МУНИЦИПАЛЬНОГО РАЙОНА ВОРОНЕЖСКОЙ ОБЛАСТИ,АКФХ АННИНСКОГО РАЙОНА,1023600512836,"396250, Воронежская обл., Аннинский район, пгт. Анна, ул. Ленина, д. 28", 51.487223, 40.428453,94.11,Деятельность предпринимательских членских некоммерческих организаций,https://spark-interfax.ru/voronezhskaya-oblast-anninski-raion/obedinenie-anninskogo-raiona-inn-3601002713-ogrn-1023600512836-6906d94c197e226ae0531b9aa8c04bb6
"ОБЩЕСТВО С ОГРАНИЧЕННОЙ ОТВЕТСТВЕННОСТЬЮ ""РСТ""",ООО РСТ,3666207807,"394031, Воронежская обл., г. Воронеж, ул. Чапаева, д. 2 офис 1", 51.645874, 39.184108,46.31,Торговля оптовая фруктами и овощами,https://spark-interfax.ru/voronezhskaya-oblast-voronezh/ooo-rst-inn-3666207807-ogrn-1163668070840-324e536d0d4640cc8481908272d6b2c6
"КРЕСТЬЯНСКОЕ ХОЗЯЙСТВО ""НОВАЯ ЖИЗНЬ""",К/Х НОВАЯ ЖИЗНЬ,1023600510911,"396244, Воронежская обл., Аннинский район, пос. Новая Жизнь, ул. Малая Степановка, д. 10", 51.406441, 40.751709,01.11,"Выращивание зерновых (кроме риса), зернобобовых культур и семян масличных культур",https://spark-interfax.ru/voronezhskaya-oblast-anninski-raion/kfkh-novaya-zhizn-inn-3601004492-ogrn-1023600510911-6906d94b9461226ae0531b9aa8c04bb6
"ЗАКРЫТОЕ АКЦИОНЕРНОЕ ОБЩЕСТВО ""ЭНЕРГИЯ""",ЗАО ЭНЕРГИЯ,3605000756,"397500, Воронежская обл., г. Бутурлиновка, пер. Связистов, д. 4", 50.828491, 40.587322,01.61,Предоставление услуг в области растениеводства,https://spark-interfax.ru/voronezhskaya-oblast-buturlinovski-raion/ao-energiya-inn-3605000756-ogrn-1023600644539-6178895456cf7e1ce0531b9aa8c027ab
"ОБЩЕСТВО С ОГРАНИЧЕННОЙ ОТВЕТСТВЕННОСТЬЮ ""ВЕКТОР""",ООО ВЕКТОР,3610012330,"397607, Воронежская обл., Калачеевский район, с. Новая Криуша, ул. Восточная, зд. 1", 50.265633, 41.327612,01.11,"Выращивание зерновых (кроме риса), зернобобовых культур и семян масличных культур",https://spark-interfax.ru/voronezhskaya-oblast-kalacheevski-raion/ooo-vektor-inn-3610012330-ogrn-1113610000240-fcd24a9a11cb4328b3734519dfe0d560
"ОБЩЕСТВО С ОГРАНИЧЕННОЙ ОТВЕТСТВЕННОСТЬЮ ""ВОЛГАСЕММАРКЕТ""",ООО ВОЛГАСЕММАРКЕТ,6362011082,"Самарская обл, м.р-н Безенчукский, с.п. Екатериновка, тер. Восточная промзона, зд. 3, стр. 2", 52.985322, 49.432297,01.11,"Выращивание зерновых (кроме риса), зернобобовых культур и семян масличных культур",https://spark-interfax.ru/samarskaya-oblast-bezenchukski-raion/ooo-volgasemmarket-inn-6362011082-ogrn-1046302061629-d0325ad109694030b51ed74951cb4dc4
"КРЕСТЬЯНСКОЕ (ФЕРМЕРСКОЕ) ХОЗЯЙСТВО ""ЛУГ"" УЧЕВАТОВА ЮРИЯ ИЛЬИЧА",КРЕСТЬЯНСКОЕ (ФЕРМЕРСКОЕ) ХОЗЯЙСТВО ЛУГ УЧЕВАТОВА ЮРИЯ ИЛЬИЧА,1036301254142,"446725, Самарская обл., Шигонский район, пос. Луговской, ул. Колхозная, д. 38", 53.649940, 48.747216,01.1,Выращивание однолетних культур,https://spark-interfax.ru/samarskaya-oblast-shigonski-raion/kfkh-lug-uchevatova-yuriya-ilicha-inn-6387001706-ogrn-1036301254142-6906d957b1a9226ae0531b9aa8c04bb6
"ОБЩЕСТВО С ОГРАНИЧЕННОЙ ОТВЕТСТВЕННОСТЬЮ ""АГРОФИРМА ""БАМ""",ООО АГРОФИРМА БАМ,6382049246,"445150, Самарская обл., Ставропольский район, с. Новая Бинарадка, ул. Центральная, д. 28 к. А", 53.804950, 49.915887,01.1,Выращивание однолетних культур,https://spark-interfax.ru/samarskaya-oblast-stavropolski-raion/ooo-agrofirma-bam-inn-6382049246-ogrn-1056382031452-26fb249bf6f2400b8e1499b3236c25e3
"ОБЩЕСТВО С ОГРАНИЧЕННОЙ ОТВЕТСТВЕННОСТЬЮ ""АРМСТРОЙПРОЕКТ""",ООО АСП,2372030993,"352904, Краснодарский край, г.о. город Армавир, г Армавир, пр-кт Авиаторов, д. 2, кв. 9", 45.013504, 41.120909,42.21,"Строительство инженерных коммуникаций для водоснабжения и водоотведения, газоснабжения",https://spark-interfax.ru/krasnodarski-krai-armavir/ooo-asp-inn-2372030993-ogrn-1222300050411-e9789c003b4763b7e053249aa8c0dd3e
"ОБЩЕСТВО С ОГРАНИЧЕННОЙ ОТВЕТСТВЕННОСТЬЮ ""УТЁС-2""",ООО УТЁС-2,6377009054,"446602, Самарская обл., Нефтегорский район, с. Утевка, ул. Торговая, д. 24", 52.908512, 50.952449,01.1,Выращивание однолетних культур,https://spark-interfax.ru/samarskaya-oblast-neftegorski-raion/ooo-utes-inn-6377009054-ogrn-1066377022580-454e98e5bdb347659864259f06cbd137
"ОБЩЕСТВО С ОГРАНИЧЕННОЙ ОТВЕТСТВЕННОСТЬЮ ""БЛАГОВЕСТ""",ООО БЛАГОВЕСТ,6318323029,"443058, Самарская обл., г. Самара, ул. Физкультурная, д. 90 корп. 2, офис 648", 53.210149, 50.246239,01.11,"Выращивание зерновых (кроме риса), зернобобовых культур и семян масличных культур",https://spark-interfax.ru/samarskaya-oblast-samara/ooo-blagovest-inn-6318323029-ogrn-1026301529220-7e485af3f6694046a0b5866fdb2cc5fa
"ОБЩЕСТВО С ОГРАНИЧЕННОЙ ОТВЕТСТВЕННОСТЬЮ ""ВОЗРОЖДЕНИЕ 98""",ООО ВОЗРОЖДЕНИЕ 98,6367653848,"443528, Самарская обл., Волжский район, пгт. Стройкерамика, ул. Народная, д. 2А", 53.273229, 50.391990,01.11.1,Выращивание зерновых культур,https://spark-interfax.ru/samarskaya-oblast-volzhski-raion/ooo-vozrozhdenie-inn-6367653848-ogrn-1036302399561-008d72dde54d42a8947cd6820e8c28aa
"ОБЩЕСТВО С ОГРАНИЧЕННОЙ ОТВЕТСТВЕННОСТЬЮ ""ТАЛАН""",ООО ТАЛАН,6311161724,"446602, Самарская обл, м.р-н Нефтегорский, с.п. Утевка, с Утевка, ул Первомайская, д. 2", 52.898409, 50.929414,01.11,"Выращивание зерновых (кроме риса), зернобобовых культур и семян масличных культур",https://spark-interfax.ru/samarskaya-oblast-neftegorski-raion/ooo-talan-inn-6311161724-ogrn-1156313086490-80b459a31dbd47859f20f40cf2855f6d
"МЕСТНАЯ МУСУЛЬМАНСКАЯ РЕЛИГИОЗНАЯ ОРГАНИЗАЦИЯ ""СОБОРНАЯ МЕЧЕТЬ"" НЕФТЕГОРСКОГО РАЙОНА САМАРСКОЙ ОБЛАСТИ",МЕСТНАЯ МУСУЛЬМАНСКАЯ РЕЛИГИОЗНАЯ ОРГАНИЗАЦИЯ СОБОРНАЯ МЕЧЕТЬ НЕФТЕГОРСКОГО РАЙОНА САМАРСКОЙ ОБЛАСТИ,1206300003755,"446600, Самарская обл., Нефтегорский район, г. Нефтегорск, ул. Ленина, д. 9 кв. 41", 52.797192, 51.159218,94.91,Деятельность религиозных организаций,https://spark-interfax.ru/samarskaya-oblast-neftegorski-raion/ro-sobornaya-mechet-neftegorskogo-raiona-samarskoi-oblasti-inn-6377009008-ogrn-1206300003755-9d90014147557a27e053179aa8c0032a
КОМИТЕТ ПО ЗЕМЕЛЬНЫМ РЕСУРСАМ И ЗЕМЛЕУСТРОЙСТВУ,КОМИТЕТ ПО ЗЕМЕЛЬНЫМ РЕСУРСАМ И ЗЕМЛЕУСТРОЙСТВУ,1026303803932,"446870, Самарская обл., Елховский район, с. Елховка, ул. Советская, д. 13", 53.865819, 50.280853,99999,99999,https://spark-interfax.ru/samarskaya-oblast-elkhovski-raion/uch-komitet-po-zemelnym-resursam-i-zemleustroistvu-inn-6368002045-ogrn-1026303803932-6906d9581dd7226ae0531b9aa8c04bb6
"СЕЛЬСКОХОЗЯЙСТВЕННЫЙ ПРОИЗВОДСТВЕННЫЙ КООПЕРАТИВ (КОЛХОЗ) ""ДРУЖБА""",СПК (КОЛХОЗ) ДРУЖБА,1036302720035,"446852, Самарская обл., Челно-Вершинский район, с. Старое Аделяково", 54.528037, 51.029446,01.11.1,Выращивание зерновых культур,https://spark-interfax.ru/samarskaya-oblast-chelno-vershinski-raion/koop-druzhba-inn-6385000827-ogrn-1036302720035-0233a21f402643a78d3a7ae061e6ed06
"ОБЩЕСТВО С ОГРАНИЧЕННОЙ ОТВЕТСТВЕННОСТЬЮ ""КОМБИНАТ ШКОЛЬНОГО ПИТАНИЯ""",ООО КШП,6319002050,"443081, Самарская обл., г. Самара, ул. 22 Партсъезда, д. 175А", 53.227047, 50.210513,56.29,Деятельность предприятий общественного питания по прочим видам организации питания,https://spark-interfax.ru/samarskaya-oblast-samara/ooo-kshp-inn-6319002050-ogrn-1026301715428-b08767b09d98491fa7ed7c1fb87a74ff
"СТРАХОВОЙ СЕЛЬСКОХОЗЯЙСТВЕННЫЙ ПОТРЕБИТЕЛЬСКИЙ КООПЕРАТИВ ""ГАРАНТИЯ""",ССПК ГАРАНТИЯ,6377011663,"446660, Самарская обл., с. Борское, ул. Неверовская, д. 33Б", 53.024237, 51.698097,64.9,"Деятельность по предоставлению прочих финансовых услуг, кроме услуг по страхованию и пенсионному обеспечению",https://spark-interfax.ru/samarskaya-oblast-borski-raion/pk-garantiya-inn-6377011663-ogrn-1116377000024-6906d9592e7d226ae0531b9aa8c04bb6
"ОБЩЕСТВО С ОГРАНИЧЕННОЙ ОТВЕТСТВЕННОСТЬЮ ""ГАЛАКТИКА""",ООО ГАЛАКТИКА,6316094790,"443086, Самарская обл., г. Самара, ул. Ерошевского, д. 3А", 53.217089, 50.158277,68.31,Деятельность агентств недвижимости за вознаграждение или на договорной основе,https://spark-interfax.ru/samarskaya-oblast-samara/ooo-galaktika-inn-6316094790-ogrn-1046300570744-6caf3b68627d4f8b8a980a845745045a
СЕЛЬСКОХОЗЯЙСТВЕННЫЙ ПРОИЗВОДСТВЕННЫЙ КООПЕРАТИВ ИМ.ЛЕНИНА,СПК ИМ. ЛЕНИНА,6372000379,"446351, Самарская обл., Кинель-Черкасский район, с. Кинель-Черкассы, проспект 50 Лет Октября, д. 47", 53.466857, 51.530356,01.11.1,Выращивание зерновых культур,https://spark-interfax.ru/samarskaya-oblast-kinel-cherkasski-raion/koop-lenina-inn-6372000379-ogrn-1026303715668-3489339c97684bf78af60ec1f54e81ee
"ОБЩЕСТВО С ОГРАНИЧЕННОЙ ОТВЕТСТВЕННОСТЬЮ ""ЗЛАК""",ООО ЗЛАК,6365004319,"446281, Самарская обл., Большечерниговский район, с. Августовка, ул. Гаражная, зд. 1", 52.243641, 50.745644,01.11,"Выращивание зерновых (кроме риса), зернобобовых культур и семян масличных культур",https://spark-interfax.ru/samarskaya-oblast-bolshechernigovski-raion/ooo-zlak-inn-6365004319-ogrn-1036302280651-53423992fc554b379e8ea063f5fe2341
"ОБЩЕСТВО С ОГРАНИЧЕННОЙ ОТВЕТСТВЕННОСТЬЮ ""АГРО НИВА""",ООО АГРО НИВА,6314038711,"446170, Самарская обл., Пестравский район, с. Идакра, ул. Крестьянская, д. 3А", 52.488585, 49.720683,01.11,"Выращивание зерновых (кроме риса), зернобобовых культур и семян масличных культур",https://spark-interfax.ru/samarskaya-oblast-pestravski-raion/ooo-agro-niva-inn-6314038711-ogrn-1146317002028-dbfaaa5bef184ff7b3862523a131dccc
"ФЕДЕРАЛЬНОЕ ГОСУДАРСТВЕННОЕ БЮДЖЕТНОЕ ОБРАЗОВАТЕЛЬНОЕ УЧРЕЖДЕНИЕ ВЫСШЕГО ОБРАЗОВАНИЯ ""САМАРСКИЙ ГОСУДАРСТВЕННЫЙ ИНСТИТУТ КУЛЬТУРЫ""",САМАРСКИЙ ГОСУДАРСТВЕННЫЙ ИНСТИТУТ КУЛЬТУРЫ,1026300966361,"443010, Самарская обл., г. Самара, ул. Фрунзе, д. 167", 53.196865, 50.097849,85.22,Образование высшее,https://spark-interfax.ru/samarskaya-oblast-samara/fgbu-samarski-gosudarstvenny-institut-kultury-inn-6315800548-ogrn-1026300966361-6906d9584c4e226ae0531b9aa8c04bb6
"АКЦИОНЕРНОЕ ОБЩЕСТВО ""КОШКИНСКАЯ АГРОПРОМЫШЛЕННАЯ КОРПОРАЦИЯ""",АО КОШКИНСКАЯ АПК,6374005478,"446810, Самарская обл., Кошкинский район, ст. Погрузная, ул. Первомайская, зд. 118", 54.238954, 50.459670,01.1,Выращивание однолетних культур,https://spark-interfax.ru/samarskaya-oblast-koshkinski-raion/ao-koshkinskaya-apk-inn-6374005478-ogrn-1036302720640-da29a5ca48aa4911aec362caafb82057
"ОБЩЕСТВО С ОГРАНИЧЕННОЙ ОТВЕТСТВЕННОСТЬЮ ""СЕЛЬСКОХОЗЯЙСТВЕННОЕ ПРЕДПРИЯТИЕ ""КРАСНЫЙ ПАХАРЬ""",ООО СЕЛЬХОЗПРЕДПРИЯТИЕ КРАСНЫЙ ПАХАРЬ,6381009113,"446810, Самарская обл., Кошкинский район, ст. Погрузная, ул. Первомайская, зд. 106", 54.232370, 50.453387,01.1,Выращивание однолетних культур,https://spark-interfax.ru/samarskaya-oblast-koshkinski-raion/ooo-selkhozpredpriyatie-krasny-pakhar-inn-6381009113-ogrn-1056381003766-a9a0d5632545455fb42251af9c325134
"ОБЩЕСТВО С ОГРАНИЧЕННОЙ ОТВЕТСТВЕННОСТЬЮ ""ПОДСОЛНЕЧНОЕ""",ООО ПОДСОЛНЕЧНОЕ,6377016206,"446684, Самарская обл, м.р-н Борский, с.п. Подсолнечное, с Подсолнечное, ул Центральная, д. 43", 53.150380, 52.018821,01.11,"Выращивание зерновых (кроме риса), зернобобовых культур и семян масличных культур",https://spark-interfax.ru/samarskaya-oblast-borski-raion/ooo-podsolnechnoe-inn-6377016206-ogrn-1136377000165-3081622c48e94a89b2014da71e818baf
"СЕЛЬСКОХОЗЯЙСТВЕННЫЙ ПРОИЗВОДСТВЕННЫЙ КООПЕРАТИВ ""СОКСКИЙ""",СПК СОКСКИЙ,6369010553,"446587, Самарская обл., Исаклинский район, пос. Сокский, ул. Центральная, д. 2А", 54.066160, 51.858356,01.50,Смешанное сельское хозяйство,https://spark-interfax.ru/samarskaya-oblast-isaklinski-raion/koop-sokski-inn-6369010553-ogrn-1066369001731-6178895eb95e7e1ce0531b9aa8c027ab
"ОБЩЕСТВО С ОГРАНИЧЕННОЙ ОТВЕТСТВЕННОСТЬЮ ""НИВА""",ООО НИВА,6377009495,"446649, Самарская обл., Алексеевский район, с. Корнеевка, ул. Центральная, домовладение 24", 52.709310, 51.366144,01.5,Смешанное сельское хозяйство,https://spark-interfax.ru/samarskaya-oblast-alekseevski-raion/ooo-niva-inn-6377009495-ogrn-1076377000347-32c632e17a8d4231be8999ceca346401
"КРЕСТЬЯНСКОЕ (ФЕРМЕРСКОЕ) ХОЗЯЙСТВО ""ТРУД""",КФХ ТРУД,1026303859856,"446613, Самарская обл., Нефтегорский район, с. Богдановка, ул. Набережная, д. 1", 52.713373, 50.742910,01.11,"Выращивание зерновых (кроме риса), зернобобовых культур и семян масличных культур",https://spark-interfax.ru/samarskaya-oblast-neftegorski-raion/kfkh-trud-inn-6377002210-ogrn-1026303859856-6906d95785f1226ae0531b9aa8c04bb6
"ОБЩЕСТВО С ОГРАНИЧЕННОЙ ОТВЕТСТВЕННОСТЬЮ ""РАССВЕТ""",ООО РАССВЕТ,6362009904,"446225, Самарская обл., Безенчукский район, с. Переволоки, ул. Центральная, д. 3", 52.888481, 49.317884,01.11.1,Выращивание зерновых культур,https://spark-interfax.ru/samarskaya-oblast-bezenchukski-raion/ooo-rassvet-inn-6362009904-ogrn-1026303891415-9955e67108f54c3580a8b13d13dd1487
"ОБЩЕСТВО С ОГРАНИЧЕННОЙ ОТВЕТСТВЕННОСТЬЮ ""ПВКВАДРАТ""",ООО ПВКВАДРАТ,6321136607,"445351, Самарская обл., г. Жигулевск, ул. Песочная, д. 11", 53.402622, 49.474544,46.73.6,Торговля оптовая прочими строительными материалами и изделиями,https://spark-interfax.ru/samarskaya-oblast-zhigulevsk/ooo-pvkvadrat-inn-6321136607-ogrn-1046301025627-6178895e98da7e1ce0531b9aa8c027ab
"ОБЩЕСТВО С ОГРАНИЧЕННОЙ ОТВЕТСТВЕННОСТЬЮ ""АРЕНДНОЕ-ФЕРМЕРСКОЕ ХОЗЯЙСТВО КУЛЬТУРА""",ООО АФХ КУЛЬТУРА,6362008636,"446250, Самарская обл., Безенчукский район, пос. Новооренбургский, ул. Южная, д. 10", 52.958448, 49.483725,01.11.1,Выращивание зерновых культур,https://spark-interfax.ru/samarskaya-oblast-bezenchukski-raion/ooo-afkh-kultura-inn-6362008636-ogrn-1026303889732-16fa42be0c614cb3888f9b4247aad0fb
"ОБЩЕСТВО С ОГРАНИЧЕННОЙ ОТВЕТСТВЕННОСТЬЮ ОБЪЕДИНЕНИЕ ФЕРМЕРСКИХ ХОЗЯЙСТВ ""ВОЗРОЖДЕНИЕ-1""",ООО ОФХ ВОЗРОЖДЕНИЕ-1,6362009238,"446222, Самарская обл., Безенчукский район, с. Преполовенка, ул. Садовая, д. 18", 53.072121, 49.005755,01.11.1,Выращивание зерновых культур,https://spark-interfax.ru/samarskaya-oblast-bezenchukski-raion/ooo-vozrozhdenie-inn-6362009238-ogrn-1026303884452-56bbcb7218274d69a7d322e2e4d86588
"ОБЩЕСТВО С ОГРАНИЧЕННОЙ ОТВЕТСТВЕННОСТЬЮ ""КФХ РАДУГА""",ООО КФХ РАДУГА,6377001016,"446691, Самарская обл., Борский район, с. Коноваловка, ул. Северная, зд. 3Е", 53.108944, 51.547332,01.11.1,Выращивание зерновых культур,https://spark-interfax.ru/samarskaya-oblast-borski-raion/ooo-kfkh-raduga-inn-6377001016-ogrn-1156313053830-2b4daf0642244c5499dce3c87d78b4ab
"АКЦИОНЕРНОЕ ОБЩЕСТВО ""СИНТЕЗ-М""",АО СИНТЕЗ-М,9704225198,"119019, г. Москва, вн.тер.г. муниципальный округ Хамовники, ул Волхонка, д. 5/6, стр. 9, помещ. 7/1", 55.747744, 37.609635,46.77,Торговля оптовая отходами и ломом,https://spark-interfax.ru/moskva-khamovniki/ao-sintez-m-inn-9704225198-ogrn-1237700718694-08d31e9e35bf6fa9e063259aa8c040c8
"МУНИЦИПАЛЬНОЕ БЮДЖЕТНОЕ ДОШКОЛЬНОЕ ОБРАЗОВАТЕЛЬНОЕ УЧРЕЖДЕНИЕ ДЕТСКИЙ САД ""КОЛОС"" МАРИИНСКО-ПОСАДСКОГО МУНИЦИПАЛЬНОГО ОКРУГА ЧУВАШСКОЙ РЕСПУБЛИКИ",МБДОУ Д/С КОЛОС,1032135001733,"429560, Чувашская Республика - Чувашия, Мариинско-Посадский район, с. Октябрьское, ул. Полевая, д. 2", 55.905751, 47.813918,85.11,Образование дошкольное,https://spark-interfax.ru/chuvashskaya-respublika-chuvashiya-mariinsko-posadski-raion/mbu-kolos-inn-2111006080-ogrn-1032135001733-6906d9b1c068226ae0531b9aa8c04bb6
"МУНИЦИПАЛЬНОЕ БЮДЖЕТНОЕ ДОШКОЛЬНОЕ ОБРАЗОВАТЕЛЬНОЕ УЧРЕЖДЕНИЕ ДЕТСКИЙ САД ""РАДУГА"" ГОРОДА МАРИИНСКИЙ ПОСАД ЧУВАШСКОЙ РЕСПУБЛИКИ",МБДОУ Д/С РАДУГА,1082135000012,"429570, Чувашская Республика - Чувашия, Мариинско-Посадский район, г. Мариинский Посад, ул. Курчатова, д. 11Б", 56.114690, 47.699795,85.11,Образование дошкольное,https://spark-interfax.ru/chuvashskaya-respublika-chuvashiya-mariinsko-posadski-raion/mbu-raduga-inn-2111007781-ogrn-1082135000012-6906d9b1d8b1226ae0531b9aa8c04bb6
"МУНИЦИПАЛЬНОЕ БЮДЖЕТНОЕ ДОШКОЛЬНОЕ ОБРАЗОВАТЕЛЬНОЕ УЧРЕЖДЕНИЕ ДЕТСКИЙ САД ""АЛЁНУШКА"" Г.МАРИИНСКИЙ ПОСАД ЧУВАШСКОЙ РЕСПУБЛИКИ",МБДОУ Д/С АЛЁНУШКА Г.МАРИИНСКИЙ ПОСАД,1022102432440,"429572, Чувашская Республика - Чувашия, Мариинско-Посадский район, г. Мариинский Посад, ул. Курчатова, д. 20", 56.118182, 47.696651,85.11,Образование дошкольное,https://spark-interfax.ru/chuvashskaya-respublika-chuvashiya-mariinsko-posadski-raion/mbu-alenushka-g-mariinski-posad-inn-2111006202-ogrn-1022102432440-6906d9b1c066226ae0531b9aa8c04bb6
"МУНИЦИПАЛЬНОЕ АВТОНОМНОЕ ДОШКОЛЬНОЕ ОБРАЗОВАТЕЛЬНОЕ УЧРЕЖДЕНИЕ ""ЦЕНТР РАЗВИТИЯ РЕБЕНКА-ДЕТСКИЙ САД ""РЯБИНКА"" ГОРОДА МАРИИНСКИЙ ПОСАД ЧУВАШСКОЙ РЕСПУБЛИКИ",МАДОУ ЦРР-Д/С РЯБИНКА,1022102430888,"429570, Чувашская Республика - Чувашия, Мариинско-Посадский район, г. Мариинский Посад, ул. Октябрьская, д. 2", 56.111725, 47.715108,85.11,Образование дошкольное,https://spark-interfax.ru/chuvashskaya-respublika-chuvashiya-mariinsko-posadski-raion/much-tsrr-d-s-ryabinka-inn-2111001910-ogrn-1022102430888-6906d9b1bf96226ae0531b9aa8c04bb6
"МУНИЦИПАЛЬНОЕ АВТОНОМНОЕ ДОШКОЛЬНОЕ ОБРАЗОВАТЕЛЬНОЕ УЧРЕЖДЕНИЕ ""ДЕТСКИЙ САД ""АЛЁНУШКА"" Г. ЯДРИНА ЯДРИНСКОГО МУНИЦИПАЛЬНОГО ОКРУГА ЧУВАШСКОЙ РЕСПУБЛИКИ",МАДОУ ДЕТСКИЙ САД АЛЁНУШКА Г. ЯДРИНА,1022102629757,"429060, Чувашская Республика - Чувашия, м.о. Ядринский, г Ядрин, ул К.Маркса, д. 94", 55.947063, 46.206573,85.11,Образование дошкольное,https://spark-interfax.ru/chuvashskaya-respublika-chuvashiya-yadrinski-raion/much-detski-sad-alenushka-g-yadrina-inn-2119004920-ogrn-1022102629757-6906d9b1c3a4226ae0531b9aa8c04bb6
"МУНИЦИПАЛЬНОЕ БЮДЖЕТНОЕ ОБЩЕОБРАЗОВАТЕЛЬНОЕ УЧРЕЖДЕНИЕ ""ОКТЯБРЬСКАЯ СРЕДНЯЯ ОБЩЕОБРАЗОВАТЕЛЬНАЯ ШКОЛА"" МАРИИНСКО-ПОСАДСКОГО МУНИЦИПАЛЬНОГО ОКРУГА ЧУВАШСКОЙ РЕСПУБЛИКИ",МБОУ ОКТЯБРЬСКАЯ СОШ,1032135000215,"429560, Чувашская Республика - Чувашия, м.о. Мариинско-Посадский, с Октябрьское, ул Кушникова, влд. 2", 55.904806, 47.827841,85.14,Образование среднее общее,https://spark-interfax.ru/chuvashskaya-respublika-chuvashiya-mariinsko-posadski-raion/mbu-oktyabrskaya-sosh-inn-2111005537-ogrn-1032135000215-6906d9b1c073226ae0531b9aa8c04bb6
"МУНИЦИПАЛЬНОЕ БЮДЖЕТНОЕ ДОШКОЛЬНОЕ ОБРАЗОВАТЕЛЬНОЕ УЧРЕЖДЕНИЕ ДЕТСКИЙ САД ""СОЛНЫШКО"" МАРИИНСКО-ПОСАДСКОГО МУНИЦИПАЛЬНОГО ОКРУГА ЧУВАШСКОЙ РЕСПУБЛИКИ",МБДОУ Д/С СОЛНЫШКО,1022102430712,"429584, Чувашская Республика - Чувашия, Мариинско-Посадский район, с. Шоршелы, ул. 30 Лет Победы, д. 11", 56.008045, 47.586098,85.11,Образование дошкольное,https://spark-interfax.ru/chuvashskaya-respublika-chuvashiya-mariinsko-posadski-raion/mbu-solnyshko-inn-2111006160-ogrn-1022102430712-6906d9b1c06c226ae0531b9aa8c04bb6
"МУНИЦИПАЛЬНОЕ АВТОНОМНОЕ ДОШКОЛЬНОЕ ОБРАЗОВАТЕЛЬНОЕ УЧРЕЖДЕНИЕ ""ДЕТСКИЙ САД ""РОСИНКА"" Г. ЯДРИНА ЯДРИНСКОГО МУНИЦИПАЛЬНОГО ОКРУГА ЧУВАШСКОЙ РЕСПУБЛИКИ",МАДОУ ДЕТСКИЙ САД РОСИНКА Г. ЯДРИНА,1142138000520,"429060, Чувашская Республика - Чувашия, м.о. Ядринский, г Ядрин, ул Ленина, д. 50Б", 55.941641, 46.209122,85.11,Образование дошкольное,https://spark-interfax.ru/chuvashskaya-respublika-chuvashiya-yadrinski-raion/much-detski-sad-rosinka-g-yadrina-inn-2119005994-ogrn-1142138000520-6906d9b1fffa226ae0531b9aa8c04bb6
"СЕЛЬСКОХОЗЯЙСТВЕННЫЙ ПОТРЕБИТЕЛЬСКИЙ ПЕРЕРАБАТЫВАЮЩИЙ КООПЕРАТИВ ""ЯГОДЫ 21""",СППК ЯГОДЫ 21,1252100000536,"429537, Чувашская Республика - Чувашия, м.о. Моргаушский, д Идагачкасы, ул Первомайская, д. 3", 56.002773, 46.908331,01.25.1,Выращивание прочих плодовых и ягодных культур,https://spark-interfax.ru/chuvashskaya-respublika-chuvashiya-morgaushski-raion/koop-yagody-inn-2100022643-ogrn-1252100000536-2c94287fb262382de063269aa8c055cd
"МУНИЦИПАЛЬНОЕ БЮДЖЕТНОЕ ОБЩЕОБРАЗОВАТЕЛЬНОЕ УЧРЕЖДЕНИЕ ""СРЕДНЯЯ ОБЩЕОБРАЗОВАТЕЛЬНАЯ ШКОЛА №2"" Г.ЯДРИНА ЯДРИНСКОГО МУНИЦИПАЛЬНОГО ОКРУГА ЧУВАШСКОЙ РЕСПУБЛИКИ",МБОУ СОШ №2 Г.ЯДРИНА,1022102629449,"429061, Чувашская Республика - Чувашия, м.о. Ядринский, г Ядрин, ул Чапаева, двлд. 20А", 55.912981, 46.231968,85.12,Образование начальное общее,https://spark-interfax.ru/chuvashskaya-respublika-chuvashiya-yadrinski-raion/mbu-sosh-n-g-yadrina-inn-2119003073-ogrn-1022102629449-6906d9b1c0a7226ae0531b9aa8c04bb6
"МУНИЦИПАЛЬНОЕ АВТОНОМНОЕ ОБЩЕОБРАЗОВАТЕЛЬНОЕ УЧРЕЖДЕНИЕ ""СРЕДНЯЯ ОБЩЕОБРАЗОВАТЕЛЬНАЯ ШКОЛА №3 С УГЛУБЛЕННЫМ ИЗУЧЕНИЕМ ОТДЕЛЬНЫХ ПРЕДМЕТОВ"" Г. ЯДРИНА ЯДРИНСКОГО МУНИЦИПАЛЬНОГО ОКРУГА ЧУВАШСКОЙ РЕСПУБЛИКИ",МАОУ СОШ №3 Г. ЯДРИНА,1022102628790,"429060, Чувашская Республика - Чувашия, м.о. Ядринский, г Ядрин, ул К.Маркса, д. 64", 55.943402, 46.205821,85.14,Образование среднее общее,https://spark-interfax.ru/chuvashskaya-respublika-chuvashiya-yadrinski-raion/much-maou-sosh-n-g-yadrina-inn-2119004006-ogrn-1022102628790-6906d9b1c3cf226ae0531b9aa8c04bb6
"МУНИЦИПАЛЬНОЕ БЮДЖЕТНОЕ ОБЩЕОБРАЗОВАТЕЛЬНОЕ УЧРЕЖДЕНИЕ ""ВЕРХНЕАЧАКСКАЯ СРЕДНЯЯ ОБЩЕОБРАЗОВАТЕЛЬНАЯ ШКОЛА ИМЕНИ А.П.АЙДАК"" ЯДРИНСКОГО МУНИЦИПАЛЬНОГО ОКРУГА ЧУВАШСКОЙ РЕСПУБЛИКИ",МБОУ ВЕРХНЕАЧАКСКАЯ СОШ ИМ. А.П.АЙДАК,1022102628877,"429079, Чувашская Республика - Чувашия, м.о. Ядринский, д Верхние Ачаки, ул Ленина, зд. 38А", 55.811830, 46.350945,85.11,Образование дошкольное,https://spark-interfax.ru/chuvashskaya-respublika-chuvashiya-yadrinski-raion/mbu-verkhneachakskaya-sosh-im-a-p-aidak-inn-2119003186-ogrn-1022102628877-6906d9b1c0ab226ae0531b9aa8c04bb6
"МУНИЦИПАЛЬНОЕ БЮДЖЕТНОЕ ОБЩЕОБРАЗОВАТЕЛЬНОЕ УЧРЕЖДЕНИЕ ""НИКОЛАЕВСКАЯ ОСНОВНАЯ ОБЩЕОБРАЗОВАТЕЛЬНАЯ ШКОЛА"" ЯДРИНСКОГО МУНИЦИПАЛЬНОГО ОКРУГА ЧУВАШСКОЙ РЕСПУБЛИКИ",МБОУ НИКОЛАЕВСКАЯ ООШ,1102136000306,"429076, Чувашская Республика - Чувашия, м.о. Ядринский, с Николаевское, ул Ленина, двлд. 2", 55.785087, 46.406221,85.13,Образование основное общее,https://spark-interfax.ru/chuvashskaya-respublika-chuvashiya-yadrinski-raion/mbu-nikolaevskaya-oosh-inn-2119902602-ogrn-1102136000306-6906d9b1c0ac226ae0531b9aa8c04bb6
"МУНИЦИПАЛЬНОЕ АВТОНОМНОЕ ОБЩЕОБРАЗОВАТЕЛЬНОЕ УЧРЕЖДЕНИЕ ""НАЧАЛЬНАЯ ОБЩЕОБРАЗОВАТЕЛЬНАЯ ШКОЛА"" Г. ЯДРИНА ЯДРИНСКОГО МУНИЦИПАЛЬНОГО ОКРУГА ЧУВАШСКОЙ РЕСПУБЛИКИ",МАОУ НОШ Г.ЯДРИНА,1192130008047,"429060, Чувашская Республика - Чувашия, м.о. Ядринский, г Ядрин, ул Красноармейская, д. 2", 55.941178, 46.208640,85.12,Образование начальное общее,https://spark-interfax.ru/chuvashskaya-respublika-chuvashiya-yadrinski-raion/much-nosh-g-yadrina-inn-2119006540-ogrn-1192130008047-8d9c57768f458d0fe0531c9aa8c0b969
"МУНИЦИПАЛЬНОЕ БЮДЖЕТНОЕ ОБЩЕОБРАЗОВАТЕЛЬНОЕ УЧРЕЖДЕНИЕ ""СЕЛОЯДРИНСКАЯ СРЕДНЯЯ ОБЩЕОБРАЗОВАТЕЛЬНАЯ ШКОЛА"" ЯДРИНСКОГО МУНИЦИПАЛЬНОГО ОКРУГА ЧУВАШСКОЙ РЕСПУБЛИКИ",МБОУ СЕЛОЯДРИНСКАЯ СОШ,1022102629658,"429070, Чувашская Республика - Чувашия, м.о. Ядринский, с Ядрино, ул Шоссейная, зд. 5", 55.990883, 46.426942,85.14,Образование среднее общее,https://spark-interfax.ru/chuvashskaya-respublika-chuvashiya-yadrinski-raion/mbu-seloyadrinskaya-sosh-inn-2119003309-ogrn-1022102629658-6906d9b1c0ae226ae0531b9aa8c04bb6
"МУНИЦИПАЛЬНОЕ БЮДЖЕТНОЕ ОБЩЕОБРАЗОВАТЕЛЬНОЕ УЧРЕЖДЕНИЕ ""ЮВАНОВСКАЯ СРЕДНЯЯ ОБЩЕОБРАЗОВАТЕЛЬНАЯ ШКОЛА"" ЯДРИНСКОГО МУНИЦИПАЛЬНОГО ОКРУГА ЧУВАШСКОЙ РЕСПУБЛИКИ",МБОУ ЮВАНОВСКАЯ СОШ,1022102628822,"429071, Чувашская Республика - Чувашия, Ядринский район, с. Юваново, ул. Сюльдикасы, д. 55", 56.066368, 46.544748,85.14,Образование среднее общее,https://spark-interfax.ru/chuvashskaya-respublika-chuvashiya-yadrinski-raion/mbu-yuvanovskaya-sosh-inn-2119003154-ogrn-1022102628822-6906d9b1c0b1226ae0531b9aa8c04bb6
"МУНИЦИПАЛЬНОЕ БЮДЖЕТНОЕ ОБЩЕОБРАЗОВАТЕЛЬНОЕ УЧРЕЖДЕНИЕ ""ЧУВАШТИМЯШСКАЯ ОСНОВНАЯ ОБЩЕОБРАЗОВАТЕЛЬНАЯ ШКОЛА"" ИБРЕСИНСКОГО МУНИЦИПАЛЬНОГО ОКРУГА ЧУВАШСКОЙ РЕСПУБЛИКИ",МБОУ ЧУВАШТИМЯШСКАЯ ООШ,1042133000227,"429707, Чувашская Республика - Чувашия, Ибресинский район, д. Чувашские Тимяши, ул. Школьная, д. 45", 55.286126, 47.156169,85.13,Образование основное общее,https://spark-interfax.ru/chuvashskaya-respublika-chuvashiya-ibresinski-raion/mbu-chuvashtimyashskaya-oosh-inn-2105003482-ogrn-1042133000227-6906d9b1bdb8226ae0531b9aa8c04bb6
"МУНИЦИПАЛЬНОЕ АВТОНОМНОЕ ОБЩЕОБРАЗОВАТЕЛЬНОЕ УЧРЕЖДЕНИЕ ""АНДРЕЕВСКАЯ ОСНОВНАЯ ОБЩЕОБРАЗОВАТЕЛЬНАЯ ШКОЛА ИМЕНИ К.Е.ЕВЛАМПЬЕВА"" ИБРЕСИНСКОГО МУНИЦИПАЛЬНОГО ОКРУГА ЧУВАШСКОЙ РЕСПУБЛИКИ",МАОУ АНДРЕЕВСКАЯ ООШ,1042133000161,"429715, Чувашская Республика - Чувашия, Ибресинский район, д. Андреевка, ул. Молодежная, д. 4", 55.324200, 47.135829,85.13,Образование основное общее,https://spark-interfax.ru/chuvashskaya-respublika-chuvashiya-ibresinski-raion/much-andreevskaya-oosh-inn-2105003531-ogrn-1042133000161-6906d9b1bdb6226ae0531b9aa8c04bb6
"МУНИЦИПАЛЬНОЕ БЮДЖЕТНОЕ ОБЩЕОБРАЗОВАТЕЛЬНОЕ УЧРЕЖДЕНИЕ ""ЛИПОВСКАЯ ОСНОВНАЯ ОБЩЕОБРАЗОВАТЕЛЬНАЯ ШКОЛА ИМЕНИ ГЕРОЯ РОССИЙСКОЙ ФЕДЕРАЦИИ Л.С. КОНСТАНТИНОВА"" ИБРЕСИНСКОГО МУНИЦИПАЛЬНОГО ОКРУГА ЧУВАШСКОЙ РЕСПУБЛИКИ",МБОУ ЛИПОВСКАЯ ООШ,1042133000470,"429721, Чувашская Республика - Чувашия, Ибресинский район, пос. Липовка, ул. Школьная, д. 1", 55.109174, 47.099403,85.12,Образование начальное общее,https://spark-interfax.ru/chuvashskaya-respublika-chuvashiya-ibresinski-raion/mbu-lipovskaya-oosh-inn-2105003718-ogrn-1042133000470-6906d9b1bdab226ae0531b9aa8c04bb6
"ФЕДЕРАЛЬНОЕ ГОСУДАРСТВЕННОЕ БЮДЖЕТНОЕ ОБРАЗОВАТЕЛЬНОЕ УЧРЕЖДЕНИЕ ВЫСШЕГО ОБРАЗОВАНИЯ ""ЧУВАШСКИЙ ГОСУДАРСТВЕННЫЙ АГРАРНЫЙ УНИВЕРСИТЕТ""",ФГБОУ ВО ЧУВАШСКИЙ ГАУ,1022101131150,"428003, Чувашская Республика - Чувашия, г. Чебоксары, ул. К.Маркса, д. 29", 56.140232, 47.250384,85.22,Образование высшее,https://spark-interfax.ru/chuvashskaya-respublika-chuvashiya-cheboksary/fgbu-fgbou-vo-chuvashski-gau-inn-2128014360-ogrn-1022101131150-6906d9b1b88d226ae0531b9aa8c04bb6
"МУНИЦИПАЛЬНОЕ АВТОНОМНОЕ УЧРЕЖДЕНИЕ ДОПОЛНИТЕЛЬНОГО ОБРАЗОВАНИЯ СПОРТИВНАЯ ШКОЛА ""СЫВЛАХ"" МОРГАУШСКОГО МУНИЦИПАЛЬНОГО ОКРУГА ЧУВАШСКОЙ РЕСПУБЛИКИ",МАУ ДО СШ СЫВЛАХ,1112136000240,"429530, Чувашская Республика - Чувашия, Моргаушский район, с. Моргауши, ул. Мира, д. 8", 55.967874, 46.769696,85.41,Образование дополнительное детей и взрослых,https://spark-interfax.ru/chuvashskaya-respublika-chuvashiya-morgaushski-raion/much-syvlakh-inn-2112999842-ogrn-1112136000240-6906d9b1ed78226ae0531b9aa8c04bb6
"МУНИЦИПАЛЬНОЕ АВТОНОМНОЕ УЧРЕЖДЕНИЕ ДОПОЛНИТЕЛЬНОГО ОБРАЗОВАНИЯ ""СТАНЦИЯ ЮНЫХ ТЕХНИКОВ"" МОРГАУШСКОГО МУНИЦИПАЛЬНОГО ОКРУГА ЧУВАШСКОЙ РЕСПУБЛИКИ",МАУ ДО СЮТ МОРГАУШСКОГО МУНИЦИПАЛЬНОГО ОКРУГА ЧУВАШСКОЙ РЕСПУБЛИКИ,1022102629779,"429530, Чувашская Республика - Чувашия, Моргаушский район, с. Моргауши, ул. Красная Площадь, д. 3", 55.965606, 46.775727,85.41,Образование дополнительное детей и взрослых,https://spark-interfax.ru/chuvashskaya-respublika-chuvashiya-morgaushski-raion/much-syut-morgaushskogo-munitsipalnogo-okruga-chuvashskoi-respubliki-inn-2112000210-ogrn-1022102629779-6906d9b1be76226ae0531b9aa8c04bb6
"ГОСУДАРСТВЕННОЕ АВТОНОМНОЕ ПРОФЕССИОНАЛЬНОЕ ОБРАЗОВАТЕЛЬНОЕ УЧРЕЖДЕНИЕ ЧУВАШСКОЙ РЕСПУБЛИКИ ""ЧЕБОКСАРСКИЙ ПРОФЕССИОНАЛЬНЫЙ КОЛЛЕДЖ ИМ.Н.В.НИКОЛЬСКОГО"" МИНИСТЕРСТВА ОБРАЗОВАНИЯ ЧУВАШСКОЙ РЕСПУБЛИКИ",ГАПОУ ЧР ЧПК МИНОБРАЗОВАНИЯ ЧУВАШИИ,1022100976347,"428022, Чувашская Республика - Чувашия, г. Чебоксары, ул. Декабристов, д. 17", 56.137705, 47.284841,85.21,Образование профессиональное среднее,https://spark-interfax.ru/chuvashskaya-respublika-chuvashiya-cheboksary/gau-chpk-minobrazovaniya-chuvashii-inn-2127011215-ogrn-1022100976347-6906d9b1b889226ae0531b9aa8c04bb6
"ОБЩЕСТВО С ОГРАНИЧЕННОЙ ОТВЕТСТВЕННОСТЬЮ ""КОЛОС""",ООО КОЛОС,2109902032,"429620, Чувашская Республика - Чувашия, Красноармейский район, д. Крендейкасы", 55.780582, 47.257042,01.50,Смешанное сельское хозяйство,https://spark-interfax.ru/chuvashskaya-respublika-chuvashiya-krasnoarmeiski-raion/ooo-kolos-inn-2109902032-ogrn-1032137004635-38cb35a20612413681552aff1a5ffa1f
"АССОЦИАЦИЯ КРЕСТЬЯНСКИХ (ФЕРМЕРСКИХ) ХОЗЯЙСТВ ""ВОЗРОЖДЕНИЕ""",АКФХ ВОЗРОЖДЕНИЕ,2114000978,"429414, Чувашская Республика - Чувашия, Урмарский район, д. Кульгеши, ул. Орлова, д. 43", 55.758262, 47.955860,01.1,Выращивание однолетних культур,https://spark-interfax.ru/chuvashskaya-respublika-chuvashiya-urmarski-raion/obedinenie-vozrozhdenie-inn-2114000978-ogrn-1022102834445-6906d9b1be41226ae0531b9aa8c04bb6
"ОБЩЕСТВО С ОГРАНИЧЕННОЙ ОТВЕТСТВЕННОСТЬЮ ""ТЕХМА-АГРОМАШ""",ООО ТЕХМА-АГРОМАШ,2130208927,"428000, Чувашская Республика - Чувашия, г. Чебоксары, проезд Машиностроителей, д. 1 корп. / пом. 1/1", 56.125105, 47.309336,25.50.1,"Предоставление услуг по ковке, прессованию, объемной и листовой штамповке и профилированию листового металла",https://spark-interfax.ru/chuvashskaya-respublika-chuvashiya-cheboksary/ooo-tekhma-agromash-inn-2130208927-ogrn-1192130003317-66555de5a5cf4f83a7d2c5fed685bc30
"АКЦИОНЕРНОЕ ОБЩЕСТВО ""ЛЕНТА""",АО ЛЕНТА,2127008692,"428008, Чувашская Республика - Чувашия, г. Чебоксары, ул. Калинина, д. 68", 56.139062, 47.268527,13.96,Производство прочих технических и промышленных текстильных изделий,https://spark-interfax.ru/chuvashskaya-respublika-chuvashiya-cheboksary/ao-lenta-inn-2127008692-ogrn-1022100969890-362ab5aab0e84ba8ba547a70064736ba
"СЕЛЬСКОХОЗЯЙСТВЕННЫЙ ПРОИЗВОДСТВЕННЫЙ КООПЕРАТИВ ""ДРУЖБА""",СХПК ДРУЖБА,2108001691,"429144, Чувашская Республика - Чувашия, Комсомольский район, д. Альбусь-Сюрбеево, ул. Центральная, д. 1", 55.187628, 47.497834,01.1,Выращивание однолетних культур,https://spark-interfax.ru/chuvashskaya-respublika-chuvashiya-komsomolski-raion/koop-druzhba-inn-2108001691-ogrn-1022101831168-124a443c2f6d450994bd1dc670396679
"СЕЛЬСКОХОЗЯЙСТВЕННЫЙ СНАБЖЕНЧЕСКО-СБЫТОВОЙ ПОТРЕБИТЕЛЬСКИЙ КООПЕРАТИВ ""ЛУК-АГРО""",СССПК ЛУК-АГРО,2103003670,"429358, Чувашская Республика - Чувашия, Батыревский район, д. Старые Тойси, ул. Советская, зд. 35", 55.074134, 47.814248,46.11,"Деятельность агентов по оптовой торговле сельскохозяйственным сырьем, живыми животными, текстильным сырьем и полуфабрикатами",https://spark-interfax.ru/chuvashskaya-respublika-chuvashiya-batyrevski-raion/koop-luk-agro-inn-2103003670-ogrn-1182130010501-770f231748d54948e0531b9aa8c0aaf0
"СЕЛЬСКОХОЗЯЙСТВЕННЫЙ ПОТРЕБИТЕЛЬСКИЙ КРЕДИТНЫЙ КООПЕРАТИВ ""МОРГАУШИ-СОГЛАСИЕ""",СПКК МОРГАУШИ-СОГЛАСИЕ,2112003476,"429530, Чувашская Республика - Чувашия, Моргаушский район, с. Моргауши, ул. Мира, д. 6", 55.967999, 46.771867,64.92,Предоставление займов и прочих видов кредита,https://spark-interfax.ru/chuvashskaya-respublika-chuvashiya-morgaushski-raion/koop-morgaushi-soglasie-inn-2112003476-ogrn-1032136000698-6906d9b1bc2d226ae0531b9aa8c04bb6
"СЕЛЬСКОХОЗЯЙСТВЕННЫЙ ОБСЛУЖИВАЮЩИЙ СНАБЖЕНЧЕСКО-СБЫТОВОЙ ПОТРЕБИТЕЛЬСКИЙ КООПЕРАТИВ ""НИМЕ""",СОССПК НИМЕ,1192130004131,"429068, Чувашская Республика - Чувашия, Ядринский район, д. Кильдишево, ул. Шоссейная, д. 58", 55.844167, 46.583670,46.31,Торговля оптовая фруктами и овощами,https://spark-interfax.ru/chuvashskaya-respublika-chuvashiya-yadrinski-raion/koop-nime-inn-2119006500-ogrn-1192130004131-855c1a2635a28157e0531b9aa8c0fa20
"ОБЩЕСТВО С ОГРАНИЧЕННОЙ ОТВЕТСТВЕННОСТЬЮ ""КАРТОФЕЛЬ""",ООО КАРТОФЕЛЬ,2119902440,"429064, Чувашская Республика - Чувашия, Ядринский район, д. Персирланы, ул. Шоссейная, д. 34", 55.877403, 46.252351,01.11,"Выращивание зерновых (кроме риса), зернобобовых культур и семян масличных культур",https://spark-interfax.ru/chuvashskaya-respublika-chuvashiya-yadrinski-raion/ooo-kartofel-inn-2119902440-ogrn-1092136000274-56edbbec5f0f43c08efeb5fc69d7e079
"ОБЩЕСТВО С ОГРАНИЧЕННОЙ ОТВЕТСТВЕННОСТЬЮ ""АГРОФИРМА ""СЛАВА КАРТОФЕЛЮ""",ООО АСК,2108002222,"429140, Чувашская Республика - Чувашия, Комсомольский район, с. Комсомольское, ул. Промышленная, д. 8", 55.259127, 47.553258,01.13.3,Выращивание столовых корнеплодных и клубнеплодных культур с высоким содержанием крахмала или инулина,https://spark-interfax.ru/chuvashskaya-respublika-chuvashiya-komsomolski-raion/ooo-ask-inn-2108002222-ogrn-1022101828275-2664f6760cde483991ceb0945a236844
"ОБЩЕСТВО С ОГРАНИЧЕННОЙ ОТВЕТСТВЕННОСТЬЮ ""СЮРБЕЕВО""",ООО СЮРБЕЕВО,2108006347,"429144, Чувашская Республика - Чувашия, Комсомольский район, д. Альбусь-Сюрбеево, ул. Центральная, д. 1", 55.187628, 47.497834,01.11,"Выращивание зерновых (кроме риса), зернобобовых культур и семян масличных культур",https://spark-interfax.ru/chuvashskaya-respublika-chuvashiya-komsomolski-raion/ooo-syurbeevo-inn-2108006347-ogrn-1052132003131-6020ac55b4cb444485a14ca7847fd24e
"ОБЩЕСТВО С ОГРАНИЧЕННОЙ ОТВЕТСТВЕННОСТЬЮ ""ТОРГОВЫЙ ДОМ ЮБИЛЕЙНЫЙ""",ООО ТД ЮБИЛЕЙНЫЙ,6330057648,"446200, Самарская обл., г. Новокуйбышевск, проезд Челюскинцев, д. 19", 53.116983, 49.909963,47.2,"Торговля розничная пищевыми продуктами, напитками и табачными изделиями в специализированных магазинах",https://spark-interfax.ru/samarskaya-oblast-novokuibyshevsk/ooo-td-yubileiny-inn-6330057648-ogrn-1136330002071-0a49f20bbd0143b386ac1e243d90ed44
"ОБЩЕСТВО С ОГРАНИЧЕННОЙ ОТВЕТСТВЕННОСТЬЮ ""ЗАГОТЗЕРНО""",ООО ЗАГОТЗЕРНО,6330061757,"446200, Самарская обл., г. Новокуйбышевск, ул. З.Космодемьянской, д. 9 ком. 7", 53.091502, 49.971028,47.21,Торговля розничная фруктами и овощами в специализированных магазинах,https://spark-interfax.ru/samarskaya-oblast-novokuibyshevsk/ooo-zagotzerno-inn-6330061757-ogrn-1146330001597-6178895f991c7e1ce0531b9aa8c027ab
"ЗАКРЫТОЕ АКЦИОНЕРНОЕ ОБЩЕСТВО "" ГРАЧЕВСКОЕ""",ЗАО ГРАЧЕВСКОЕ,6371005494,"446421, Самарская обл., Кинельский район, с. Грачевка, ул. Пролетарская", 53.160622, 51.112474,01.11.1,Выращивание зерновых культур,https://spark-interfax.ru/samarskaya-oblast-kinelski-raion/ao-grachevskoe-inn-6371005494-ogrn-1026303273468-509f0d71c8934bc08be720aa082a324b
"АКЦИОНЕРНОЕ ОБЩЕСТВО ""АВИАКОР-АВИАЦИОННЫЙ ЗАВОД""",АО АВИАКОР-АВИАЦИОННЫЙ ЗАВОД,6312040056,"443052, Самарская обл., г. Самара, ул. Земеца, д. 32 к. 106", 53.213369, 50.298658,30.30.3,"Производство вертолетов, самолетов и прочих летательных аппаратов",https://spark-interfax.ru/samarskaya-oblast-samara/ao-aviakor-aviatsionny-zavod-inn-6312040056-ogrn-1026300767899-afc83c5675f94fc480edbc86bd95f23a
"ОБЩЕСТВО С ОГРАНИЧЕННОЙ ОТВЕТСТВЕННОСТЬЮ "" СВАБ""",ООО СВАБ,6314027318,"446178, Самарская обл., Пестравский район, с. Майское, ул. Шоссейная, д. 8", 52.268429, 50.045912,01.11,"Выращивание зерновых (кроме риса), зернобобовых культур и семян масличных культур",https://spark-interfax.ru/samarskaya-oblast-pestravski-raion/ooo-svab-inn-6314027318-ogrn-1066317034618-c05bea49318a4e51815bb30e7163076e
"ОБЩЕСТВО С ОГРАНИЧЕННОЙ ОТВЕТСТВЕННОСТЬЮ ""ЛОМБАРД ""ИМПЕРИЯ""",ООО ЛОМБАРД ИМПЕРИЯ,6372013642,"446350, Самарская обл., Кинель-Черкасский район, с. Кинель-Черкассы, ул. Чапаевская, д. 65Б", 53.466788, 51.474853,64.92.6,Деятельность по предоставлению ломбардами краткосрочных займов под залог движимого имущества,https://spark-interfax.ru/samarskaya-oblast-kinel-cherkasski-raion/ooo-lombard-imperiya-inn-6372013642-ogrn-1096372000152-6178895efdee7e1ce0531b9aa8c027ab
"ОБЩЕСТВО С ОГРАНИЧЕННОЙ ОТВЕТСТВЕННОСТЬЮ СЕЛЬСКОХОЗЯЙСТВЕННОЕ ПРЕДПРИЯТИЕ ""НИВА""",ООО СХП НИВА,6381009025,"446857, Самарская обл., Челно-Вершинский район, с. Новая Таяба, ул. Центральная, д. 1", 54.571360, 51.321977,01.1,Выращивание однолетних культур,https://spark-interfax.ru/samarskaya-oblast-chelno-vershinski-raion/ooo-niva-inn-6381009025-ogrn-1056381001302-6178895ea25a7e1ce0531b9aa8c027ab
"СЕЛЬСКОХОЗЯЙСТВЕННЫЙ ПОТРЕБИТЕЛЬСКИЙ ПЕРЕРАБАТЫВАЮЩИЙ СБЫТОВОЙ КООПЕРАТИВ ""СТАВРОПОЛЬСКИЙ""",СППСКСТАВРОПОЛЬСКИЙ,1196313054200,"445139, Самарская обл., Ставропольский район, с. Новое Еремкино, ул. Школьная, д. 12Б", 53.658562, 49.862537,10.11,Переработка и консервирование мяса,https://spark-interfax.ru/samarskaya-oblast-stavropolski-raion/koop-stavropolski-inn-6382079699-ogrn-1196313054200-8c82b5b17e4975bde0531c9aa8c017b9
"ОБЩЕСТВО С ОГРАНИЧЕННОЙ ОТВЕТСТВЕННОСТЬЮ ""КРЕСТЬЯНСКОЕ ХОЗЯЙСТВО БАКАЕВА ЗАЙНУЛЛЫ ШАГИДУЛЛОВИЧА""",ООО КХ БАКАЕВ З.Ш.,6365000931,"446290, Самарская обл., Большечерниговский район, пос. Кочкиновка, ул. Центральная, д. 10А", 52.132311, 50.844567,01.11.1,Выращивание зерновых культур,https://spark-interfax.ru/samarskaya-oblast-bolshechernigovski-raion/ooo-kkh-bakaev-z-sh-inn-6365000931-ogrn-1026303463207-d11f7a907f9e4b5a845bd4144cec80fd
"КРЕСТЬЯНСКОЕ ХОЗЯЙСТВО ""БЕРКУТ""",КФХ БЕРКУТ,1026303463548,"446187, Самарская обл., Большеглушицкий район, с. Таш-Кустьяново, ул. Новостройки, д. 1", 52.298658, 51.234156,01.11.1,Выращивание зерновых культур,https://spark-interfax.ru/samarskaya-oblast-bolsheglushitski-raion/berkut-inn-6364002020-ogrn-1026303463548-6178895e86f67e1ce0531b9aa8c027ab
"ФЕРМЕРСКОЕ ХОЗЯЙСТВО ""ДРАГОНЕР ВЛАДИМИРА ВИКТОРОВИЧА""",ФХ ДРАГОНЕР В.В.,1026303891360,"446246, Самарская обл., Безенчукский район, с. Песочное, ул. Центральная, д. 10", 52.928598, 49.434715,01.11.1,Выращивание зерновых культур,https://spark-interfax.ru/samarskaya-oblast-bezenchukski-raion/kfkh-dragoner-v-v-inn-6362003282-ogrn-1026303891360-6906d957c42d226ae0531b9aa8c04bb6
КРЕСТЬЯНСКОЕ ХОЗЯЙСТВО БЕРБЕЦ МИХАИЛА ВАСИЛЬЕВИЧА,КХ БЕРБЕЦ М.В.,1036302170640,"446636, Самарская обл., Богатовский район, с. Тростянка, ул. Молодежная, д. 9 офис 1", 53.119106, 51.185411,01.1,Выращивание однолетних культур,https://spark-interfax.ru/samarskaya-oblast-bogatovski-raion/kfkh-berbets-m-v-inn-6363001721-ogrn-1036302170640-6906d957aa99226ae0531b9aa8c04bb6
"КРЕСТЬЯНСКОЕ ХОЗЯЙСТВО ""НИКОЛАЕВСКОЕ""",К\ Х НИКОЛАЕВСКОЕ,1024600810563,"306020, Курская обл., Золотухинский район, рабочий пос. Золотухино, ул. А.Матросова, д. 3", 52.091216, 36.387488,01.11.1,Выращивание зерновых культур,https://spark-interfax.ru/kurskaya-oblast-zolotukhinski-raion/kfkh-nikolaevskoe-inn-4607000457-ogrn-1024600810563-6906d95a8848226ae0531b9aa8c04bb6
"ОБЩЕСТВО С ОГРАНИЧЕННОЙ ОТВЕТСТВЕННОСТЬЮ ""СПЕЦТРАНСАВТО""",ООО СТА,6330060023,"446208, Самарская обл., г. Новокуйбышевск, ул. Миронова, д. 31А кв. 59 В", 53.084438, 49.953258,43.11,Разборка и снос зданий,https://spark-interfax.ru/samarskaya-oblast-novokuibyshevsk/ooo-sta-inn-6330060023-ogrn-1136330004414-faf14db850654273a10c42debf25395f
"АКЦИОНЕРНОЕ ОБЩЕСТВО ""КУПИНСКОЕ""",АО КУПИНСКОЕ,6330101248,"446247, Самарская обл, м.р-н Безенчукский, с.п. Купино, с Купино, ул Купинская, зд. 10", 52.992826, 49.564075,01.41,"Разведение молочного крупного рогатого скота, производство сырого молока",https://spark-interfax.ru/samarskaya-oblast-bezenchukski-raion/ao-kupinskoe-inn-6330101248-ogrn-1246300000726-6906d9577e4b226ae0531b9aa8c04bb6
"ОБЩЕСТВО С ОГРАНИЧЕННОЙ ОТВЕТСТВЕННОСТЬЮ ""ЗАРЯ""",ООО ЗАРЯ,6372013018,"446327, Самарская обл., Кинель-Черкасский район, с. Александровка, ул. Алексея Толстого, д. 8", 53.540839, 51.041590,01.41,"Разведение молочного крупного рогатого скота, производство сырого молока",https://spark-interfax.ru/samarskaya-oblast-kinel-cherkasski-raion/ooo-zarya-inn-6372013018-ogrn-1086372000417-ccb9ce2f52444426bddcd5837c08fa6a
"ОБЩЕСТВО С ОГРАНИЧЕННОЙ ОТВЕТСТВЕННОСТЬЮ ""САМАРСКАЯ ГИДРОПРОМЫШЛЕННАЯ КОМПАНИЯ""",ООО СГПК,6317070181,"443099, Самарская обл., г. Самара, ул. Водников, д. 119 ком. 5", 53.188801, 50.083498,01.11,"Выращивание зерновых (кроме риса), зернобобовых культур и семян масличных культур",https://spark-interfax.ru/samarskaya-oblast-samara/ooo-sgpk-inn-6317070181-ogrn-1076317004642-0a9e46490c224032aded7aa539caeb26
"ОБЩЕСТВО С ОГРАНИЧЕННОЙ ОТВЕТСТВЕННОСТЬЮ ""МАЛОРОССЫ""",ООО МАЛОРОССЫ,6330055552,"443523, Самарская обл., Волжский район, пос. Тридцатый, ул. Рабочая, д. 6 офис 1", 52.747942, 50.452449,01.61,Предоставление услуг в области растениеводства,https://spark-interfax.ru/samarskaya-oblast-volzhski-raion/ooo-malorossy-inn-6330055552-ogrn-1136330000036-cdcd7faac36f4f37932fc8ee0f82a69f
"ОБЩЕСТВО С ОГРАНИЧЕННОЙ ОТВЕТСТВЕННОСТЬЮ ""СТРОИТЕЛЬНАЯ КОМПАНИЯ №19""",ООО СК №19,6313131700,"443080, Самарская обл., г. Самара, ул. Революционная, д. 70 кв. 401", 53.206801, 50.178458,41.20,Строительство жилых и нежилых зданий,https://spark-interfax.ru/samarskaya-oblast-samara/ooo-sk-n-inn-6313131700-ogrn-1046300223947-6a234de530f649659996375a0bcb6f7b
"ОБЩЕСТВО С ОГРАНИЧЕННОЙ ОТВЕТСТВЕННОСТЬЮ ЧАСТНАЯ ОХРАННАЯ ОРГАНИЗАЦИЯ ""ГАРАНТ""",ООО ЧОО ГАРАНТ,6357043258,"446453, Самарская обл., г. Похвистнево, пер. Стахановский, д. 10", 53.648496, 52.142821,80.10,"Деятельность охранных служб, в том числе частных",https://spark-interfax.ru/samarskaya-oblast-pokhvistnevo/ooo-garant-inn-6357043258-ogrn-1056357000655-2d2cb8de373a4416908ee48bab202bbc
"ОБЩЕСТВО С ОГРАНИЧЕННОЙ ОТВЕТСТВЕННОСТЬЮ ""ТОРГОВЫЙ ДОМ ""РИОКСА""",ООО ТД РИОКСА,3663125472,"394074, Воронежская обл., г. Воронеж, пер. Шубина, д. 9", 51.607018, 39.217946,46.49.3,"Торговля оптовая книгами, газетами и журналами, писчебумажными и канцелярскими товарами",https://spark-interfax.ru/voronezhskaya-oblast-voronezh/ooo-td-rioksa-inn-3663125472-ogrn-1173668005950-10e2803515844ee185860558130520f0
"ОБЩЕСТВО С ОГРАНИЧЕННОЙ ОТВЕТСТВЕННОСТЬЮ ""НИВА""",ООО НИВА,3632003724,"397007, Воронежская обл., Эртильский район, пос. Красноармейский, ул. Центральная, зд. 5Е офис 1", 51.821064, 40.787065,01.11.1,Выращивание зерновых культур,https://spark-interfax.ru/voronezhskaya-oblast-ertilski-raion/ooo-niva-inn-3632003724-ogrn-1033668500865-532940c7df3b449ab88c2e0e3d631e19
