Название,Название Кратко,ИНН,адрес,lat,lon,Код оквэд,Основной вид деятельности,Ссылка
"ОБЩЕСТВО С ОГРАНИЧЕННОЙ ОТВЕТСТВЕННОСТЬЮ ""АРТ-ЦЕНТР""",ООО АРТ-ЦЕНТР,6324070739,"445019, Самарская обл., г. Тольятти, проезд 8 Марта, д. 19", 53.523450, 49.412398,88.10,Предоставление социальных услуг без обеспечения проживания престарелым и инвалидам,https://spark-interfax.ru/samarskaya-oblast-tolyatti/ooo-art-tsentr-inn-6324070739-ogrn-1166313081857-1b835113c9ee46d6a642932aa95ab4f5
"ЧАСТНОЕ ДОШКОЛЬНОЕ ОБРАЗОВАТЕЛЬНОЕ УЧРЕЖДЕНИЕ ""ДЕТСКИЙ САД ""РОМАШКА""",ЧДОУ ДЕТСКИЙ САД РОМАШКА,1176313071065,"445143, Самарская обл., Ставропольский район, с. Подстепки, пер. Проездной, д. 2", 53.519875, 49.144983,85.11,Образование дошкольное,https://spark-interfax.ru/samarskaya-oblast-stavropolski-raion/uch-detski-sad-romashka-inn-6382075574-ogrn-1176313071065-6906d95a09aa226ae0531b9aa8c04bb6
"КРЕСТЬЯНСКОЕ (ФЕРМЕРСКОЕ) ХОЗЯЙСТВО ""БОГОРОДСКОЕ""",КФХ БОГОРОДСКОЕ,1216300041044,"445165, Самарская обл, м.р-н Ставропольский, с.п. Осиновка, с Винновка, ул Казачкова, д. 24", 53.190265, 49.687584,01.41.1,Разведение молочного крупного рогатого скота,https://spark-interfax.ru/samarskaya-oblast-stavropolski-raion/kfkh-bogorodskoe-inn-6382084811-ogrn-1216300041044-cb37bb0a6b376776e053219aa8c0d9e6
"КРЕСТЬЯНСКОЕ (ФЕРМЕРСКОЕ) ХОЗЯЙСТВО ""ЯГОДНАЯ СЛОБОДА""",КФХ ЯГОДНАЯ СЛОБОДА,1226300012080,"446660, Самарская обл, м.р-н Борский, с.п. Борское, с Борское, ул Солнечная, двлд. 13", 53.030494, 51.684584,01.25.1,Выращивание прочих плодовых и ягодных культур,https://spark-interfax.ru/samarskaya-oblast-borski-raion/kfkh-yagodnaya-sloboda-inn-6377017143-ogrn-1226300012080-da9e8c7a6fae53a5e053259aa8c0d7ff
"ОБЩЕСТВО С ОГРАНИЧЕННОЙ ОТВЕТСТВЕННОСТЬЮ ""ЗОДИАК-М""",ООО ЗОДИАК-М,6312045382,"443091, Самарская обл., г. Самара, проспект Карла Маркса, д. 412", 53.242865, 50.243709,10.13,Производство продукции из мяса убойных животных и мяса птицы,https://spark-interfax.ru/samarskaya-oblast-samara/ooo-zodiak-m-inn-6312045382-ogrn-1026300766788-9f0cb90beaf946e9afea45290e1f68c4
"АКЦИОНЕРНОЕ ОБЩЕСТВО ""ТЯЖМАШ""",АО ТЯЖМАШ,6325000660,"446010, Самарская обл., г. Сызрань, ул. Гидротурбинная, зд. 13", 53.178413, 48.493197,25.62,Обработка металлических изделий механическая,https://spark-interfax.ru/samarskaya-oblast-syzran/ao-tyazhmash-inn-6325000660-ogrn-1026303055217-f3aef46838594926924433c4eef4a730
"АКЦИОНЕРНОЕ ОБЩЕСТВО ""САМАРСКИЙ ГИПСОВЫЙ КОМБИНАТ""",АО СГК,6319009009,"443052, Самарская обл., г. Самара, ул. Береговая, д. 9А", 53.205753, 50.302139,23.52.2,Производство гипса,https://spark-interfax.ru/samarskaya-oblast-samara/ao-sgk-inn-6319009009-ogrn-1026301697311-6d72cff2e30841b0bcbe6c8493410e58
"ОБЩЕСТВО С ОГРАНИЧЕННОЙ ОТВЕТСТВЕННОСТЬЮ ""ПЕГАС-АГРО""",ООО ПЕГАС-АГРО,6330041285,"443528, Самарская обл., Волжский район, пгт. Стройкерамика, тер. Животноводческая Ферма", 53.270256, 50.397645,28.30,Производство машин и оборудования для сельского и лесного хозяйства,https://spark-interfax.ru/samarskaya-oblast-volzhski-raion/ooo-pegas-agro-inn-6330041285-ogrn-1106330001271-08f1055ceb4743cbb15605d6e21e6f91
"АКЦИОНЕРНОЕ ОБЩЕСТВО ""РАКЕТНО-КОСМИЧЕСКИЙ ЦЕНТР ""ПРОГРЕСС""",АО РКЦ ПРОГРЕСС,6312139922,"443009, Самарская обл., г. Самара, ул. Земеца, д. 18", 53.216866, 50.292434,72.19,Научные исследования и разработки в области естественных и технических наук прочие,https://spark-interfax.ru/samarskaya-oblast-samara/ao-rkts-progress-inn-6312139922-ogrn-1146312005344-9da06c7027304ffca120a7f4fca9af0b
"АКЦИОНЕРНОЕ ОБЩЕСТВО ""АМ-ТЕХНИКА""",АО АМ-ТЕХНИКА,6317033655,"443044, Самарская обл., г. Самара, пос. Зубчаниновка, ул. Магистральная, д. 80 литера Г", 53.256167, 50.310252,28.30.3,Производство машин и сельскохозяйственного оборудования для обработки почвы,https://spark-interfax.ru/samarskaya-oblast-samara/ao-am-tekhnika-inn-6317033655-ogrn-1026301415568-94c078d6b5544157b402dfbd4986323a
"ОБЩЕСТВО С ОГРАНИЧЕННОЙ ОТВЕТСТВЕННОСТЬЮ АГРОПРОМЫШЛЕННАЯ КОМПАНИЯ ""ТСК АГРО""",ООО АПК ТСК АГРО,6381019954,"446544, Самарская обл., Сергиевский район, с. Большая Чесноковка, зд. 68/141 этаж 1", 53.783989, 50.747191,01.50,Смешанное сельское хозяйство,https://spark-interfax.ru/samarskaya-oblast-sergievski-raion/ooo-tsk-agro-inn-6381019954-ogrn-1176313014943-b84ca791f08f45d7bc5988818e20b833
"ОБЩЕСТВО С ОГРАНИЧЕННОЙ ОТВЕТСТВЕННОСТЬЮ ""ВЕГА""",ООО ВЕГА,6383001085,"446073, Самарская обл., Сызранский район, пос. Варламово, ул. Демидовская, д. 2", 53.189700, 48.422600,01.13.3,Выращивание столовых корнеплодных и клубнеплодных культур с высоким содержанием крахмала или инулина,https://spark-interfax.ru/samarskaya-oblast-syzranski-raion/ooo-vega-inn-6383001085-ogrn-1026303056075-f372c27593094b2e8060876611a4b6fe
"ОБЩЕСТВО С ОГРАНИЧЕННОЙ ОТВЕТСТВЕННОСТЬЮ ""УЧЕБНЫЙ СПОРТИВНО-ПЕДАГОГИЧЕСКИЙ ЦЕНТР""",ООО УЧЕБНЫЙ СПОРТИВНО-ПЕДАГОГИЧЕСКИЙ ЦЕНТР,6319251507,"443122, Самарская обл, г.о. Самара, вн.р-н Промышленный, г Самара, ул Молодежная, д. 9, офис 29", 53.257285, 50.223854,85.21,Образование профессиональное среднее,https://spark-interfax.ru/samarskaya-oblast-samara/ooo-uchebny-sportivno-pedagogicheski-tsentr-inn-6319251507-ogrn-1216300007483-bbd0e214d4553362e053219aa8c08250
"АВТОНОМНАЯ НЕКОММЕРЧЕСКАЯ ОРГАНИЗАЦИЯ ПО РАЗВИТИЮ ИНСТИТУТА СЕМЬИ ""ЛИГА СЕМЕЙНОГО ЗДОРОВЬЯ""",АНО ЛИГА СЕМЕЙНОГО ЗДОРОВЬЯ,1226300046830,"443031, Самарская обл, г.о. Самара, вн.р-н Промышленный, г Самара, ул Ташкентская, д. 246А, кв. 109", 53.268937, 50.220024,88.99,"Предоставление прочих социальных услуг без обеспечения проживания, не включенных в другие группировки",https://spark-interfax.ru/samarskaya-oblast-samara/ano-liga-semeinogo-zdorovya-inn-6319259376-ogrn-1226300046830-eef8ad7b618f5495e053249aa8c0d095
"АВТОНОМНАЯ НЕКОММЕРЧЕСКАЯ ОРГАНИЗАЦИЯ ПО РАЗВИТИЮ СОЦИАЛЬНЫХ ИННОВАЦИЙ ""КУЛЬТУРНАЯ СРЕДА""",АНО КУЛЬТУРНАЯ СРЕДА,1236300000331,"443029, Самарская обл, г.о. Самара, вн.р-н Промышленный, г Самара, просека 7-я, д. 98, кв. 1", 53.198627, 50.113987,90.04.2,Деятельность многоцелевых центров и подобных заведений с преобладанием культурного обслуживания,https://spark-interfax.ru/samarskaya-oblast-samara/ano-kulturnaya-sreda-inn-6319259672-ogrn-1236300000331-f245aa3dbd6b699ce053249aa8c0cff3
"ОБЩЕСТВО С ОГРАНИЧЕННОЙ ОТВЕТСТВЕННОСТЬЮ ""ВСПЫШКА""",ООО ВСПЫШКА,6318007023,"443045, Самарская обл., г. Самара, ул. Авроры, д. 169 кв. 15", 53.203515, 50.190324,73.11,Деятельность рекламных агентств,https://spark-interfax.ru/samarskaya-oblast-samara/ooo-vspyshka-inn-6318007023-ogrn-1156313044007-4798c3f21f3e4d349296861c217e8753
"ОБЩЕСТВО С ОГРАНИЧЕННОЙ ОТВЕТСТВЕННОСТЬЮ ""ФАБРИКА СПОРТИВНОГО ИНВЕНТАРЯ ""АНАЛИТИКА""",ООО ФСИ АНАЛИТИКА,6330082683,"443532, Самарская обл., Волжский район, пос. Верхняя Подстепновка, ул. Специалистов, зд. 16Б ком. 1", 53.083324, 50.092034,32.30,Производство спортивных товаров,https://spark-interfax.ru/samarskaya-oblast-volzhski-raion/ooo-fsi-analitika-inn-6330082683-ogrn-1186313060592-2ebb40813e3c4cd0903692beacb8aea4
"ОБЩЕСТВО С ОГРАНИЧЕННОЙ ОТВЕТСТВЕННОСТЬЮ ""ПАРФЕНОН""",ООО ПАРФЕНОН,6319160730,"443084, Самарская обл., г. Самара, шоссе Московское, д. 163Б этаж 2", 53.246899, 50.217648,47.65,Торговля розничная играми и игрушками в специализированных магазинах,https://spark-interfax.ru/samarskaya-oblast-samara/ooo-parfenon-inn-6319160730-ogrn-1126319003128-7895f76f6825454f8af829bd7fd99f8e
"ОБЩЕСТВО С ОГРАНИЧЕННОЙ ОТВЕТСТВЕННОСТЬЮ ""РОДИНА""",ООО РОДИНА,6375194588,"446297, Самарская обл., Большечерниговский район, пос. Краснооктябрьский, ул. Заречная, д. 56 офис 1", 52.156680, 51.136666,01.1,Выращивание однолетних культур,https://spark-interfax.ru/samarskaya-oblast-bolshechernigovski-raion/ooo-rodina-inn-6375194588-ogrn-1106375000511-36e480bd7b574713a9bc1afebbb8cd5c
"ОБЩЕСТВО С ОГРАНИЧЕННОЙ ОТВЕТСТВЕННОСТЬЮ ""РУСЬ""",ООО РУСЬ,6365004460,"446292, Самарская обл., Большечерниговский район, пос. Глушицкий, ул. Шоссейная, д. 6", 52.156463, 50.435260,01.11.1,Выращивание зерновых культур,https://spark-interfax.ru/samarskaya-oblast-bolshechernigovski-raion/ooo-rus-inn-6365004460-ogrn-1046302831630-5d74cd797f424b708e4589bf498a866f
КРЕСТЬЯНСКОЕ ХОЗЯЙСТВО ИМЕНИ ГАЙДАРА,КХ ИМ.ГАЙДАРА,1026303715393,"446347, Самарская обл, м.р-н Кинель-Черкасский, с.п. Ерзовка, с Ерзовка, ул Центральная, зд. 76А", 53.497930, 51.659007,01.11.1,Выращивание зерновых культур,https://spark-interfax.ru/samarskaya-oblast-kinel-cherkasski-raion/kfkh-im-gaidara-inn-6372002344-ogrn-1026303715393-6906d957a0f1226ae0531b9aa8c04bb6
"ОБЩЕСТВО С ОГРАНИЧЕННОЙ ОТВЕТСТВЕННОСТЬЮ ""САДОВОД""",ООО САДОВОД,6355004366,"446048, Самарская обл., Сызранский район, с. Лесная Поляна, ул. Садовая, зд. 8", 53.261617, 48.773746,01.25.1,Выращивание прочих плодовых и ягодных культур,https://spark-interfax.ru/samarskaya-oblast-syzranski-raion/ooo-sadovod-inn-6355004366-ogrn-1046301255219-db30b57a82c44288919448a4ad5d5da4
"КРЕСТЬЯНСКОЕ (ФЕРМЕРСКОЕ) ХОЗЯЙСТВО ""КЕДР""",КФХ КЕДР,1026303859416,"446613, Самарская обл., Нефтегорский район, с. Богдановка, ул. Наречная, д. 12", 52.701790, 50.757965,01.1,Выращивание однолетних культур,https://spark-interfax.ru/samarskaya-oblast-neftegorski-raion/kfkh-kedr-inn-6377001506-ogrn-1026303859416-6906d957ec7a226ae0531b9aa8c04bb6
АДМИНИСТРАЦИЯ МУНИЦИПАЛЬНОГО РАЙОНА БОРСКИЙ САМАРСКОЙ ОБЛАСТИ,АДМИНИСТРАЦИЯ МУНИЦИПАЛЬНОГО РАЙОНА БОРСКИЙ САМАРСКОЙ ОБЛАСТИ,1026303398791,"446660, Самарская обл., Борский район, с. Борское, ул. Октябрьская, д. 57", 53.028092, 51.698723,84.11.3,Деятельность органов местного самоуправления по управлению вопросами общего характера,https://spark-interfax.ru/samarskaya-oblast-borski-raion/mku-administratsiya-munitsipalnogo-raiona-borski-samarskoi-oblasti-inn-6366000187-ogrn-1026303398791-6906d9584d08226ae0531b9aa8c04bb6
"ОБЩЕСТВО С ОГРАНИЧЕННОЙ ОТВЕТСТВЕННОСТЬЮ ""ВОЛНА""",ОООВОЛНА,6375193217,"446293, Самарская обл., Большечерниговский район, с. Благодатовка, ул. Шоссейная, д. 1", 52.228635, 50.441925,01.11,"Выращивание зерновых (кроме риса), зернобобовых культур и семян масличных культур",https://spark-interfax.ru/samarskaya-oblast-bolshechernigovski-raion/ooo-volna-inn-6375193217-ogrn-1086375000194-0e88a208571a4031b457b397887a6e7d
"СЕЛЬСКОХОЗЯЙСТВЕННЫЙ ПРОИЗВОДСТВЕННЫЙ КООПЕРАТИВ ""ХЛЕБОРОБ""",СПК ХЛЕБОРОБ,6357960127,"446468, Самарская обл., Похвистневский район, с. Малый Толкай, ул. Молодежная, зд. 2", 53.515116, 51.790127,01.11,"Выращивание зерновых (кроме риса), зернобобовых культур и семян масличных культур",https://spark-interfax.ru/samarskaya-oblast-pokhvistnevski-raion/koop-khleborob-inn-6357960127-ogrn-1046301959032-afb92287f38047beb1cc3ac3a9040335
"АКЦИОНЕРНОЕ ОБЩЕСТВО ""РОСИНКА""",АО РОСИНКА,6384000334,"445581, Самарская обл., Хворостянский район, с. Владимировка, ул. В.Суркова", 52.709149, 48.931936,01.11.1,Выращивание зерновых культур,https://spark-interfax.ru/samarskaya-oblast-khvorostyanski-raion/ao-rosinka-inn-6384000334-ogrn-1026303885761-a993721e48a94423816f04a06ec14180
"ОБЩЕСТВО С ОГРАНИЧЕННОЙ ОТВЕТСТВЕННОСТЬЮ СЕЛЬСКОХОЗЯЙСТВЕННОЕ ПРЕДПРИЯТИЕ""АГРО ВЕК""",ООО СХП АГРО ВЕК,6316227552,"446596, Самарская обл, м.р-н Исаклинский, с.п. Новое Ганькино, с Новое Ганькино, ул Иванова, двлд. 52", 53.946752, 51.832268,01.11,"Выращивание зерновых (кроме риса), зернобобовых культур и семян масличных культур",https://spark-interfax.ru/samarskaya-oblast-isaklinski-raion/ooo-agro-vek-inn-6316227552-ogrn-1166313145602-0c22911a0ebc49009b80e3d53e8f739f
"ОБЩЕСТВО С ОГРАНИЧЕННОЙ ОТВЕТСТВЕННОСТЬЮ ""МАКСГАЗ-ТОЛЬЯТТИ""",ООО МАКСГАЗ-ТОЛЬЯТТИ,6324078632,"445004, Самарская обл., г. Тольятти, ул. Кирова, д. 32", 53.534022, 49.397205,45.20,Техническое обслуживание и ремонт автотранспортных средств,https://spark-interfax.ru/samarskaya-oblast-tolyatti/ooo-maksgaz-tolyatti-inn-6324078632-ogrn-1176313008300-fcd9bf27083b413c83d54dc7d43f3368
"СЕЛЬСКОХОЗЯЙСТВЕННЫЙ ПОТРЕБИТЕЛЬСКИЙ КРЕДИТНЫЙ КООПЕРАТИВ ""ХВОРОСТЯНСКИЙ""",СПКК ХВОРОСТЯНСКИЙ,6362010473,"445590, Самарская обл., Хворостянский район, с. Хворостянка, пл. Плясункова, д. 1", 52.614011, 48.962556,64.92.1,Деятельность по предоставлению потребительского кредита,https://spark-interfax.ru/samarskaya-oblast-khvorostyanski-raion/koop-khvorostyanski-inn-6362010473-ogrn-1036302062224-6906d95854a2226ae0531b9aa8c04bb6
КРЕСТЬЯНСКОЕ ХОЗЯЙСТВО ОСОКИНА НИКОЛАЯ ВАСИЛЬЕВИЧА,КХ ОСОКИНА Н.В.,1026303892394,"445592, Самарская обл., Хворостянский район, пос. Высотино, ул. Лесная, д. 26", 52.756868, 48.815907,01.11,"Выращивание зерновых (кроме риса), зернобобовых культур и семян масличных культур",https://spark-interfax.ru/samarskaya-oblast-khvorostyanski-raion/kfkh-osokina-n-v-inn-6384004836-ogrn-1026303892394-6906d957c78b226ae0531b9aa8c04bb6
"КРЕСТЬЯНСКОЕ (ФЕРМЕРСКОЕ) ХОЗЯЙСТВО ""ЭЛЕН""",К/Х ЭЛЕН,1026303462338,"446194, Самарская обл., Большеглушицкий район, с. Александровка, ул. Шоссейная, д. 75", 52.607754, 50.605581,01.11.1,Выращивание зерновых культур,https://spark-interfax.ru/samarskaya-oblast-bolsheglushitski-raion/kfkh-elen-inn-6364002140-ogrn-1026303462338-6906d957aa5e226ae0531b9aa8c04bb6
"ОБЩЕСТВО С ОГРАНИЧЕННОЙ ОТВЕТСТВЕННОСТЬЮ СЕЛЬСКОХОЗЯЙСТВЕННОЕ ПРЕДПРИЯТИЕ ""ДВА КЛЮЧА""",ООО СХП ДВА КЛЮЧА,6369010458,"446572, Самарская обл., Исаклинский район, д. Два Ключа, ул. Новая, д. 3", 54.088655, 51.578915,01.50,Смешанное сельское хозяйство,https://spark-interfax.ru/samarskaya-oblast-isaklinski-raion/ooo-dva-klyucha-inn-6369010458-ogrn-1066369001390-29353422d0884209acf925d3e13153ce
"ОБЩЕСТВО С ОГРАНИЧЕННОЙ ОТВЕТСТВЕННОСТЬЮ ""ЭКОГАЗ""",ООО ЭКОГАЗ,6357041941,"446498, Самарская обл., Похвистневский район, с. Алькино, ул. Школьная, д. 18", 53.730897, 52.248811,47.78.6,"Торговля розничная бытовым жидким котельным топливом, газом в баллонах, углем, древесным топливом, топливным торфом в специализированных магазинах",https://spark-interfax.ru/samarskaya-oblast-pokhvistnevski-raion/ooo-ekogaz-inn-6357041941-ogrn-1026303314201-0a51eb3c9fe84cd2953c967b9661f8e1
"ОБЩЕСТВО С ОГРАНИЧЕННОЙ ОТВЕТСТВЕННОСТЬЮ ""КОНТИНЕНТ-ДЕВЕЛОПМЕНТ""",ООО КОНТИНЕНТ-ДЕВЕЛОПМЕНТ,6315569560,"446374, Самарская обл, м.р-н Красноярский, с.п. Коммунарский, п Светлый Луч, ул Лесная, д. 38", 53.696194, 50.269642,01.13,"Выращивание овощей, бахчевых, корнеплодных и клубнеплодных культур, грибов и трюфелей",https://spark-interfax.ru/samarskaya-oblast-krasnoyarski-raion/ooo-kontinent-development-inn-6315569560-ogrn-1046300444541-9bca58d64f134e309d2ab8affc50280d
"КРЕСТЬЯНСКОЕ (ФЕРМЕРСКОЕ) ХОЗЯЙСТВО ""ИВОЛГА""",КФХ ИВОЛГА,1026303859999,"446613, Самарская обл., Нефтегорский район, с. Богдановка, пер. Автовокзальный, д. 2 офис 1", 52.708073, 50.760256,01.1,Выращивание однолетних культур,https://spark-interfax.ru/samarskaya-oblast-neftegorski-raion/kfkh-ivolga-inn-6377002323-ogrn-1026303859999-1e4a6b76fa4e4c85a939bf2d7affc629
СОБРАНИЕ ПРЕДСТАВИТЕЛЕЙ СЕЛЬСКОГО ПОСЕЛЕНИЯ ЛИПОВКА МУНИЦИПАЛЬНОГО РАЙОНА ХВОРОСТЯНСКИЙ САМАРСКОЙ ОБЛАСТИ,СОБРАНИЕ ПРЕДСТАВИТЕЛЕЙ СЕЛЬСКОГО ПОСЕЛЕНИЯ ЛИПОВКА,1056362022750,"445594, Самарская обл., Хворостянский район, с. Липовка, ул. Лесная, д. 15 кв. 1", 52.628106, 49.160197,84.11.35,Деятельность органов местного самоуправления городских округов,https://spark-interfax.ru/samarskaya-oblast-khvorostyanski-raion/mku-sobranie-predstavitelei-selskogo-poseleniya-lipovka-inn-6362011974-ogrn-1056362022750-6906d958990b226ae0531b9aa8c04bb6
"ОБЩЕСТВО С ОГРАНИЧЕННОЙ ОТВЕТСТВЕННОСТЬЮ ""САМАРСКИЙ СТРОЙФАРФОР""",ООО САМАРСКИЙ СТРОЙФАРФОР,6367006248,"443548, Самарская обл, м.р-н Волжский, г.п. Смышляевка, тер. Промзона, ул Мостовая, зд. 6", 53.249905, 50.400173,23.31,Производство керамических плит и плиток,https://spark-interfax.ru/samarskaya-oblast-volzhski-raion/ooo-samarski-stroifarfor-inn-6367006248-ogrn-1026303508857-43fefd9c316c4989937a756ec4959112
"МЕСТНАЯ МУСУЛЬМАНСКАЯ РЕЛИГИОЗНАЯ ОРГАНИЗАЦИЯ ""МЕЧЕТЬ ПОСЕЛКА ОСИНКИ"" БЕЗЕНЧУКСКОГО РАЙОНА САМАРСКОЙ ОБЛАСТИ",МЕЧЕТЬ П. ОСИНКИ,1036303384908,"446237, Самарская обл., Безенчукский район, пгт. Осинки, ул. Центральная, д. 15А", 52.842409, 49.509406,94.91,Деятельность религиозных организаций,https://spark-interfax.ru/samarskaya-oblast-bezenchukski-raion/ro-mechet-p-osinki-inn-6362007840-ogrn-1036303384908-6906d9583ed0226ae0531b9aa8c04bb6
КРЕСТЬЯНСКОЕ ХОЗЯЙСТВО ПАХОМОВА ВЛАДИМИРА ВИКТОРОВИЧА,КХ ПАХОМОВА В.В.,1026303890942,"445592, Самарская обл., Хворостянский район, с. Студенцы, ул. Старый Клин, д. 1", 52.786366, 49.202122,01.1,Выращивание однолетних культур,https://spark-interfax.ru/samarskaya-oblast-khvorostyanski-raion/kfkh-pakhomova-v-v-inn-6384005090-ogrn-1026303890942-6906d9578ac0226ae0531b9aa8c04bb6
"ОБЩЕСТВО С ОГРАНИЧЕННОЙ ОТВЕТСТВЕННОСТЬЮ ""ТОЛЬЯТТИНСКИЙ ТРАНСФОРМАТОР""",ООО ТОЛЬЯТТИНСКИЙ ТРАНСФОРМАТОР,6323072765,"445035, Самарская обл., г. Тольятти, ул. Индустриальная, д. 1", 53.519047, 49.457815,27.11,"Производство электродвигателей, электрогенераторов и трансформаторов",https://spark-interfax.ru/samarskaya-oblast-tolyatti/ooo-tolyattinski-transformator-inn-6323072765-ogrn-1036301104069-4291e4113604434096827edf0dc886d6
"ОТКРЫТОЕ АКЦИОНЕРНОЕ ОБЩЕСТВО ПАРФЮМЕРНО-КОСМЕТИЧЕСКАЯ КОМПАНИЯ ""ВЕСНА""",ОАО ПКК ВЕСНА,6311064600,"443036, Самарская обл., г. Самара, ул. Неверова, д. 33", 53.182965, 50.124265,20.42,Производство парфюмерных и косметических средств,https://spark-interfax.ru/samarskaya-oblast-samara/pao-vesna-inn-6311064600-ogrn-1036300007260-f2f4b94b7c5b4bc7bb93208991618281
"ОБЩЕСТВО С ОГРАНИЧЕННОЙ ОТВЕТСТВЕННОСТЬЮ ""АЭЛИТА""",ООО АЭЛИТА,6372024355,"446450, Самарская обл., г. Похвистнево, ул. Революционная, д. 42Б", 53.652116, 52.123639,46.21,"Торговля оптовая зерном, необработанным табаком, семенами и кормами для сельскохозяйственных животных",https://spark-interfax.ru/samarskaya-oblast-pokhvistnevo/ooo-aelita-inn-6372024355-ogrn-1176313061154-591525d4cacc5bb9e0531c9aa8c084ba
"ЗАКРЫТОЕ АКЦИОНЕРНОЕ ОБЩЕСТВО "" ГРАЧЕВСКОЕ""",ЗАО ГРАЧЕВСКОЕ,6371005494,"446421, Самарская обл., Кинельский район, с. Грачевка, ул. Пролетарская", 53.160622, 51.112474,01.11.1,Выращивание зерновых культур,https://spark-interfax.ru/samarskaya-oblast-kinelski-raion/ao-grachevskoe-inn-6371005494-ogrn-1026303273468-509f0d71c8934bc08be720aa082a324b
"КРЕСТЬЯНСКОЕ ХОЗЯЙСТВО "" КОЛОС""",КХ КОЛОС,1026303279001,"446442, Самарская обл., г. Кинель, пгт. Усть-Кинельский, ул. Тимирязева, д. 2 кв. 37", 53.267588, 50.566733,01.1,Выращивание однолетних культур,https://spark-interfax.ru/samarskaya-oblast-kinel/kolos-inn-6371002253-ogrn-1026303279001-6178895e88217e1ce0531b9aa8c027ab
"ОБЩЕСТВО С ОГРАНИЧЕННОЙ ОТВЕТСТВЕННОСТЬЮ ""АСС""",ООО АСС,6345021281,"445365, Самарская обл., г. Жигулевск, с. Богатырь, ул. Управленческая, д. 1", 53.428551, 49.964263,10.6,"Производство продуктов мукомольной и крупяной промышленности, крахмала и крахмалосодержащих продуктов",https://spark-interfax.ru/samarskaya-oblast-zhigulevsk/ooo-ass-inn-6345021281-ogrn-1106382003254-58e07b566d47429f809be4d120f030b6
КРЕСТЬЯНСКОЕ (ФЕРМЕРСКОЕ) ХОЗЯЙСТВО САМОДУРОВА ВЛАДИМИРА ВЛАДИМИРОВИЧА,КФХ САМОДУРОВА В.В.,1026303860329,"446640, Самарская обл., Алексеевский район, с. Новотроевка, ул. Пролетарская, д. 36", 52.540223, 51.315539,01.1,Выращивание однолетних культур,https://spark-interfax.ru/samarskaya-oblast-alekseevski-raion/kfkh-samodurova-v-v-inn-6361000521-ogrn-1026303860329-6906d957851d226ae0531b9aa8c04bb6
КРЕСТЬЯНСКОЕ (ФЕРМЕРСКОЕ) ХОЗЯЙСТВО САМОДУРОВА АЛЕКСАНДРА ВЛАДИМИРОВИЧА,КФХ САМОДУРОВА А.В.,1026303860318,"446640, Самарская обл., Алексеевский район, с. Новотроевка, ул. Пролетарская", 52.540223, 51.315539,01.1,Выращивание однолетних культур,https://spark-interfax.ru/samarskaya-oblast-alekseevski-raion/kfkh-samodurova-a-v-inn-6361000514-ogrn-1026303860318-6906d957e0ca226ae0531b9aa8c04bb6
"ОБЩЕСТВО С ОГРАНИЧЕННОЙ ОТВЕТСТВЕННОСТЬЮ ""ОКЕАН""",ООО ОКЕАН,6321329038,"445030, Самарская обл, г.о. Тольятти, г Тольятти, ул 40 лет Победы, д. 17Г, кв. 12", 53.536392, 49.358525,01.11,"Выращивание зерновых (кроме риса), зернобобовых культур и семян масличных культур",https://spark-interfax.ru/samarskaya-oblast-tolyatti/ooo-okean-inn-6321329038-ogrn-1136320024037-b519fededd324391b44bc9b1d313f917
"ОБЩЕСТВО С ОГРАНИЧЕННОЙ ОТВЕТСТВЕННОСТЬЮ ""АГРОСЕРВИС""",ООО АГРОСЕРВИС,6319150210,"443092, Самарская обл., г. Самара, ул. Физкультурная, д. 147 литера Г, офис 209", 53.217055, 50.263081,01.1,Выращивание однолетних культур,https://spark-interfax.ru/samarskaya-oblast-samara/ooo-agroservis-inn-6319150210-ogrn-1116319003096-44ff548a0d20447f8809f259f6690bc5
"АКЦИОНЕРНОЕ ОБЩЕСТВО ""КОМБИКОРМ""",АО КОМБИКОРМ,6357030530,"446450, Самарская обл., г. Похвистнево, ул. Промышленная, д. 4", 53.643136, 52.167388,01.11,"Выращивание зерновых (кроме риса), зернобобовых культур и семян масличных культур",https://spark-interfax.ru/samarskaya-oblast-pokhvistnevo/pao-kombikorm-inn-6357030530-ogrn-1046301950782-3d863d53197e4927862f445fc747ec88
"ПУБЛИЧНОЕ АКЦИОНЕРНОЕ ОБЩЕСТВО ""КУЙБЫШЕВАЗОТ""",ПАО КУЙБЫШЕВАЗОТ,6320005915,"445007, Самарская обл., г. Тольятти, ул. Новозаводская, д. 6", 53.556199, 49.450568,20.16,Производство пластмасс и синтетических смол в первичных формах,https://spark-interfax.ru/samarskaya-oblast-tolyatti/pao-kuibyshevazot-inn-6320005915-ogrn-1036300992793-080404329c6745a18ed3fbd3e18b08d4
"ОБЩЕСТВО С ОГРАНИЧЕННОЙ ОТВЕТСТВЕННОСТЬЮ ""ФЕНИКС""",ООО ФЕНИКС,7743197832,"125080, г. Москва, шоссе Волоколамское, д. 1 стр. 1 пом. IV ком. 33", 55.806450, 37.505284,62.01,Разработка компьютерного программного обеспечения,https://spark-interfax.ru/moskva-sokol/ooo-feniks-inn-7743197832-ogrn-1177746235688-e1d288d4e40946c6ab69ddddc945d02b
"АВТОНОМНАЯ НЕКОММЕРЧЕСКАЯ ОРГАНИЗАЦИЯ ""ЦЕНТР КУЛЬТУРНОГО И СПОРТИВНОГО РАЗВИТИЯ ""СТРАНА БУДУЩЕГО""",АНО СТРАНА БУДУЩЕГО,1236300014334,"443075, Самарская обл, г.о. Самара, вн.р-н Красноглинский, г Самара, мкр. Крутые Ключи, ул Мира, д. 83, кв. 65", 53.308380, 50.315571,94.99.6,Деятельность организаций по проведению культурных и развлекательных мероприятий,https://spark-interfax.ru/samarskaya-oblast-samara/ano-strana-budushchego-inn-6313562150-ogrn-1236300014334-fd45fc0726425b9de053259aa8c03522
"ОБЩЕСТВО С ОГРАНИЧЕННОЙ ОТВЕТСТВЕННОСТЬЮ ""НАУЧНО-ПРОИЗВОДСТВЕННОЕ ОБЪЕДИНЕНИЕ""РУБИН""",ООО НПОРУБИН,6330042641,"443092, Самарская обл, г.о. Самара, вн.р-н Промышленный, г Самара, ул Литвинова, д. 386", 53.224135, 50.293611,28.30,Производство машин и оборудования для сельского и лесного хозяйства,https://spark-interfax.ru/samarskaya-oblast-samara/ooo-nporubin-inn-6330042641-ogrn-1106330002680-164be445f6ba4ef0a4078f8a3e9a16ac
"ОБЩЕСТВО С ОГРАНИЧЕННОЙ ОТВЕТСТВЕННОСТЬЮ ""САМАРСКИЕ ЭКО ФЕРМЫ""",ООО САМАРСКИЕ ЭКО ФЕРМЫ,6330093847,"445541, Самарская обл, м.р-н Приволжский, с.п. Ильмень, п Ильмень, ул 60 лет Октября, д. 25, кв. 2", 52.907149, 48.746985,01.13.1,Выращивание овощей,https://spark-interfax.ru/samarskaya-oblast-privolzhski-raion/ooo-samarskie-eko-fermy-inn-6330093847-ogrn-1216300019143-c037694b7c317af9e053219aa8c03f08
"ОБЩЕСТВО С ОГРАНИЧЕННОЙ ОТВЕТСТВЕННОСТЬЮ ""ОВОЩПРОМ""",ООО ОВОЩПРОМ,6330093653,"445560, Самарская обл, м.р-н Приволжский, с.п. Приволжье, с Приволжье, ул Лермонтова, д. 54", 52.857245, 48.616851,01.13.1,Выращивание овощей,https://spark-interfax.ru/samarskaya-oblast-privolzhski-raion/ooo-ovoshchprom-inn-6330093653-ogrn-1216300014556-be90f6992d741d2de053219aa8c022d2
"НЕКОММЕРЧЕСКОЕ ПАРТНЕРСТВО ""СОЮЗ КАРТОФЕЛЕВОДОВ САМАРСКОЙ ОБЛАСТИ""",НП СК СО,1116300005700,"443538, Самарская обл., Волжский район, пос. Черновский, тер. Центральная Контора Зао Схп Черновский", 53.184225, 50.459119,94.11,Деятельность предпринимательских членских некоммерческих организаций,https://spark-interfax.ru/samarskaya-oblast-volzhski-raion/np-sk-so-inn-6330044342-ogrn-1116300005700-6906d959492a226ae0531b9aa8c04bb6
"САМАРСКАЯ РЕГИОНАЛЬНАЯ ОБЩЕСТВЕННАЯ ОРГАНИЗАЦИЯ СОДЕЙСТВИЯ ГАРМОНИЗАЦИИ МЕЖНАЦИОНАЛЬНЫХ ОТНОШЕНИЙ ""АЗЕРБАЙДЖАН""",СРОО СГМО АЗЕРБАЙДЖАН,1146300000197,"443082, Самарская обл., г. Самара, ул. Новоурицкая, д. 28", 53.182515, 50.154357,94.99,"Деятельность прочих общественных организаций и некоммерческих организаций, кроме религиозных и политических организаций",https://spark-interfax.ru/samarskaya-oblast-samara/oo-azerbaidzhan-inn-6311998417-ogrn-1146300000197-6906d95994dc226ae0531b9aa8c04bb6
"ТОЛЬЯТТИНСКАЯ ГОРОДСКАЯ ОБЩЕСТВЕННАЯ ОРГАНИЗАЦИЯ ""СПОРТИВНЫЙ КЛУБ ""МЕГА-ЛАДА""",СПОРТИВНЫЙ КЛУБ МЕГА-ЛАДА,1036303389737,"445020, Самарская обл., г. Тольятти, ул. Родины, владение 40", 53.499349, 49.389743,94.99,"Деятельность прочих общественных организаций и некоммерческих организаций, кроме религиозных и политических организаций",https://spark-interfax.ru/samarskaya-oblast-tolyatti/oo-sportivny-klub-mega-lada-inn-6323038482-ogrn-1036303389737-6906d957b81a226ae0531b9aa8c04bb6
"ОБЩЕСТВО С ОГРАНИЧЕННОЙ ОТВЕТСТВЕННОСТЬЮ ""СИТИФРУКТ""",ООО СИТИФРУКТ,6319177973,"443063, Самарская обл., г. Самара, туп. Ново-Вокзальный, д. 21/36 ком. 24", 53.217042, 50.240575,46.31,Торговля оптовая фруктами и овощами,https://spark-interfax.ru/samarskaya-oblast-samara/ooo-sitifrukt-inn-6319177973-ogrn-1136319012334-43d40a3a31bc4b9687872185cd008f86
"ОБЩЕСТВО С ОГРАНИЧЕННОЙ ОТВЕТСТВЕННОСТЬЮ СЕЛЬСКОХОЗЯЙСТВЕННОЕ ПРЕДПРИЯТИЕ ""ПЧЕЛКА""",ООО СХП ПЧЕЛКА,6372014854,"446351, Самарская обл., с. Кинель-Черкассы, ул. Московская, д. 1 кв. 7", 53.464880, 51.519280,01.50,Смешанное сельское хозяйство,https://spark-interfax.ru/samarskaya-oblast-kinel-cherkasski-raion/ooo-pchelka-inn-6372014854-ogrn-1106372000360-6178895f1db37e1ce0531b9aa8c027ab
"ОБЩЕСТВО С ОГРАНИЧЕННОЙ ОТВЕТСТВЕННОСТЬЮ ""СПУТНИК""",ООО СПУТНИК,6369010722,"446923, Самарская обл., Шенталинский район, с. Салейкино, ул. Советская, д. 48", 54.598319, 51.522710,47.1,Торговля розничная в неспециализированных магазинах,https://spark-interfax.ru/samarskaya-oblast-shentalinski-raion/ooo-sputnik-inn-6369010722-ogrn-1066369002116-cfb2cfd3f0774098b4321fd8ff8157bd
"КОЛХОЗ ""ИСКРА""",КОЛХОЗ ИСКРА,6373000741,"446960, Самарская обл., Клявлинский район, с. Борискино-Игар, ул. Школьная, домовладение 2", 54.234754, 51.812967,01.1,Выращивание однолетних культур,https://spark-interfax.ru/samarskaya-oblast-klyavlinski-raion/kolkhoz-iskra-inn-6373000741-ogrn-1026303655817-55936687d8734e8687b7ab30cbd6a9e2
"ОБЩЕСТВО С ОГРАНИЧЕННОЙ ОТВЕТСТВЕННОСТЬЮ ""ДЕКОР-ГРАНИТ""",ООО ДЕКОР-ГРАНИТ,6382059170,"445149, Самарская обл., Ставропольский район, с. Зеленовка, ул. Полевая, д. 20", 53.511634, 49.608845,23.70.2,"Резка, обработка и отделка камня для памятников",https://spark-interfax.ru/samarskaya-oblast-stavropolski-raion/ooo-dekor-granit-inn-6382059170-ogrn-1106382001505-8406f57ba1914ee7a89138ca2c14dd56
"ОБЩЕСТВО С ОГРАНИЧЕННОЙ ОТВЕТСТВЕННОСТЬЮ ""ПЛЕМЕННОЙ ЗАВОД ""ДРУЖБА""",ООО ПЛЕМЕННОЙ ЗАВОД ДРУЖБА,6381030725,"446821, Самарская обл., Кошкинский район, с. Орловка, ул. Октябрьская, д. 12", 54.180520, 50.326545,10.51,Производство молока (кроме сырого) и молочной продукции,https://spark-interfax.ru/samarskaya-oblast-koshkinski-raion/ooo-plemennoi-zavod-druzhba-inn-6381030725-ogrn-1146381000083-b464aaab92e443acb617d4e17ee0f17b
"ОБЩЕСТВО С ОГРАНИЧЕННОЙ ОТВЕТСТВЕННОСТЬЮ ""ВОЛГА-АГРО""",ООО ВОЛГА-АГРО,6381008462,"446543, Самарская обл., Сергиевский район, с. Орловка", 53.694877, 50.878372,01.50,Смешанное сельское хозяйство,https://spark-interfax.ru/samarskaya-oblast-sergievski-raion/ooo-volga-agro-inn-6381008462-ogrn-1046303160199-e0ae19f77a62455a92b88f4b676ce963
"ОБЩЕСТВО С ОГРАНИЧЕННОЙ ОТВЕТСТВЕННОСТЬЮ ""ХРЯЩЕВКА""",ООО ХРЯЩЕВКА,6382074348,"445147, Самарская обл., Ставропольский район, пос. Висла, ул. Центральная, д. 2", 53.739147, 49.091341,01.13.1,Выращивание овощей,https://spark-interfax.ru/samarskaya-oblast-stavropolski-raion/ooo-khryashchevka-inn-6382074348-ogrn-1176313005571-3db5093a059b4103a959daebb22143a7
"КРЕСТЬЯНСКОЕ (ФЕРМЕРСКОЕ) ХОЗЯЙСТВО ""МАРГАРИТКА""",КФХ МАРГАРИТКА,1226300021386,"446632, Самарская обл, м.р-н Богатовский, с.п. Виловатое, с Андреевка, ул Чапаева, двлд. 29", 53.004945, 51.323781,01.41,"Разведение молочного крупного рогатого скота, производство сырого молока",https://spark-interfax.ru/samarskaya-oblast-bogatovski-raion/kfkh-margaritka-inn-6377017224-ogrn-1226300021386-df91ebef1f5e06f8e053259aa8c01350
"КРЕСТЬЯНСКОЕ ХОЗЯЙСТВО ""РОСТОВСКОЕ""",КХ РОСТОВСКОЕ,1036301840959,"446420, Самарская обл., Кинельский район, с. Александровка, ул. Александрова, д. 89", 53.109385, 51.075663,01.1,Выращивание однолетних культур,https://spark-interfax.ru/samarskaya-oblast-kinelski-raion/rostovskoe-inn-6371001108-ogrn-1036301840959-6178895e846c7e1ce0531b9aa8c027ab
"ОБЩЕСТВО С ОГРАНИЧЕННОЙ ОТВЕТСТВЕННОСТЬЮ ""СКОРПИОН""",ООО СКОРПИОН,6362007569,"446250, Самарская обл., Безенчукский район, пгт. Безенчук, ул. Ломоносова, д. 12 стр. 1", 52.980574, 49.446430,01.13.3,Выращивание столовых корнеплодных и клубнеплодных культур с высоким содержанием крахмала или инулина,https://spark-interfax.ru/samarskaya-oblast-bezenchukski-raion/ooo-skorpion-inn-6362007569-ogrn-1026303888247-d9731748c388473e92afe410aafb25fc
АДМИНИСТРАЦИЯ СЕЛЬСКОГО ПОСЕЛЕНИЯ РЫСАЙКИНО МУНИЦИПАЛЬНОГО РАЙОНА ПОХВИСТНЕВСКИЙ САМАРСКОЙ ОБЛАСТИ,АДМИНИСТРАЦИЯ СЕЛЬСКОГО ПОСЕЛЕНИЯ РЫСАЙКИНО МУНИЦИПАЛЬНОГО РАЙОНА ПОХВИСТНЕВСКИЙ САМАРСКОЙ ОБЛАСТИ,1056357011116,"446495, Самарская обл., Похвистневский район, с. Рысайкино, ул. Ижедерова, д. 61-А", 53.751173, 52.230374,84.11.35,Деятельность органов местного самоуправления городских округов,https://spark-interfax.ru/samarskaya-oblast-pokhvistnevski-raion/mku-administratsiya-selskogo-poseleniya-rysaikino-munitsipalnogo-raiona-pokhvistnevski-samarskoi-oblasti-inn-6357910278-ogrn-6906d9589e42226ae0531b9aa8c04bb6
СОБРАНИЕ ПРЕДСТАВИТЕЛЕЙ СЕЛЬСКОГО ПОСЕЛЕНИЯ НОВОЕ МАНСУРКИНО МУНИЦИПАЛЬНОГО РАЙОНА ПОХВИСТНЕВСКИЙ САМАРСКОЙ ОБЛАСТИ,СОБРАНИЕ ПРЕДСТАВИТЕЛЕЙ ПОСЕЛЕНИЯ,1056357005704,"446474, Самарская обл., Похвистневский район, с. Новое Мансуркино, ул. Ленина, д. 91 к. А", 53.881432, 51.852955,84.11.35,Деятельность органов местного самоуправления городских округов,https://spark-interfax.ru/samarskaya-oblast-pokhvistnevski-raion/mku-sobranie-predstavitelei-poseleniya-inn-6357910091-ogrn-1056357005704-6906d9589a0c226ae0531b9aa8c04bb6
"ОБЩЕСТВО С ОГРАНИЧЕННОЙ ОТВЕТСТВЕННОСТЬЮ ""СЕВЕРНАЯ НИВА САМАРА""",ООО СЕВЕРНАЯ НИВА САМАРА,6381021150,"446960, Самарская обл., Клявлинский район, ст. Клявлино, ул. Октябрьская, д. 58 к. Б каб. 1", 54.264521, 52.025363,01.50,Смешанное сельское хозяйство,https://spark-interfax.ru/samarskaya-oblast-klyavlinski-raion/ooo-severnaya-niva-samara-inn-6381021150-ogrn-1206300012698-9f3663a5e1165c9be053179aa8c0b045
"ОБЩЕСТВО С ОГРАНИЧЕННОЙ ОТВЕТСТВЕННОСТЬЮ ""БОГАТОВСКИЙ МОЛСЫРЗАВОД""",ООО БОГАТОВСКИЙ МОЛСЫРЗАВОД,6377010324,"443022, Самарская обл., г. Самара, ул. Кирова, д. 2 кв. 1", 53.211121, 50.262821,10.51,Производство молока (кроме сырого) и молочной продукции,https://spark-interfax.ru/samarskaya-oblast-samara/ooo-bogatovski-molsyrzavod-inn-6377010324-ogrn-1086377000170-6178895eeaaf7e1ce0531b9aa8c027ab
"АКЦИОНЕРНОЕ ОБЩЕСТВО ""СУПЕР - АВТО ХОЛДИНГ""",АО СУПЕР - АВТО ХОЛДИНГ,6321277164,"445044, Самарская обл, г.о. Тольятти, г Тольятти, ул Офицерская, влд. 84, помещ. 1", 53.538151, 49.305974,29.10,Производство автотранспортных средств,https://spark-interfax.ru/samarskaya-oblast-tolyatti/ao-super-avto-kholding-inn-6321277164-ogrn-1116320025250-c3e6da15f92c401a97e27c3bc0e9ddab
"ОБЩЕСТВО С ОГРАНИЧЕННОЙ ОТВЕТСТВЕННОСТЬЮ ""ЗД КУБ""",ООО ЗД КУБ,6316180488,"443086, Самарская обл., г. Самара, шоссе Московское, д. 34 офис 210 А", 53.211990, 50.177631,72.19,Научные исследования и разработки в области естественных и технических наук прочие,https://spark-interfax.ru/samarskaya-oblast-samara/ooo-zd-kub-inn-6316180488-ogrn-1126316010072-4ac7ec2b97c14903830dcc0ae565b0a5
"ОБЩЕСТВО С ОГРАНИЧЕННОЙ ОТВЕТСТВЕННОСТЬЮ ""АЭРОКОСМИЧЕСКИЕ ТЕХНОЛОГИИ""",ООО АЭРОКОСМИЧЕСКИЕ ТЕХНОЛОГИИ,6316176900,"443011, Самарская обл., г. Самара, ул. Академика Павлова, д. 1 литера В ком. 105", 53.222615, 50.173045,72.19,Научные исследования и разработки в области естественных и технических наук прочие,https://spark-interfax.ru/samarskaya-oblast-samara/ooo-aerokosmicheskie-tekhnologii-inn-6316176900-ogrn-1126316006277-af5e83c660f946a38dab8ef6de21bbf3
"ОБЩЕСТВО С ОГРАНИЧЕННОЙ ОТВЕТСТВЕННОСТЬЮ ""БИЛДИНГ СТРОЙ ГРОУП""",ООО БСГ,6321153698,"445043, Самарская обл., г. Тольятти, ул. Вокзальная, владение 44 стр. 5", 53.571720, 49.300538,28.30.3,Производство машин и сельскохозяйственного оборудования для обработки почвы,https://spark-interfax.ru/samarskaya-oblast-tolyatti/ooo-bsg-inn-6321153698-ogrn-1056320190926-295092e3a9c24a9dac363486076adeaa
"ОБЩЕСТВО С ОГРАНИЧЕННОЙ ОТВЕТСТВЕННОСТЬЮ ""ПРОММОЛ""",ООО ПРОММОЛ,6382069676,"445130, Самарская обл, м.р-н Ставропольский, с.п. Васильевка, с Васильевка, ул Мира, зд. 71, ком. 14", 53.554850, 49.532439,01.41,"Разведение молочного крупного рогатого скота, производство сырого молока",https://spark-interfax.ru/samarskaya-oblast-stavropolski-raion/ooo-prommol-inn-6382069676-ogrn-1156382000598-3f74969dd80b42bbb11aa969542e41dd
"СЕЛЬСКОХОЗЯЙСТВЕННЫЙ ПРОИЗВОДСТВЕННЫЙ КООПЕРАТИВ ""КОММУНАР""",СПК КОММУНАР,6369000428,"446592, Самарская обл., Исаклинский район, с. Большое Микушкино, ул. Советская, д. 96", 53.945000, 51.684613,01.11.1,Выращивание зерновых культур,https://spark-interfax.ru/samarskaya-oblast-isaklinski-raion/koop-kommunar-inn-6369000428-ogrn-1026303657170-9cfeba6d4c6f4908957b6e4a9c01e7ee
"ТЕРРИТОРИАЛЬНОЕ ОБЪЕДИНЕНИЕ РАБОТОДАТЕЛЕЙ МУНИЦИПАЛЬНОГО РАЙОНА ХВОРОСТЯНСКИЙ САМАРСКОЙ ОБЛАСТИ ""СОЮЗ РАБОТОДАТЕЛЕЙ""",ТОР СР ХВОРОСТЯНСКОГО РАЙОНА,1186313037680,"445590, Самарская обл., Хворостянский район, с. Хворостянка, пл. Плясункова, д. 1", 52.614011, 48.962556,94.12,Деятельность профессиональных членских организаций,https://spark-interfax.ru/samarskaya-oblast-khvorostyanski-raion/obedinenie-sr-khvorostyanskogo-raiona-inn-6330081810-ogrn-1186313037680-6a685f5a906e468ee0531b9aa8c0c650
КОШКИНСКОЕ РАЙОННОЕ ПОТРЕБИТЕЛЬСКОЕ ОБЩЕСТВО,КОШКИНСКОЕ РАЙОННОЕ ПОТРЕБИТЕЛЬСКОЕ ОБЩЕСТВО,6374000857,"446800, Самарская обл, м.р-н Кошкинский, с.п. Кошки, с Кошки, ул 60 лет Октября, влд. 43А", 54.205790, 50.467547,47.19,Торговля розничная прочая в неспециализированных магазинах,https://spark-interfax.ru/samarskaya-oblast-koshkinski-raion/pob-koshkinskoe-raionnoe-potrebitelskoe-obshchestvo-inn-6374000857-ogrn-1026303765971-6906d9577557226ae0531b9aa8c04bb6
"ОБЩЕСТВО С ОГРАНИЧЕННОЙ ОТВЕТСТВЕННОСТЬЮ ""ХЛЕБОКОМБИНАТ""",ООО ХЛЕБОКОМБИНАТ,6374006464,"446800, Самарская обл., Кошкинский район, с. Кошки, ул. 60 Лет Октября, д. 43А", 54.205790, 50.467547,10.71,"Производство хлеба и мучных кондитерских изделий, тортов и пирожных недлительного хранения",https://spark-interfax.ru/samarskaya-oblast-koshkinski-raion/ooo-khlebokombinat-inn-6374006464-ogrn-1036302720893-be55ada7445b42d5ae029ba0116b5689
"ОБЩЕСТВО С ОГРАНИЧЕННОЙ ОТВЕТСТВЕННОСТЬЮ ""ШЕНТАЛИНСКОЕ""",ООО ШЕНТАЛИНСКОЕ,6386002464,"446910, Самарская обл., Шенталинский район, ст. Шентала, ул. Вокзальная, д. 8", 54.434093, 51.466306,10.71.1,Производство хлеба и хлебобулочных изделий недлительного хранения,https://spark-interfax.ru/samarskaya-oblast-shentalinski-raion/ooo-shentalinskoe-inn-6386002464-ogrn-1026303655971-d251f0948a324ea9989877b36b44a2cc
"СЕЛЬСКОХОЗЯЙСТВЕННЫЙ ПРОИЗВОДСТВЕННЫЙ КООПЕРАТИВ ""СУРГУТ""",СПК СУРГУТ,6369010480,"446596, Самарская обл., Исаклинский район, д. Ганькин Матак, ул. Советская, зд. 34", 53.921170, 51.789830,01.1,Выращивание однолетних культур,https://spark-interfax.ru/samarskaya-oblast-isaklinski-raion/koop-surgut-inn-6369010480-ogrn-1066369001643-42c447dac06b481e9ac2a4f807fe3374
"КРЕСТЬЯНСКОЕ (ФЕРМЕРСКОЕ) ХОЗЯЙСТВО ""МОЛОЧНЫЙ РОДНИК""",КФХ МОЛОЧНЫЙ РОДНИК,1226300019065,"445581, Самарская обл, м.р-н Хворостянский, с.п. Владимировка, с Владимировка, ул В.Суркова, д. 7, к. А", 52.709149, 48.931936,01.41,"Разведение молочного крупного рогатого скота, производство сырого молока",https://spark-interfax.ru/samarskaya-oblast-khvorostyanski-raion/kfkh-molochny-rodnik-inn-6330097111-ogrn-1226300019065-ddeb7955ee9a3cf2e053259aa8c0dcbb
"ОБЩЕСТВО С ОГРАНИЧЕННОЙ ОТВЕТСТВЕННОСТЬЮ ""ЧЕЛНО-ВЕРШИНСКИЙ РЫБО-МЯСОКОМБИНАТ""",ООО ЧЕЛНО-ВЕРШИНСКИЙ РЫБО-МЯСОКОМБИНАТ,6381009018,"446840, Самарская обл., Челно-Вершинский район, с. Челно-Вершины, ул. Шоссейная, д. 2", 54.422436, 51.097230,47.1,Торговля розничная в неспециализированных магазинах,https://spark-interfax.ru/samarskaya-oblast-chelno-vershinski-raion/ooo-chelno-vershinski-rybo-myasokombinat-inn-6381009018-ogrn-1056381001269-6178895ea23b7e1ce0531b9aa8c027ab
"ОБЩЕСТВО С ОГРАНИЧЕННОЙ ОТВЕТСТВЕННОСТЬЮ ""ТОФИ""",ООО ТОФИ,6382031866,"445004, Самарская обл., г. Тольятти, шоссе Автозаводское, д. 47 офис 146", 53.530720, 49.395295,69.20.2,Деятельность по оказанию услуг в области бухгалтерского учета,https://spark-interfax.ru/samarskaya-oblast-tolyatti/ooo-tofi-inn-6382031866-ogrn-1026303945612-d0a82c4ceb7a4eeea50783ded611af8a
"ЗАКРЫТОЕ АКЦИОНЕРНОЕ ОБЩЕСТВО ""СОДЕК""",ЗАО СОДЕК,6316172198,"443029, Самарская обл., г. Самара, просека 5-Я, д. 102 кв. 5", 53.244281, 50.184427,41.20,Строительство жилых и нежилых зданий,https://spark-interfax.ru/samarskaya-oblast-samara/ao-sodek-inn-6316172198-ogrn-1126316001426-b427a4cfdb2649748b0032da982cf760
"ОБЩЕСТВО С ОГРАНИЧЕННОЙ ОТВЕТСТВЕННОСТЬЮ ""ЛЭНГВИЧ ЛИНК САМАРА""",ООО ЛЭНГВИЧ ЛИНК САМАРА,6317120273,"443099, Самарская обл., г. Самара, ул. Степана Разина, д. 89 пом. Н8", 53.190275, 50.088995,70.22,Консультирование по вопросам коммерческой деятельности и управления,https://spark-interfax.ru/samarskaya-oblast-samara/ooo-lengvich-link-samara-inn-6317120273-ogrn-1176313066490-591525d4ccc05bb9e0531c9aa8c084ba
"ОБЩЕСТВО С ОГРАНИЧЕННОЙ ОТВЕТСТВЕННОСТЬЮ ""ИНФРА-СОЮЗ""",ООО ИНФРА-СОЮЗ,2801208406,"443067, Самарская обл., г. Самара, ул. Дыбенко, д. 36 кв. 207", 53.206919, 50.206614,93.29,Деятельность по организации отдыха и развлечений прочая,https://spark-interfax.ru/samarskaya-oblast-samara/ooo-infra-soyuz-inn-2801208406-ogrn-1152801004608-64a4c891a789488e9bd62874cf3c5200
"ФЕДЕРАЛЬНОЕ БЮДЖЕТНОЕ УЧРЕЖДЕНИЕ ЗДРАВООХРАНЕНИЯ ""ЦЕНТР ГИГИЕНЫ И ЭПИДЕМИОЛОГИИ В САМАРСКОЙ ОБЛАСТИ""",ФБУЗ ЦЕНТР ГИГИЕНЫ И ЭПИДЕМИОЛОГИИ В САМАРСКОЙ ОБЛАСТИ,1056316020155,"443079, Самарская обл., г. Самара, проезд Георгия Митирева, д. 1", 53.204829, 50.173209,86.90.1,Деятельность организаций санитарно-эпидемиологической службы,https://spark-interfax.ru/samarskaya-oblast-samara/fgbu-tsentr-gigieny-i-epidemiologii-v-samarskoi-oblasti-inn-6316098875-ogrn-1056316020155-6906d9588b51226ae0531b9aa8c04bb6
КРЕСТЬЯНСКО-ФЕРМЕРСКОЕ ХОЗЯЙСТВО МЕЛЬНИК В.И.,КФХ МЕЛЬНИК В.И.,6374001850,"446806, Самарская обл., Кошкинский район, с. Нижняя Быковка, ул. Победы, д. 16 кв. 2", 54.111035, 50.693144,01.1,Выращивание однолетних культур,https://spark-interfax.ru/samarskaya-oblast-koshkinski-raion/kfkh-melnik-v-i-inn-6374001850-ogrn-1026303769249-6906d957b21d226ae0531b9aa8c04bb6
"ОБЩЕСТВО С ОГРАНИЧЕННОЙ ОТВЕТСТВЕННОСТЬЮ ""ПЕРСПЕКТИВА ""КС""",ООО ПЕРСПЕКТИВА КС,6387005059,"446730, Самарская обл., Шигонский район, с. Муранка, ул. Молодежная, д. 10 офис 2", 53.328128, 48.813919,01.50,Смешанное сельское хозяйство,https://spark-interfax.ru/samarskaya-oblast-shigonski-raion/ooo-perspektiva-ks-inn-6387005059-ogrn-1046301262765-d8ab75902ab34645a5b70d92e1e05888
"ОБЩЕСТВО С ОГРАНИЧЕННОЙ ОТВЕТСТВЕННОСТЬЮ ""НЕПРИК""",ООО НЕПРИК,6377006840,"446663, Самарская обл., Борский район, пос. Новый Кутулук, ул. Больничная, д. 7 этаж 1 каб. 4", 53.199290, 51.615127,01.11,"Выращивание зерновых (кроме риса), зернобобовых культур и семян масличных культур",https://spark-interfax.ru/samarskaya-oblast-borski-raion/ooo-neprik-inn-6377006840-ogrn-1196313040626-881c2e880e9e2146e0531b9aa8c0b182
"ОБЩЕСТВО С ОГРАНИЧЕННОЙ ОТВЕТСТВЕННОСТЬЮ ""БЛАГОВЕЩЕНСКОЕ-АГРО""",ООО БЛАГОВЕЩЕНСКОЕ-АГРО,6382048517,"445151, Самарская обл., Ставропольский район, с. Кирилловка, ул. Советская, д. 24", 53.857513, 49.799125,01.11.1,Выращивание зерновых культур,https://spark-interfax.ru/samarskaya-oblast-stavropolski-raion/ooo-blagoveshchenskoe-agro-inn-6382048517-ogrn-1046303286655-f216286d101948f582033aa76e02e127
"ОБЩЕСТВО С ОГРАНИЧЕННОЙ ОТВЕТСТВЕННОСТЬЮ ""СТЕПНОЕ""",ООО СТЕПНОЕ,6377009576,"446613, Самарская обл., Нефтегорский район, с. Богдановка, ул. Фрунзе, д. 47", 52.706006, 50.758436,01.41,"Разведение молочного крупного рогатого скота, производство сырого молока",https://spark-interfax.ru/samarskaya-oblast-neftegorski-raion/ooo-stepnoe-inn-6377009576-ogrn-1076377000435-3a271f6509b84c87bb6e07fd4896f997
"ОБЩЕСТВО С ОГРАНИЧЕННОЙ ОТВЕТСТВЕННОСТЬЮ ""ВЕГА +""",ООО ВЕГА +,6375004981,"446150, Самарская обл., Красноармейский район, пос. Кировский, ул. Юбилейная, д. 10А", 52.675376, 49.854841,47.11,"Торговля розничная преимущественно пищевыми продуктами, включая напитки, и табачными изделиями в неспециализированных магазинах",https://spark-interfax.ru/samarskaya-oblast-krasnoarmeiski-raion/ooo-vega-inn-6375004981-ogrn-1026303780843-44f758d526cf42cc9510c58344a23fec
"ОБЩЕСТВО С ОГРАНИЧЕННОЙ ОТВЕТСТВЕННОСТЬЮ ""ПРОГРЕСС""",ООО ПРОГРЕСС,6367057475,"443530, Самарская обл., Волжский район, с. Дубовый Умет, ул. Советская, д. 122", 52.973223, 50.289849,01.1,Выращивание однолетних культур,https://spark-interfax.ru/samarskaya-oblast-volzhski-raion/ooo-progress-inn-6367057475-ogrn-1086367000280-13142aa08e1b4011a6f48e4f7a13119b
"КРЕСТЬЯНСКОЕ (ФЕРМЕРСКОЕ) ХОЗЯЙСТВО ""ФАУНА""",КФХ ФАУНА,1026303859394,"446611, Самарская обл., Нефтегорский район, с. Дмитриевка, ул. Водная, домовладение 40", 52.781265, 50.643056,01.11,"Выращивание зерновых (кроме риса), зернобобовых культур и семян масличных культур",https://spark-interfax.ru/samarskaya-oblast-neftegorski-raion/kfkh-fauna-inn-6377002193-ogrn-1026303859394-6906d957b0cf226ae0531b9aa8c04bb6
"ОБЩЕСТВО С ОГРАНИЧЕННОЙ ОТВЕТСТВЕННОСТЬЮ ""НИВА""",ООО НИВА,6377009495,"446649, Самарская обл., Алексеевский район, с. Корнеевка, ул. Центральная, домовладение 24", 52.709310, 51.366144,01.5,Смешанное сельское хозяйство,https://spark-interfax.ru/samarskaya-oblast-alekseevski-raion/ooo-niva-inn-6377009495-ogrn-1076377000347-32c632e17a8d4231be8999ceca346401
"ОБЩЕСТВО С ОГРАНИЧЕННОЙ ОТВЕТСТВЕННОСТЬЮ ""АГРОПРОДУКТ ПЛЮС""",ООО АГРОПРОДУКТ ПЛЮС,6321420760,"445148, Самарская обл, м.р-н Ставропольский, с.п. Выселки, с Выселки, ул Победы, зд. 62", 53.645520, 49.298186,01.11.2,Выращивание зернобобовых культур,https://spark-interfax.ru/samarskaya-oblast-stavropolski-raion/ooo-agroprodukt-plyus-inn-6321420760-ogrn-1166313156272-f335f565ccb843028085c9279e673473
"АКЦИОНЕРНОЕ ОБЩЕСТВО ""ОТРАДА""",АО ОТРАДА,6372000121,"446330, Самарская обл., Кинель-Черкасский район, с. Тимашево, ул. Молодежная, д. 5", 53.356477, 51.190597,01.41,"Разведение молочного крупного рогатого скота, производство сырого молока",https://spark-interfax.ru/samarskaya-oblast-kinel-cherkasski-raion/ao-otrada-inn-6372000121-ogrn-1026303715877-dad36e6b9ccf429e9b56af87901f016c
"ОБЩЕСТВО С ОГРАНИЧЕННОЙ ОТВЕТСТВЕННОСТЬЮ СЕЛЬСКОХОЗЯЙСТВЕННОЕ ПРЕДПРИЯТИЕ ""КАПК-ИНВЕСТ""",ООО СП КАПК-ИНВЕСТ,6381012395,"446561, Самарская обл, м.р-н Сергиевский, с.п. Красносельское, с Красносельское, ул Совхозная, зд. 8А", 54.032253, 50.930345,01.1,Выращивание однолетних культур,https://spark-interfax.ru/samarskaya-oblast-sergievski-raion/ooo-kapk-invest-inn-6381012395-ogrn-1086381000507-860e1d6a09074e25999ba2f7b108f964
"ОБЩЕСТВО С ОГРАНИЧЕННОЙ ОТВЕТСТВЕННОСТЬЮ ""КОННЫЙ ЗАВОД ЕРМАК""",ООО КОННЫЙ ЗАВОД ЕРМАК,6376024035,"446368, Самарская обл., Красноярский район, с. Колодинка, тер. Промышленная Площадка, зд. 1", 53.529919, 50.219711,01.43,Разведение лошадей и прочих животных семейства лошадиных отряда непарнокопытных,https://spark-interfax.ru/samarskaya-oblast-krasnoyarski-raion/ooo-konny-zavod-ermak-inn-6376024035-ogrn-1136376001167-7e6e746d50c549fba4e2d13be48030eb
КРЕСТЬЯНСКОЕ ФЕРМЕРСКОЕ ХОЗЯЙСТВО УБОГОВА ВАЛЕРИЯ АЛЕКСАНДРОВИЧА,КФХ УБОГОВА В.А.,1026303887950,"445551, Самарская обл., Приволжский район, пос. Золотая Гора", 53.120552, 48.915801,01.11.1,Выращивание зерновых культур,https://spark-interfax.ru/samarskaya-oblast-privolzhski-raion/ubogova-v-a-inn-6380001256-ogrn-1026303887950-6178895e8a907e1ce0531b9aa8c027ab
"СЕЛЬСКОХОЗЯЙСТВЕННЫЙ ПОТРЕБИТЕЛЬСКИЙ ПЕРЕРАБАТЫВАЮЩИЙ СНАБЖЕНЧЕСКИЙ СБЫТОВОЙ ОБСЛУЖИВАЮЩИЙ КООПЕРАТИВ ""ВОСТОК""",СППССОКВОСТОК,1196313085825,"446143, Самарская обл., Красноармейский район, с. Колывань, ул. Северная, д. 18", 52.914619, 50.021826,01.62,Предоставление услуг в области животноводства,https://spark-interfax.ru/samarskaya-oblast-krasnoarmeiski-raion/koop-vostok-inn-6375005199-ogrn-1196313085825-969b7c42d80a3dd4e0531b9aa8c03827
"ТЕРРИТОРИАЛЬНОЕ ОБЩЕСТВЕННОЕ САМОУПРАВЛЕНИЕ ""ВОСТОЧНЫЙ"" КИРОВСКОГО РАЙОНА ГОРОДСКОГО ОКРУГА САМАРА",ТОС ВОСТОЧНЫЙ,1026300774565,"443109, Самарская обл., г. Самара, ул. Воеводина, д. 14", 53.232837, 50.298451,88.10,Предоставление социальных услуг без обеспечения проживания престарелым и инвалидам,https://spark-interfax.ru/samarskaya-oblast-samara/tos-vostochny-inn-6312039501-ogrn-1026300774565-6906d9588f74226ae0531b9aa8c04bb6
"ОБЩЕСТВО С ОГРАНИЧЕННОЙ ОТВЕТСТВЕННОСТЬЮ СТУДИЯ ""ВОЛГА-ФИЛЬМ""",ООО СТУДИЯ ВОЛГА-ФИЛЬМ,6317001036,"443099, Самарская обл., г. Самара, ул. Куйбышева, д. 96", 53.189786, 50.090087,59.1,"Производство кинофильмов, видеофильмов и телевизионных программ",https://spark-interfax.ru/samarskaya-oblast-samara/ooo-volga-film-inn-6317001036-ogrn-1026301423180-d901fd8d1d6f493f9b7c25b6790072de
"ОБЩЕСТВО С ОГРАНИЧЕННОЙ ОТВЕТСТВЕННОСТЬЮ ""АГРАРНАЯ ПРОИЗВОДСТВЕННАЯ ФИРМА ""НОРОВ""",ООО АГРОФИРМА НОРОВ,1313000473,"431590, Мордовия респ., Кочкуровский район, пос. Ст. Воеводское, ул. Рабочая, д. 1", 54.031414, 45.434708,01.50,Смешанное сельское хозяйство,https://spark-interfax.ru/mordoviya-respublika-kochkurovski-raion/ooo-agrofirma-norov-inn-1313000473-ogrn-1171326004332-cc2b5f1731b748168081b60611b1eae0
"СЕЛЬСКОХОЗЯЙСТВЕННЫЙ ПОТРЕБИТЕЛЬСКИЙ СНАБЖЕНЧЕСКО-СБЫТОВОЙ КООПЕРАТИВ ""ВОСХОД""",СПССК ВОСХОД,1306076256,"431770, Мордовия респ., Дубенский район, с. Дубенки, ул. Бровцева, д. 136", 54.429802, 46.309820,47.11.2,"Торговля розничная незамороженными продуктами, включая напитки и табачные изделия, в неспециализированных магазинах",https://spark-interfax.ru/mordoviya-respublika-dubenski-raion/koop-voskhod-inn-1306076256-ogrn-1071322000155-6906d9ac83f4226ae0531b9aa8c04bb6
"ОБЩЕСТВО С ОГРАНИЧЕННОЙ ОТВЕТСТВЕННОСТЬЮ ""АГРОГЛУШКОВО""",ООО АГРОГЛУШКОВО,1311000196,"431902, Мордовия респ., Кадошкинский район, с. Глушково, ул. Центральная, д. 71", 54.024770, 44.263414,01.11,"Выращивание зерновых (кроме риса), зернобобовых культур и семян масличных культур",https://spark-interfax.ru/mordoviya-respublika-kadoshkinski-raion/ooo-agroglushkovo-inn-1311000196-ogrn-1171326008501-5e4e61cfc9b95e8be0531b9aa8c0095f
"ОБЩЕСТВО С ОГРАНИЧЕННОЙ ОТВЕТСТВЕННОСТЬЮ ""1 МАЯ""",ООО 1 МАЯ,1300001984,"431637, Мордовия Респ, м.р-н Ичалковский, с.п. Оброчинское, с Ульянка, ул Гагарина, д. 22", 54.654562, 45.359367,01.13.51,Выращивание сахарной свеклы,https://spark-interfax.ru/mordoviya-respublika-ichalkovski-raion/ooo-maya-inn-1300001984-ogrn-1221300003407-9ae60d8d87844fea8f2ff5f82b9c1503
"ОБЩЕСТВО С ОГРАНИЧЕННОЙ ОТВЕТСТВЕННОСТЬЮ ""ЧЕЛМАЙДАНСКОЕ""",ООО ЧЕЛМАЙДАНСКОЕ,1309000142,"431438, Мордовия респ., Инсарский район, с. Челмодеевский Майдан, ул. Центральная, зд. 28", 53.894085, 44.218167,01.50,Смешанное сельское хозяйство,https://spark-interfax.ru/mordoviya-respublika-insarski-raion/ooo-chelmaidanskoe-inn-1309000142-ogrn-1171326006576-52be4469e6f4479e8d902cb5c390915e
"КРЕСТЬЯНСКОЕ (ФЕРМЕРСКОЕ) ХОЗЯЙСТВО ""СИГНАЛ""",КРЕСТЬЯНСКОЕ (ФЕРМЕРСКОЕ) ХОЗЯЙСТВО СИГНАЛ,1021300549720,"431865, Мордовия респ., Ардатовский район, с. Манадыши 2-Е, ул. Луговая, д. 5", 54.770381, 45.985256,01.11.1,Выращивание зерновых культур,https://spark-interfax.ru/mordoviya-respublika-ardatovski-raion/kfkh-signal-inn-1301008975-ogrn-1021300549720-6906d9aca1a1226ae0531b9aa8c04bb6
"ОБЩЕСТВО С ОГРАНИЧЕННОЙ ОТВЕТСТВЕННОСТЬЮ ""АГРОРЕСУРС""",ООО АГРОРЕСУРС,1310187505,"431650, Мордовия респ., Ичалковский район, д. Инсаровка, ул. Хилковская, зд. 1", 54.583584, 45.402020,01.11.1,Выращивание зерновых культур,https://spark-interfax.ru/mordoviya-respublika-ichalkovski-raion/ooo-agroresurs-inn-1310187505-ogrn-1071310000024-eb9faf98947846f9a51fa2a8ce309685
"ОБЩЕСТВО С ОГРАНИЧЕННОЙ ОТВЕТСТВЕННОСТЬЮ ""РОДНИК К""",ООО РОДНИК К,1321117901,"431030, Мордовия Респ, м.р-н Торбеевский, г.п. Торбеевское, рп Торбеево, ул Ленина, зд. 2Б, помещ. 2", 54.075569, 43.244257,01.11.1,Выращивание зерновых культур,https://spark-interfax.ru/mordoviya-respublika-torbeevski-raion/ooo-rodnik-k-inn-1321117901-ogrn-1191326005848-954fc3ec30860f79e0531b9aa8c03af4
"АВТОНОМНАЯ НЕКОММЕРЧЕСКАЯ ОРГАНИЗАЦИЯ ""РЕДАКЦИЯ ГАЗЕТЫ ""ВОСХОД""",АНО РЕДАКЦИЯ ГАЗЕТЫ ВОСХОД,1071300003081,"431670, Мордовия респ., Большеигнатовский район, с. Большое Игнатово, ул. Советская, д. 38", 55.013853, 45.565568,58.13,Издание газет,https://spark-interfax.ru/mordoviya-respublika-bolsheignatovski-raion/ano-redaktsiya-gazety-voskhod-inn-1305072900-ogrn-1071300003081-6906d9ac8f02226ae0531b9aa8c04bb6
"ФЕДЕРАЛЬНОЕ КАЗЕННОЕ ПРЕДПРИЯТИЕ ""САРАНСКИЙ МЕХАНИЧЕСКИЙ ЗАВОД""",ФКП СМЗ,1325126777,"430016, Мордовия респ., г. Саранск, проезд Промышленный, д. 1", 54.198162, 45.180490,25.40,Производство оружия и боеприпасов,https://spark-interfax.ru/mordoviya-respublika-saransk/fkp-smz-inn-1325126777-ogrn-1021300976058-6906d9ac945f226ae0531b9aa8c04bb6
"АКЦИОНЕРНОЕ ОБЩЕСТВО ""МОРДОВСКОЕ КНИЖНОЕ ИЗДАТЕЛЬСТВО""",АО МОРДОВСКОЕ КНИЖНОЕ ИЗДАТЕЛЬСТВО,1326205774,"430005, Мордовия респ., г. Саранск, ул. Ботевградская, д. 18", 54.182476, 45.170651,58.11.1,"Издание книг, брошюр, рекламных буклетов и аналогичных изданий, включая издание словарей и энциклопедий, в том числе для слепых, в печатном виде",https://spark-interfax.ru/mordoviya-respublika-saransk/ao-mordovskoe-knizhnoe-izdatelstvo-inn-1326205774-ogrn-1081326001349-b19c31934a204744802c8d60a2593259
"МОРДОВСКАЯ РЕГИОНАЛЬНАЯ ОБЩЕСТВЕННАЯ ОРГАНИЗАЦИЯ ""ОТРЯД ПРАВОПОРЯДКА""",МРОО ОТРЯД ПРАВОПОРЯДКА,1051300018362,"430005, Мордовия респ., г. Саранск, ул. Большевистская, д. 33 офис 401", 54.185157, 45.182900,94.99,"Деятельность прочих общественных организаций и некоммерческих организаций, кроме религиозных и политических организаций",https://spark-interfax.ru/mordoviya-respublika-saransk/oo-otryad-pravoporyadka-inn-1326194410-ogrn-1051300018362-6906d9acaa66226ae0531b9aa8c04bb6
"АВТОНОМНАЯ НЕКОММЕРЧЕСКАЯ ОРГАНИЗАЦИЯ ""РЕДАКЦИЯ ГАЗЕТЫ ""ПОБЕДА""",АНО РЕДАКЦИЯ ГАЗЕТЫ ПОБЕДА,1071300002840,"431600, Мордовия респ., Ромодановский район, пос. Ромоданово, ул. Центральная, д. 5", 54.421066, 45.334071,58.13,Издание газет,https://spark-interfax.ru/mordoviya-respublika-romodanovski-raion/ano-redaktsiya-gazety-pobeda-inn-1316197919-ogrn-1071300002840-6906d9ac8e7f226ae0531b9aa8c04bb6
"СЕЛЬСКОХОЗЯЙСТВЕННЫЙ ПОТРЕБИТЕЛЬСКИЙ ПЕРЕРАБАТЫВАЮЩИЙ СНАБЖЕНЧЕСКО-СБЫТОВОЙ КООПЕРАТИВ ""АГРОСУРА""",СППССК АГРОСУРА,1211300002132,"431586, Мордовия Респ, м.р-н Кочкуровский, с.п. Сабаевское, с Сабаево, ул Крупской, д. 72", 53.992897, 45.715782,10.91,"Производство готовых кормов для животных, содержащихся на фермах",https://spark-interfax.ru/mordoviya-respublika-kochkurovski-raion/koop-agrosura-inn-1313000650-ogrn-1211300002132-c1dddbf732082b0ae053219aa8c03eb5
"РЕГИОНАЛЬНОЕ ОТДЕЛЕНИЕ ОБЩЕРОССИЙСКОЙ ОБЩЕСТВЕННО-ГОСУДАРСТВЕННОЙ ОРГАНИЗАЦИИ ""АССАМБЛЕЯ НАРОДОВ РОССИИ"" РЕСПУБЛИКИ МОРДОВИЯ",РЕГИОНАЛЬНОЕ ОТДЕЛЕНИЕ ОГО АССАМБЛЕЯ НАРОДОВ РОССИИ РЕСПУБЛИКИ МОРДОВИЯ,1241300001360,"430005, Мордовия Респ, г.о. Саранск, г Саранск, ул Большевистская, д. 68", 54.187859, 45.181477,94.99,"Деятельность прочих общественных организаций и некоммерческих организаций, кроме религиозных и политических организаций",https://spark-interfax.ru/mordoviya-respublika-saransk/oo-assambleya-narodov-rossii-respubliki-mordoviya-inn-1300010650-ogrn-1241300001360-172055d65b697d63e063259aa8c07e38
"ОБЩЕСТВО С ОГРАНИЧЕННОЙ ОТВЕТСТВЕННОСТЬЮ ""ГЛЭМПКЕМП""",ООО ГЛЭМПКЕМП,1300007633,"430005, Мордовия Респ, г.о. Саранск, г Саранск, ул Коммунистическая, д. 75А, офис 201Г", 54.185306, 45.172364,55.10,Деятельность гостиниц и прочих мест для временного проживания,https://spark-interfax.ru/mordoviya-respublika-saransk/ooo-glempkemp-inn-1300007633-ogrn-1231300003934-0612b9a7802d722ae063259aa8c084af
"ОБЩЕСТВО С ОГРАНИЧЕННОЙ ОТВЕТСТВЕННОСТЬЮ ""СПЕЦИАЛИЗИРОВАННЫЙ ЗАСТРОЙЩИК ""МИК-СТРОЙ""",ООО СЗ МИК-СТРОЙ,1326253697,"430005, Мордовия Респ, г.о. Саранск, г Саранск, ул Степана Разина, д. 17А, офис 328", 54.186114, 45.166288,41.20,Строительство жилых и нежилых зданий,https://spark-interfax.ru/mordoviya-respublika-saransk/ooo-sz-mik-stroi-inn-1326253697-ogrn-1191326003208-89c2a14162b9631be0531b9aa8c0a44f
"АВТОНОМНАЯ НЕКОММЕРЧЕСКАЯ ОРГАНИЗАЦИЯ ""РЕДАКЦИЯ ГАЗЕТЫ ""ВОЗРОЖДЕНИЕ""",АНО РЕДАКЦИЯ ГАЗЕТЫ ВОЗРОЖДЕНИЕ,1081300000132,"431900, Мордовия респ., Кадошкинский район, рабочий пос. Кадошкино, ул. Заводская, д. 1", 54.025150, 44.422562,58.13,Издание газет,https://spark-interfax.ru/mordoviya-respublika-kadoshkinski-raion/ano-redaktsiya-gazety-vozrozhdenie-inn-1311088810-ogrn-1081300000132-6906d9ac8c5c226ae0531b9aa8c04bb6
"АВТОНОМНАЯ НЕКОММЕРЧЕСКАЯ ОРГАНИЗАЦИЯ ""РЕДАКЦИЯ ГАЗЕТЫ ""ГОЛОС ПРИМОКШАНЬЯ""",АНО РЕДАКЦИЯ ГАЗЕТЫ ГОЛОС ПРИМОКШАНЬЯ,1071300002795,"431350, Мордовия Респ, м.р-н Ковылкинский, г.п. Ковылкино, г Ковылкино, ул Пролетарская, зд. 70", 54.040829, 43.921559,58.13,Издание газет,https://spark-interfax.ru/mordoviya-respublika-kovylkino/ano-redaktsiya-gazety-golos-primokshanya-inn-1323124397-ogrn-1071300002795-6906d9ac8c03226ae0531b9aa8c04bb6
"АВТОНОМНАЯ НЕКОММЕРЧЕСКАЯ ОРГАНИЗАЦИЯ ""ИНФОРМАЦИОННО-АНАЛИТИЧЕСКАЯ РЕДАКЦИЯ ""РУЗАЕВСКИЕ НОВОСТИ""",АНО ИНФОРМАЦИОННО-АНАЛИТИЧЕСКАЯ РЕДАКЦИЯ РУЗАЕВСКИЕ НОВОСТИ,1071300002938,"431440, Мордовия респ., г. Рузаевка, ул. Трынова, д. 67 к. А", 54.067621, 44.962329,58.13,Издание газет,https://spark-interfax.ru/mordoviya-respublika-ruzaevka/ano-informatsionno-analiticheskaya-redaktsiya-ruzaevskie-novosti-inn-1324134398-ogrn-1071300002938-6906d9ac8ad1226ae0531b9aa8c04bb6
"АВТОНОМНАЯ НЕКОММЕРЧЕСКАЯ ОРГАНИЗАЦИЯ ""РЕДАКЦИЯ ГАЗЕТЫ ""СЕЛЬСКИЕ ВЕСТИ""",АНО РЕДАКЦИЯ ГАЗЕТЫ СЕЛЬСКИЕ ВЕСТИ,1071300002817,"431050, Мордовия респ., Атюрьевский район, с. Атюрьево, ул. Ленина, д. 1", 54.321152, 43.336352,58.13,Издание газет,https://spark-interfax.ru/mordoviya-respublika-atyurevski-raion/ano-redaktsiya-gazety-selskie-vesti-inn-1302000697-ogrn-1071300002817-6906d9ac8eab226ae0531b9aa8c04bb6
"ОБЩЕСТВО С ОГРАНИЧЕННОЙ ОТВЕТСТВЕННОСТЬЮ ""АВАНГАРД""",ООО АВАНГАРД,1324132489,"431470, Мордовия респ., Рузаевский район, с. Инсар-Акшино, ул. Молодежная", 54.011179, 44.784721,01.47,Разведение сельскохозяйственной птицы,https://spark-interfax.ru/mordoviya-respublika-ruzaevski-raion/ooo-avangard-inn-1324132489-ogrn-1051324001431-5ccb42a3f6bb45dbbfe941581e6c8a9f
"ОБЩЕСТВО С ОГРАНИЧЕННОЙ ОТВЕТСТВЕННОСТЬЮ ""ЗА МИР""",ООО ЗА МИР,1307000080,"431267, Мордовия респ., Ельниковский район, с. Каньгуши, ул. Ленина, д. 16А", 54.534263, 43.789935,01.5,Смешанное сельское хозяйство,https://spark-interfax.ru/mordoviya-respublika-elnikovski-raion/ooo-za-mir-inn-1307000080-ogrn-1051314033528-5be84dc59cb245e98e44a5318e1838c6
"ОБЩЕСТВО С ОГРАНИЧЕННОЙ ОТВЕТСТВЕННОСТЬЮ ""СИМБИРСКИЙ БЕКОН""",ООО СИМБИРСКИЙ БЕКОН,7325049026,"430006, Мордовия респ., г. Саранск, шоссе Александровское, д. 7", 54.212194, 45.205518,01.46,Разведение свиней,https://spark-interfax.ru/mordoviya-respublika-saransk/ooo-simbirski-bekon-inn-7325049026-ogrn-1047300998843-8934a6ca9ba1445aa1095ab354dacdff
"ОБЩЕСТВО С ОГРАНИЧЕННОЙ ОТВЕТСТВЕННОСТЬЮ ""МОРДОВСКИЙ ПЛЕМЕННОЙ ЦЕНТР""",ООО МПЦ,5049016635,"430006, Мордовия респ., г. Саранск, шоссе Александровское, д. 7", 54.212194, 45.205518,01.46,Разведение свиней,https://spark-interfax.ru/mordoviya-respublika-saransk/ooo-mpts-inn-5049016635-ogrn-1075049000223-206f0f92777e44dfa5eb204065abc0a5
"ГОСУДАРСТВЕННОЕ БЮДЖЕТНОЕ УЧРЕЖДЕНИЕ ЗДРАВООХРАНЕНИЯ РЕСПУБЛИКИ МОРДОВИЯ ""МОРДОВСКАЯ РЕСПУБЛИКАНСКАЯ ЦЕНТРАЛЬНАЯ КЛИНИЧЕСКАЯ БОЛЬНИЦА""",ГБУЗ РЕСПУБЛИКИ МОРДОВИЯ МРЦКБ,1181326005596,"430013, Мордовия респ., г. Саранск, ул. Победы, д. 14/5 к. 1", 54.207132, 45.113942,86.10,Деятельность больничных организаций,https://spark-interfax.ru/mordoviya-respublika-saransk/gbu-mrtskb-inn-1327033084-ogrn-1181326005596-7681e5d7d60736ade0531b9aa8c029d3
"ОБЩЕСТВО С ОГРАНИЧЕННОЙ ОТВЕТСТВЕННОСТЬЮ ""ОЗЁРКИ""",ООО ОЗЁРКИ,1324000549,"431444, Мордовия респ., г. Рузаевка, ул. Маяковского, д. 173", 54.073088, 44.967349,01.11,"Выращивание зерновых (кроме риса), зернобобовых культур и семян масличных культур",https://spark-interfax.ru/mordoviya-respublika-ruzaevka/ooo-ozerki-inn-1324000549-ogrn-1121324000544-20e415f10d0247a1a6d67b62c8f1f627
"ОБЩЕСТВО С ОГРАНИЧЕННОЙ ОТВЕТСТВЕННОСТЬЮ ""САРТ""",ООО САРТ,1327005552,"430006, Мордовия респ., г. Саранск, ул. Промышленная 2-Я, д. 7 пом. 4", 54.234413, 45.191099,42.21,"Строительство инженерных коммуникаций для водоснабжения и водоотведения, газоснабжения",https://spark-interfax.ru/mordoviya-respublika-saransk/ooo-sart-inn-1327005552-ogrn-1071327002306-4c0baa29749c45078e248e3dc885b278
"МОРДОВСКАЯ РЕГИОНАЛЬНАЯ ОБЩЕСТВЕННАЯ ОРГАНИЗАЦИЯ РАЗВИТИЯ СЕЛЬСКИХ ТЕРРИТОРИЙ ""НОВОЕ СЕЛО""",МРОО НОВОЕ СЕЛО,1161326058772,"431742, Мордовия респ., Большеберезниковский район, с. Паракино, ул. К.Маркса, д. 13", 54.293745, 46.190690,94.99,"Деятельность прочих общественных организаций и некоммерческих организаций, кроме религиозных и политических организаций",https://spark-interfax.ru/mordoviya-respublika-bolshebereznikovski-raion/oo-novoe-selo-inn-1304000364-ogrn-1161326058772-6906d9accc67226ae0531b9aa8c04bb6
"ОБЩЕСТВО С ОГРАНИЧЕННОЙ ОТВЕТСТВЕННОСТЬЮ ""РИВЬЕРА""",ООО РИВЬЕРА,1300004784,"431444, Мордовия Респ, м.р-н Рузаевский, г.п. Рузаевка, г Рузаевка, ул Куйбышева, д. 68, помещ. 15", 54.074357, 44.945384,55.30,"Деятельность по предоставлению мест для временного проживания в кемпингах, жилых автофургонах и туристических автоприцепах",https://spark-interfax.ru/mordoviya-respublika-ruzaevka/ooo-rivera-inn-1300004784-ogrn-1231300001085-f738dc88521d468de053249aa8c0bd8f
"АВТОНОМНАЯ НЕКОММЕРЧЕСКАЯ ОРГАНИЗАЦИЯ ""АГЕНТСТВО РАЗВИТИЯ КРЕАТИВНЫХ ИНДУСТРИЙ РЕСПУБЛИКИ МОРДОВИЯ""",АНО АРКИ РМ,1221300001801,"430005, Мордовия Респ, г.о. Саранск, г Саранск, ул Коммунистическая, д. 60, кв. 33", 54.184442, 45.174518,90.04,Деятельность учреждений культуры и искусства,https://spark-interfax.ru/mordoviya-respublika-saransk/ano-arki-rm-inn-1300000356-ogrn-1221300001801-df91ebef234306f8e053259aa8c01350
"АВТОНОМНАЯ НЕКОММЕРЧЕСКАЯ ОРГАНИЗАЦИЯ ""СПОРТИВНО-ОЗДОРОВИТЕЛЬНЫЙ КЛУБ ""ИМПУЛЬС""",АНО СОК ИМПУЛЬС,1081300000583,"430031, Мордовия респ., г. Саранск, ул. Сущинского, д. 36 к. 2 кв. 65", 54.203612, 45.238468,93.11,Деятельность спортивных объектов,https://spark-interfax.ru/mordoviya-respublika-saransk/ano-sok-impuls-inn-1326209183-ogrn-1081300000583-6906d9acb659226ae0531b9aa8c04bb6
"ОБЩЕСТВО С ОГРАНИЧЕННОЙ ОТВЕТСТВЕННОСТЬЮ - МЕЖДУНАРОДНЫЙ ЦЕНТР ОБМЕНА ""ЮНИОН""",ООО - МЦО ЮНИОН,1325024510,"430005, Мордовия респ., г. Саранск, проспект Ленина, д. 16", 54.187261, 45.187442,79.11,Деятельность туристических агентств,https://spark-interfax.ru/mordoviya-respublika-saransk/ooo-yunion-inn-1325024510-ogrn-1021300979941-73ccf6e24aa6452ab83652f392fea2a0
"АВТОНОМНАЯ НЕКОММЕРЧЕСКАЯ ОРГАНИЗАЦИЯ ""ЦЕНТР РАЗВИТИЯ И ПОДДЕРЖКИ СОЦИАЛЬНЫХ И ОБЩЕСТВЕННЫХ ИНИЦИАТИВ БОЛЬШЕБЕРЕЗНИКОВСКОГО МУНИЦИПАЛЬНОГО РАЙОНА РЕСПУБЛИКИ МОРДОВИЯ ""СОДЕЙСТВИЕ""",АНО СОДЕЙСТВИЕ,1201300003475,"431750, Мордовия респ., Большеберезниковский район, с. Большие Березники, ул. Ленина, д. 72", 54.171251, 45.961132,88.99,"Предоставление прочих социальных услуг без обеспечения проживания, не включенных в другие группировки",https://spark-interfax.ru/mordoviya-respublika-bolshebereznikovski-raion/ano-sodeistvie-inn-1304000580-ogrn-1201300003475-af295aa20cac2a31e053189aa8c0983a
СОВЕТ ДЕПУТАТОВ АДАШЕВСКОГО СЕЛЬСКОГО ПОСЕЛЕНИЯ КАДОШКИНСКОГО РАЙОНА РЕСПУБЛИКИ МОРДОВИЯ,СОВЕТ ДЕПУТАТОВ АДАШЕВСКОГО СЕЛЬСКОГО ПОСЕЛЕНИЯ,1061323004797,"431910, Мордовия респ., Кадошкинский район, с. Адашево, ул. Ленина, д. 5", 53.944410, 44.325218,84.11.31,Деятельность органов местного самоуправления сельских поселений,https://spark-interfax.ru/mordoviya-respublika-kadoshkinski-raion/mku-sovet-deputatov-adashevskogo-selskogo-poseleniya-inn-1311088592-ogrn-1061323004797-6906d9acace1226ae0531b9aa8c04bb6
"ГОСУДАРСТВЕННОЕ БЮДЖЕТНОЕ УЧРЕЖДЕНИЕ ЗДРАВООХРАНЕНИЯ РЕСПУБЛИКИ МОРДОВИЯ ""РЕСПУБЛИКАНСКИЙ ОНКОЛОГИЧЕСКИЙ ДИСПАНСЕР""",ГБУЗ РЕСПУБЛИКИ МОРДОВИЯ РОД,1021300979215,"430032, Мордовия Респ, г.о. Саранск, г Саранск, ул Ульянова, д. 30/1", 54.169164, 45.130635,86.10,Деятельность больничных организаций,https://spark-interfax.ru/mordoviya-respublika-saransk/gbu-rod-inn-1326134266-ogrn-1021300979215-6906d9ac9992226ae0531b9aa8c04bb6
"МОРДОВСКОЕ РЕГИОНАЛЬНОЕ ОТДЕЛЕНИЕ МОЛОДЕЖНОЙ ОБЩЕРОССИЙСКОЙ ОБЩЕСТВЕННОЙ ОРГАНИЗАЦИИ ""РОССИЙСКИЕ СТУДЕНЧЕСКИЕ ОТРЯДЫ""",МРО МООО РСО,1131300000237,"430005, Мордовия респ., г. Саранск, ул. Большевистская, д. 33", 54.185157, 45.182900,94.99,"Деятельность прочих общественных организаций и некоммерческих организаций, кроме религиозных и политических организаций",https://spark-interfax.ru/mordoviya-respublika-saransk/oo-rso-inn-1326960914-ogrn-1131300000237-6906d9ac8fda226ae0531b9aa8c04bb6
"ОБЩЕСТВО С ОГРАНИЧЕННОЙ ОТВЕТСТВЕННОСТЬЮ ""КОЛОС""",ООО КОЛОС,1300010033,"431210, Мордовия Респ, м.р-н Теньгушевский, с.п. Теньгушевское, с Теньгушево, ул Нагорная, д. 20", 54.762343, 42.717959,01.41,"Разведение молочного крупного рогатого скота, производство сырого молока",https://spark-interfax.ru/mordoviya-respublika-tengushevski-raion/ooo-kolos-inn-1300010033-ogrn-1241300000743-13469f99e73e1672e063259aa8c01b93
"ОБЩЕСТВО С ОГРАНИЧЕННОЙ ОТВЕТСТВЕННОСТЬЮ ""АКАДЕМИЯ ЧИР СПОРТА И ЧИРЛИДИНГА РМ""",ООО АКАДЕМИЯ ЧИР СПОРТА И ЧИРЛИДИНГА РМ,1300009207,"430007, Мордовия Респ, г.о. Саранск, г Саранск, ул Крылова, д. 47, кв. 2", 54.163276, 45.162826,96.04,Деятельность физкультурно-оздоровительная,https://spark-interfax.ru/mordoviya-respublika-saransk/ooo-akademiya-chir-sporta-i-chirlidinga-rm-inn-1300009207-ogrn-1231300005496-0dc676ae52c32078e063259aa8c06e29
"АВТОНОМНАЯ НЕКОММЕРЧЕСКАЯ ОРГАНИЗАЦИЯ ""ЦЕНТР ЛИЧНОСТНОГО РАЗВИТИЯ ДЕТЕЙ И ПОДРОСТКОВ""",АНО ЦЛРДП,1211300003067,"430005, Мордовия Респ, г.о. Саранск, г Саранск, ул Большевистская, д. 33, офис 214", 54.185157, 45.182900,88.99,"Предоставление прочих социальных услуг без обеспечения проживания, не включенных в другие группировки",https://spark-interfax.ru/mordoviya-respublika-saransk/ano-tslrdp-inn-1326257187-ogrn-1211300003067-c75e04c88c0845c1e053219aa8c09d7d
"ЧАСТНОЕ ПРОФЕССИОНАЛЬНОЕ ОБРАЗОВАТЕЛЬНОЕ УЧРЕЖДЕНИЕ ""УЧЕБНЫЙ ЦЕНТР ""ПРЕМИУМ""",ЧПОУ УЦ ПРЕМИУМ,1181326001471,"430004, Мордовия респ., г. Саранск, ул. Республиканская, д. 24 пом. 4", 54.171908, 45.185906,85.30,Обучение профессиональное,https://spark-interfax.ru/mordoviya-respublika-saransk/uch-uts-premium-inn-1326251058-ogrn-1181326001471-6906d9acd176226ae0531b9aa8c04bb6
"СЕЛЬСКОХОЗЯЙСТВЕННЫЙ СБЫТОВОЙ ПЕРЕРАБАТЫВАЮЩИЙ ПОТРЕБИТЕЛЬСКИЙ КООПЕРАТИВ ""БОЕВСКИЙ""",ССППК БОЕВСКИЙ,3613004264,"396304, Воронежская обл., Новоусманский район, пос. Трудовое, ул. Садовая, д. 27 офис 9", 51.764771, 39.729667,10.39.1,Переработка и консервирование овощей (кроме картофеля) и грибов,https://spark-interfax.ru/voronezhskaya-oblast-novousmanski-raion/koop-boevski-inn-3613004264-ogrn-1063616004891-6906d94c3e87226ae0531b9aa8c04bb6
"ОБЩЕСТВО С ОГРАНИЧЕННОЙ ОТВЕТСТВЕННОСТЬЮ ""АГРОМИР""",ООО АГРОМИР,3604015189,"397152, Воронежская обл., Борисоглебский район, пос. Миролюбие, ул. Центральная, зд. 2", 51.491474, 42.312909,01.11.1,Выращивание зерновых культур,https://spark-interfax.ru/voronezhskaya-oblast-borisoglebsk/ooo-agromir-inn-3604015189-ogrn-1053657501050-c2d7e84c363f4757aab39df4e7ae623c
"СЕЛЬСКОХОЗЯЙСТВЕННЫЙ ПОТРЕБИТЕЛЬСКИЙ ПЕРЕРАБАТЫВАЮЩИЙ КООПЕРАТИВ ""ОРГАНИК ПРОДУКТ""",СППК ОРГАНИК ПРОДУКТ,1193668003462,"397031, Воронежская обл., Эртильский район, г. Эртиль, ул. 9 Мая, д. 61Б офис 1", 51.848579, 40.821838,10.32,Производство соковой продукции из фруктов и овощей,https://spark-interfax.ru/voronezhskaya-oblast-ertilski-raion/koop-organik-produkt-inn-3601011820-ogrn-1193668003462-81825325f337047ae0531b9aa8c0be4b
"ОБЩЕСТВО С ОГРАНИЧЕННОЙ ОТВЕТСТВЕННОСТЬЮ ""ВИП ИСКРА""",ООО ВИП ИСКРА,3604013897,"397155, Воронежская обл, г.о. Борисоглебский, с Танцырей, тер. Прогресс, зд. 2, стр. 8", 51.330978, 42.371418,01.11,"Выращивание зерновых (кроме риса), зернобобовых культур и семян масличных культур",https://spark-interfax.ru/voronezhskaya-oblast-borisoglebsk/ooo-vip-iskra-inn-3604013897-ogrn-1033659501996-9fea3153f4814c26b8f0d722bb8b878a
"ОБЩЕСТВО С ОГРАНИЧЕННОЙ ОТВЕТСТВЕННОСТЬЮ ""АГРО ФИРМА-ИМПУЛЬС-2""",ООО АГРО ФИРМА-ИМПУЛЬС-2,3666147587,"394043, Воронежская обл., г. Воронеж, ул. Ленина, д. 12", 51.694161, 39.222110,01.50,Смешанное сельское хозяйство,https://spark-interfax.ru/voronezhskaya-oblast-voronezh/ooo-agro-firma-impuls-inn-3666147587-ogrn-1073667038917-a41fa3cd365940288afc05e42d0197dd
"ОБЩЕСТВО С ОГРАНИЧЕННОЙ ОТВЕТСТВЕННОСТЬЮ ""ФАВОР""",ООО ФАВОР,3616013186,"396180, Воронежская обл., Панинский район, пос. Первомайский, ул. Центральная, д. 2 офис 2", 51.720512, 40.147915,01.25.1,Выращивание прочих плодовых и ягодных культур,https://spark-interfax.ru/voronezhskaya-oblast-paninski-raion/ooo-favor-inn-3616013186-ogrn-1093668005848-d2822eb34d474c539c350d3f05981b57
"ОБЩЕСТВО С ОГРАНИЧЕННОЙ ОТВЕТСТВЕННОСТЬЮ ""СЕЛЯНКА""",ООО СЕЛЯНКА,3623006750,"397350, Воронежская обл., Поворинский район, г. Поворино, ул. Советская, д. 1", 51.188936, 42.248367,01.11.1,Выращивание зерновых культур,https://spark-interfax.ru/voronezhskaya-oblast-povorinski-raion/ooo-selyanka-inn-3623006750-ogrn-1063604011173-0a3e9746bee049bf9c612a6c42a9e668
СОВЕТ НАРОДНЫХ ДЕПУТАТОВ ПОВОРИНСКОГО МУНИЦИПАЛЬНОГО РАЙОНА ВОРОНЕЖСКОЙ ОБЛАСТИ,СОВЕТ НАРОДНЫХ ДЕПУТАТОВ ПОВОРИНСКОГО МУНИЦИПАЛЬНОГО РАЙОНА ВОРОНЕЖСКОЙ ОБЛАСТИ,1063604012823,"397350, Воронежская обл., Поворинский район, г. Поворино, пл. Комсомольская, д. 3", 51.199276, 42.240940,84.11.33,Деятельность органов местного самоуправления муниципальных районов,https://spark-interfax.ru/voronezhskaya-oblast-povorinski-raion/mku-sovet-narodnykh-deputatov-povorinskogo-munitsipalnogo-raiona-voronezhskoi-oblasti-inn-3623006920-ogrn-1063604012823-6906d94c483b226ae0531b9aa8c04bb6
"ОБЩЕСТВО С ОГРАНИЧЕННОЙ ОТВЕТСТВЕННОСТЬЮ ""РУПОЛЕ""",ООО РУПОЛЕ,3617008020,"394030, Воронежская обл, г.о. город Воронеж, г Воронеж, ул Плехановская, д. 66Б, офис 403", 51.676078, 39.185860,01.5,Смешанное сельское хозяйство,https://spark-interfax.ru/voronezhskaya-oblast-voronezh/ooo-rupole-inn-3617008020-ogrn-1093629001256-29ac41abde044827bd98f63b4333819d
"ОБЩЕСТВО С ОГРАНИЧЕННОЙ ОТВЕТСТВЕННОСТЬЮ ""АГРОСЕРВИС""",ООО АГРОСЕРВИС,3611003385,"396513, Воронежская обл., Каменский район, с. Тхоревка, ул. Центральная, д. 35", 50.703160, 39.335826,10.4,Производство растительных и животных масел и жиров,https://spark-interfax.ru/voronezhskaya-oblast-kamenski-raion/ooo-agroservis-inn-3611003385-ogrn-1023601512945-6178895458767e1ce0531b9aa8c027ab
"ОБЩЕСТВО С ОГРАНИЧЕННОЙ ОТВЕТСТВЕННОСТЬЮ ""НОВОУСМАНСКАЯ ЗЕМЛЯ""",ООО НОВОУСМАНСКАЯ ЗЕМЛЯ,3616012560,"396310, Воронежская обл., Новоусманский район, с. Новая Усмань, ул. Крупской, д. 5А/1 офис 1", 51.642319, 39.413107,01.11,"Выращивание зерновых (кроме риса), зернобобовых культур и семян масличных культур",https://spark-interfax.ru/voronezhskaya-oblast-novousmanski-raion/ooo-novousmanskaya-zemlya-inn-3616012560-ogrn-1083668006487-00a1cae8d9ca4e879214b347ec508f6a
"СЕЛЬСКОХОЗЯЙСТВЕННЫЙ КРЕДИТНЫЙ ПОТРЕБИТЕЛЬСКИЙ КООПЕРАТИВ ""ГОРИЗОНТ""",СКПК ГОРИЗОНТ,3618004469,"396670, Воронежская обл., Ольховатский район, рабочий пос. Ольховатка, ул. Октябрьская, д. 64", 50.278136, 39.303906,64.92.1,Деятельность по предоставлению потребительского кредита,https://spark-interfax.ru/voronezhskaya-oblast-olkhovatski-raion/koop-gorizont-inn-3618004469-ogrn-1063627011392-6906d94c4734226ae0531b9aa8c04bb6
"ОБЩЕСТВО С ОГРАНИЧЕННОЙ ОТВЕТСТВЕННОСТЬЮ ""РОДНЫЕ ПРОСТОРЫ""",ООО РОДНЫЕ ПРОСТОРЫ,3652900169,"397908, Воронежская обл., Лискинский район, г. Лиски, ул. Коммунистическая, зд. 90В пом. 4", 50.988401, 39.503304,01.11,"Выращивание зерновых (кроме риса), зернобобовых культур и семян масличных культур",https://spark-interfax.ru/voronezhskaya-oblast-liskinski-raion/ooo-rodnye-prostory-inn-3652900169-ogrn-1173668016191-a795b8c208cb4d2eb6da4ba5decc1400
"ОБЩЕСТВО С ОГРАНИЧЕННОЙ ОТВЕТСТВЕННОСТЬЮ ""АГРОПРОМТЕХСЕРВИС""",ООО АГРОПРОМТЕХСЕРВИС,3601008440,"397030, Воронежская обл, м.р-н Эртильский, г.п. город Эртиль, г Эртиль, пл Ленина, д. 8Б, помещ. 9", 51.835510, 40.800339,01.1,Выращивание однолетних культур,https://spark-interfax.ru/voronezhskaya-oblast-ertilski-raion/ooo-agropromtekhservis-inn-3601008440-ogrn-1043668501403-a03d49ea073e4086af9dcf2c3a16a389
"КОЛХОЗ ""ПРАВДА""",КОЛХОЗ ПРАВДА,3606000325,"396465, Воронежская обл., Верхнемамонский район, с. Лозовое, ул. Советская, д. 97/1", 50.253178, 40.367287,01.11,"Выращивание зерновых (кроме риса), зернобобовых культур и семян масличных культур",https://spark-interfax.ru/voronezhskaya-oblast-verkhnemamonski-raion/kolkhoz-pravda-inn-3606000325-ogrn-1023601071625-6178895453577e1ce0531b9aa8c027ab
"ОБЩЕСТВО С ОГРАНИЧЕННОЙ ОТВЕТСТВЕННОСТЬЮ ""КАНТЕМИРОВСКОЕ ДОРОЖНОЕ РЕМОНТНО-СТРОИТЕЛЬНОЕ УПРАВЛЕНИЕ""",ООО КАНТЕМИРОВСКОЕ ДРСУ,3612006090,"396732, Воронежская обл., Кантемировский район, рабочий пос. Кантемировка, ул. Полевая, зд. 62", 49.729425, 39.857223,42.11,Строительство автомобильных дорог и автомагистралей,https://spark-interfax.ru/voronezhskaya-oblast-kantemirovski-raion/ooo-kantemirovskoe-drsu-inn-3612006090-ogrn-1023600848237-bee524e78c7e4c2bba7752bd5a7b4850
"ОБЩЕСТВО С ОГРАНИЧЕННОЙ ОТВЕТСТВЕННОСТЬЮ ""НП-ОИЛ""",ООО НП-ОИЛ,3662262927,"394088, Воронежская обл, г.о. город Воронеж, г Воронеж, б-р Победы, д. 48А, помещ. 6/1", 51.712644, 39.151324,47.30,Торговля розничная моторным топливом в специализированных магазинах,https://spark-interfax.ru/voronezhskaya-oblast-voronezh/ooo-np-oil-inn-3662262927-ogrn-1183668019556-6c9b41c688712fe0e0531b9aa8c0cfd1
"ЗАКРЫТОЕ АКЦИОНЕРНОЕ ОБЩЕСТВО ""ЦЕНТРАЛЬНО-ЧЕРНОЗЕМНАЯ ПЛОДОВО-ЯГОДНАЯ КОМПАНИЯ""",ЗАО ЦЕНТРАЛЬНО-ЧЕРНОЗЕМНАЯ ПЛОДОВО-ЯГОДНАЯ КОМПАНИЯ,3662070125,"394077, Воронежская обл., г. Воронеж, ул. Генерала Лизюкова, д. 65 офис 3", 51.705025, 39.155040,01.24,Выращивание семечковых и косточковых культур,https://spark-interfax.ru/voronezhskaya-oblast-voronezh/ao-tsentralno-chernozemnaya-plodovo-yagodnaya-kompaniya-inn-3662070125-ogrn-1033600013270-1094906179254af39c746c3c99ca1e8b
"ОБЩЕСТВО С ОГРАНИЧЕННОЙ ОТВЕТСТВЕННОСТЬЮ ""ФИТАГРОБИО""",ООО ФИТАГРОБИО,3630003863,"394087, Воронежская обл, г.о. город Воронеж, г Воронеж, ул Ломоносова, д. 114/10, кв. 235", 51.726603, 39.200842,46.12,"Деятельность агентов по оптовой торговле топливом, рудами, металлами и химическими веществами",https://spark-interfax.ru/voronezhskaya-oblast-voronezh/ooo-fitagrobio-inn-3630003863-ogrn-1183668047452-7c028edb83bc33bbe0531b9aa8c0f0b3
"СЕЛЬСКОХОЗЯЙСТВЕННОЕ ПРЕДПРИЯТИЕ КОЛХОЗ ""ПЕТРЕНКОВСКИЙ""",СП-КОЛХОЗ ПЕТРЕНКОВСКИЙ,3619000805,"397835, Воронежская обл., Острогожский район, с. Петренково", 50.788734, 39.148312,01.41,"Разведение молочного крупного рогатого скота, производство сырого молока",https://spark-interfax.ru/voronezhskaya-oblast-ostrogozhski-raion/kolkhoz-petrenkovski-inn-3619000805-ogrn-1023601033521-1f0868c0bfdf4bb18442c0066526a581
"ОБЩЕСТВО С ОГРАНИЧЕННОЙ ОТВЕТСТВЕННОСТЬЮ ""СКАЙ БЕРРИ""",ООО СКАЙ БЕРРИ,3616025128,"396304, Воронежская обл., Новоусманский район, пос. Трудовое, ул. Центральная, д. 1 пом. 1", 51.765994, 39.738284,01.25.2,Выращивание семян плодовых и ягодных культур,https://spark-interfax.ru/voronezhskaya-oblast-novousmanski-raion/ooo-skai-berri-inn-3616025128-ogrn-1203600022230-ab50677eb4a27795e053189aa8c0adfa
"ОБЩЕСТВО С ОГРАНИЧЕННОЙ ОТВЕТСТВЕННОСТЬЮ ""КОЛОС""",ООО КОЛОС,3610000624,"397605, Воронежская обл., Калачеевский район, пос. Пригородный, ул. Космонавтов, д. 8 офис 2", 50.362398, 41.008283,01.11,"Выращивание зерновых (кроме риса), зернобобовых культур и семян масличных культур",https://spark-interfax.ru/voronezhskaya-oblast-kalacheevski-raion/ooo-kolos-inn-3610000624-ogrn-1153668045002-1208a40e9ec44ff2bef242d524ccd185
"ОБЩЕСТВО С ОГРАНИЧЕННОЙ ОТВЕТСТВЕННОСТЬЮ ""УПРАВЛЯЮЩАЯ КОМПАНИЯ ""СУВОРОВ""",ООО УК СУВОРОВ,3662173480,"394010, Воронежская обл., г. Воронеж, ул. Артамонова, д. 38В офис 5", 51.714972, 39.270151,68.32,Управление недвижимым имуществом за вознаграждение или на договорной основе,https://spark-interfax.ru/voronezhskaya-oblast-voronezh/ooo-suvorov-inn-3662173480-ogrn-1123668008903-81535a35b49d4ad19788675831640938
"ФЕДЕРАЛЬНОЕ БЮДЖЕТНОЕ УЧРЕЖДЕНИЕ ЗДРАВООХРАНЕНИЯ ""ЦЕНТР ГИГИЕНЫ И ЭПИДЕМИОЛОГИИ В ВОРОНЕЖСКОЙ ОБЛАСТИ""",ФБУЗ ЦЕНТР ГИГИЕНЫ И ЭПИДЕМИОЛОГИИ В ВОРОНЕЖСКОЙ ОБЛАСТИ,1053600128889,"394038, Воронежская обл., г. Воронеж, ул. Космонавтов, д. 21", 51.659585, 39.155416,86.90.1,Деятельность организаций санитарно-эпидемиологической службы,https://spark-interfax.ru/voronezhskaya-oblast-voronezh/fgbu-tsentr-gigieny-i-epidemiologii-v-voronezhskoi-oblasti-inn-3665049241-ogrn-1053600128889-6906d94c2e75226ae0531b9aa8c04bb6
"ФЕДЕРАЛЬНОЕ ГОСУДАРСТВЕННОЕ БЮДЖЕТНОЕ УЧРЕЖДЕНИЕ ""УПРАВЛЕНИЕ МЕЛИОРАЦИИ ЗЕМЕЛЬ И СЕЛЬСКОХОЗЯЙСТВЕННОГО ВОДОСНАБЖЕНИЯ ПО ВОРОНЕЖСКОЙ ОБЛАСТИ""",ФГБУ УПРАВЛЕНИЕ ВОРОНЕЖМЕЛИОВОДХОЗ,1023601534054,"394026, Воронежская обл, г.о. город Воронеж, г Воронеж, ул Газовая, д. 1Б", 51.669849, 39.134701,01.61,Предоставление услуг в области растениеводства,https://spark-interfax.ru/voronezhskaya-oblast-voronezh/fgbu-upravlenie-voronezhmeliovodkhoz-inn-3666011434-ogrn-1023601534054-6906d94c1f05226ae0531b9aa8c04bb6
"ФЕДЕРАЛЬНОЕ ГОСУДАРСТВЕННОЕ БЮДЖЕТНОЕ НАУЧНОЕ УЧРЕЖДЕНИЕ ""ВСЕРОССИЙСКИЙ НАУЧНО-ИССЛЕДОВАТЕЛЬСКИЙ ИНСТИТУТ ЗАЩИТЫ РАСТЕНИЙ""",ФГБНУ ВНИИЗР,1033600045203,"396030, Воронежская обл., Рамонский район, пос. Вниисс, д. 92", 51.919416, 39.294462,72.19,Научные исследования и разработки в области естественных и технических наук прочие,https://spark-interfax.ru/voronezhskaya-oblast-ramonski-raion/fgbu-vniizr-inn-3625000659-ogrn-1033600045203-6906d94bfad1226ae0531b9aa8c04bb6
"ОБЩЕСТВО С ОГРАНИЧЕННОЙ ОТВЕТСТВЕННОСТЬЮ ""МИЛКТРЕЙД""",ООО МИЛКТРЕЙД,3665141504,"394038, Воронежская обл., г. Воронеж, ул. Дорожная, д. 22Б литера А1 офис 105", 51.664374, 39.148366,46.33,"Торговля оптовая молочными продуктами, яйцами и пищевыми маслами и жирами",https://spark-interfax.ru/voronezhskaya-oblast-voronezh/ooo-milktreid-inn-3665141504-ogrn-1173668033439-7819611910bb4026bd13497e5eaddd3e
"ОБЩЕСТВО С ОГРАНИЧЕННОЙ ОТВЕТСТВЕННОСТЬЮ ""ВЕЛЕС""",ООО ВЕЛЕС,3661176584,"394042, Воронежская обл., г. Воронеж, ул. Переверткина, д. 1/2 кв. 205", 51.681783, 39.253617,46.21.1,"Торговля оптовая зерном, семенами и кормами для животных",https://spark-interfax.ru/voronezhskaya-oblast-voronezh/ooo-veles-inn-3661176584-ogrn-1203600027542-af295aa214922a31e053189aa8c0983a
"ОБЩЕСТВО С ОГРАНИЧЕННОЙ ОТВЕТСТВЕННОСТЬЮ ""БАХОР ЛБ""",ООО БАХОР ЛБ,3665138928,"394038, Воронежская обл., г. Воронеж, ул. Космонавтов, д. 2И офис 17", 51.666575, 39.150254,56.10,Деятельность ресторанов и услуги по доставке продуктов питания,https://spark-interfax.ru/voronezhskaya-oblast-voronezh/ooo-bakhor-lb-inn-3665138928-ogrn-1173668019821-d53ace3a8f8c454dbb1970866d953250
"ОБЩЕСТВО С ОГРАНИЧЕННОЙ ОТВЕТСТВЕННОСТЬЮ ""ФРУКТОВЫЙ САД""",ООО ФРУКТОВЫЙ САД,3630003736,"397130, Воронежская обл., Терновский район, с. Алешки, ул. Фруктовая, д. 14 офис 1", 51.605832, 41.786980,01.24,Выращивание семечковых и косточковых культур,https://spark-interfax.ru/voronezhskaya-oblast-ternovski-raion/ooo-fruktovy-sad-inn-3630003736-ogrn-1153668015533-b35251f2deaf40299f23e634e7b9380c
"ОБЩЕСТВО С ОГРАНИЧЕННОЙ ОТВЕТСТВЕННОСТЬЮ ""НОВОУСМАНСКАЯ ЗЕМЛЯ""",ООО НОВОУСМАНСКАЯ ЗЕМЛЯ,3616012560,"396310, Воронежская обл., Новоусманский район, с. Новая Усмань, ул. Крупской, д. 5А/1 офис 1", 51.642319, 39.413107,01.11,"Выращивание зерновых (кроме риса), зернобобовых культур и семян масличных культур",https://spark-interfax.ru/voronezhskaya-oblast-novousmanski-raion/ooo-novousmanskaya-zemlya-inn-3616012560-ogrn-1083668006487-00a1cae8d9ca4e879214b347ec508f6a
"ОБЩЕСТВО С ОГРАНИЧЕННОЙ ОТВЕТСТВЕННОСТЬЮ ""НАШЕ МОЛОКО""",ООО НАШЕ МОЛОКО,3603002684,"396771, Воронежская обл., Богучарский район, хутор Малеванный, ул. Песчаная, д. 31", 49.798458, 40.723881,01.4,Животноводство,https://spark-interfax.ru/voronezhskaya-oblast-bogucharski-raion/ooo-nashe-moloko-inn-3603002684-ogrn-1123620000460-6e4b3a451288488d8779f3b70842302d
"ОБЩЕСТВО С ОГРАНИЧЕННОЙ ОТВЕТСТВЕННОСТЬЮ ""АГРОКУЛЬТУРА -ЖИВОТНОВОДСТВО""",ООО АГРОКУЛЬТУРА - ЖИВОТНОВОДСТВО,3632006041,"397006, Воронежская обл., Эртильский район, с. Ячейка, ул. М.Горького, д. 15А", 51.853324, 40.589215,01.4,Животноводство,https://spark-interfax.ru/voronezhskaya-oblast-ertilski-raion/ooo-agrokultura-zhivotnovodstvo-inn-3632006041-ogrn-1083601000438-44c92d47b12a41e5b44ab26ffda1c0a3
"ОБЩЕСТВО С ОГРАНИЧЕННОЙ ОТВЕТСТВЕННОСТЬЮ ""МЕЧТА""",ООО МЕЧТА,3618002976,"396685, Воронежская обл., Ольховатский район, пос. Малые Базы, ул. Южная, д. 1-А", 50.258244, 39.326046,01.11.1,Выращивание зерновых культур,https://spark-interfax.ru/voronezhskaya-oblast-olkhovatski-raion/ooo-mechta-inn-3618002976-ogrn-1033664502948-3a8d4deca5ce481bb06f269a2664eaf2
ОТДЕЛ ОБРАЗОВАНИЯ И МОЛОДЕЖНОЙ ПОЛИТИКИ АДМИНИСТРАЦИИ ВУРНАРСКОГО МУНИЦИПАЛЬНОГО ОКРУГА ЧУВАШСКОЙ РЕСПУБЛИКИ,ОТДЕЛ ОБРАЗОВАНИЯ И МП АДМИНИСТРАЦИИ ВУРНАРСКОГО МУНИЦИПАЛЬНОГО ОКРУГА,1022102029454,"429220, Чувашская Республика - Чувашия, Вурнарский район, пгт. Вурнары, ул. Советская, д. 20", 55.489158, 46.965858,84.11.35,Деятельность органов местного самоуправления городских округов,https://spark-interfax.ru/chuvashskaya-respublika-chuvashiya-vurnarski-raion/mku-otdel-obrazovaniya-i-mp-administratsii-vurnarskogo-munitsipalnogo-okruga-inn-2104002197-ogrn-1022102029454-6906d9b1b8ec226ae0531b9aa8c04bb6
"ОБЩЕСТВО С ОГРАНИЧЕННОЙ ОТВЕТСТВЕННОСТЬЮ ""ЦЕНТР ТЕПЛА""",ООО ЦЕНТР ТЕПЛА,2115005560,"429900, Чувашская Республика - Чувашия, Цивильский район, г. Цивильск, ул. Кирова, д. 17", 55.871147, 47.475834,43.29,Производство прочих строительно-монтажных работ,https://spark-interfax.ru/chuvashskaya-respublika-chuvashiya-tsivilski-raion/ooo-tsentr-tepla-inn-2115005560-ogrn-1152137030430-696c0b16f7824e88a8f6d779db5d332f
"ОБЩЕСТВО С ОГРАНИЧЕННОЙ ОТВЕТСТВЕННОСТЬЮ ""ЗДОРОВЫЙ МИР""",ООО ЗДОРОВЫЙ МИР,2130173417,"428034, Чувашская Республика - Чувашия, г.о. город Чебоксары, г Чебоксары, ул Филиппа Лукина, д. 6, кв. 281", 56.132174, 47.155280,46.18.1,"Деятельность агентов, специализирующихся на оптовой торговле фармацевтической продукцией, изделиями, применяемыми в медицинских целях, парфюмерными и косметическими товарами, включая мыло, и чистящими средствами",https://spark-interfax.ru/chuvashskaya-respublika-chuvashiya-cheboksary/ooo-zdorovy-mir-inn-2130173417-ogrn-1162130059596-4d20fd9206c845f1827b5b0f10f95fb6
"ЧУВАШСКАЯ РЕСПУБЛИКАНСКАЯ ОБЩЕСТВЕННАЯ ОРГАНИЗАЦИЯ СОЦИОЛОГОВ ""СОЦИС""",ЧУВАШСКАЯ РЕСПУБЛИКАНСКАЯ ОБЩЕСТВЕННАЯ ОРГАНИЗАЦИЯ СОЦИОЛОГОВ СОЦИС,1032100000910,"428022, Чувашская Республика - Чувашия, г. Чебоксары, ул. Калинина, зд. 80В пом. 1", 56.138747, 47.270972,72.20,Научные исследования и разработки в области общественных и гуманитарных наук,https://spark-interfax.ru/chuvashskaya-respublika-chuvashiya-cheboksary/oo-sotsis-inn-2127317309-ogrn-1032100000910-6906d9b19e41226ae0531b9aa8c04bb6
"ЧУВАШСКОЕ РЕГИОНАЛЬНОЕ ОТДЕЛЕНИЕ МОЛОДЕЖНОЙ ОБЩЕРОССИЙСКОЙ ОБЩЕСТВЕННОЙ ОРГАНИЗАЦИИ ""РОССИЙСКИЕ СТУДЕНЧЕСКИЕ ОТРЯДЫ""",ЧУВАШСКОЕ РЕГИОНАЛЬНОЕ ОТДЕЛЕНИЕ МОЛОДЕЖНОЙ ОБЩЕРОССИЙСКОЙ ОБЩЕСТВЕННОЙ ОРГАНИЗАЦИИ РОССИЙСКИЕ СТУДЕНЧЕСКИЕ ОТРЯДЫ,1122100000109,"428003, Чувашская Республика - Чувашия, г.о. город Чебоксары, г Чебоксары, пр-кт Ленина, зд. 12Б, нежилое помещение 15", 56.128070, 47.247525,94.99,"Деятельность прочих общественных организаций и некоммерческих организаций, кроме религиозных и политических организаций",https://spark-interfax.ru/chuvashskaya-respublika-chuvashiya-cheboksary/oo-rossiskie-studencheskie-otryady-inn-2130998626-ogrn-1122100000109-6906d9b1b952226ae0531b9aa8c04bb6
"ОБЩЕСТВО С ОГРАНИЧЕННОЙ ОТВЕТСТВЕННОСТЬЮ ""БАННО-ПРАЧЕЧНЫЙ КОМПЛЕКС"" ВУРНАРСКОГО РАЙОНА ЧУВАШСКОЙ РЕСПУБЛИКИ",ООО БПК ВУРНАРСКОГО РАЙОНА ЧУВАШСКОЙ РЕСПУБЛИКИ,2104008907,"429220, Чувашская Республика - Чувашия, м.о. Вурнарский, пгт Вурнары, ул Илларионова, зд. 4А", 55.492906, 46.945461,35.30.3,Распределение пара и горячей воды (тепловой энергии),https://spark-interfax.ru/chuvashskaya-respublika-chuvashiya-vurnarski-raion/ooo-bpk-vurnarskogo-raiona-chuvashskoi-respubliki-inn-2104008907-ogrn-1222100001045-6906d9b1a70a226ae0531b9aa8c04bb6
"ОБЩЕСТВО С ОГРАНИЧЕННОЙ ОТВЕТСТВЕННОСТЬЮ ""АКЦЕПТ-Ч""",ООО АКЦЕПТ-Ч,2130117927,"428008, Чувашская Республика - Чувашия, г.о. город Чебоксары, г Чебоксары, ул Текстильщиков, зд. 8, офис 316", 56.142057, 47.273465,69.20,"Деятельность по оказанию услуг в области бухгалтерского учета, по проведению финансового аудита, по налоговому консультированию",https://spark-interfax.ru/chuvashskaya-respublika-chuvashiya-cheboksary/ooo-aktsept-ch-inn-2130117927-ogrn-1132130004632-1053b48d25c64967a5242a27c9329b44
"ОБЩЕСТВО С ОГРАНИЧЕННОЙ ОТВЕТСТВЕННОСТЬЮ ""СД-БЛАГОСТРОЙ""",ООО СД-БЛАГОСТРОЙ,2100006257,"429174, Чувашская Республика - Чувашия, м.о. Шемуршинский, с Трехизб-Шемурша, ул Бараева, д. 85", 54.853175, 47.589923,52.21.22,Деятельность по эксплуатации автомобильных дорог и автомагистралей,https://spark-interfax.ru/chuvashskaya-respublika-chuvashiya-shemurshinski-raion/ooo-sd-blagostroi-inn-2100006257-ogrn-1232100002760-f96c45cd26704ad3e053249aa8c08a40
"ОТКРЫТОЕ АКЦИОНЕРНОЕ ОБЩЕСТВО ""КОММУНАЛЬНИК""",ОАО КОММУНАЛЬНИК,2117021856,"429170, Чувашская Республика - Чувашия, м.о. Шемуршинский, с Шемурша, ул Шоссейная, влд. 15", 54.887517, 47.517678,35.30.14,Производство пара и горячей воды (тепловой энергии) котельными,https://spark-interfax.ru/chuvashskaya-respublika-chuvashiya-shemurshinski-raion/pao-kommunalnik-inn-2117021856-ogrn-1102132000255-de0cc41b821241dba5e406ea816ec30b
"ОБЩЕСТВО С ОГРАНИЧЕННОЙ ОТВЕТСТВЕННОСТЬЮ ""СТУДПРОФКАРЬЕРА""",ООО СТУДПРОФКАРЬЕРА,2130168858,"428034, Чувашская Республика - Чувашия, г.о. город Чебоксары, г Чебоксары, пр-кт Московский, зд. 52А, офис 108", 56.140069, 47.191597,82.99,"Деятельность по предоставлению прочих вспомогательных услуг для бизнеса, не включенная в другие группировки",https://spark-interfax.ru/chuvashskaya-respublika-chuvashiya-cheboksary/ooo-studprofkarera-inn-2130168858-ogrn-1162130054118-95a9e16c7da344ef862faca5301e2436
"ОБЩЕСТВО С ОГРАНИЧЕННОЙ ОТВЕТСТВЕННОСТЬЮ ""РАКУРС-ИНВЕСТ""",ООО РАКУРС-ИНВЕСТ,2129054920,"428009, Чувашская Республика - Чувашия, г. Чебоксары, ул. Университетская, д. 10", 56.145524, 47.168195,47.11,"Торговля розничная преимущественно пищевыми продуктами, включая напитки, и табачными изделиями в неспециализированных магазинах",https://spark-interfax.ru/chuvashskaya-respublika-chuvashiya-cheboksary/ooo-rakurs-invest-inn-2129054920-ogrn-1042129009867-93da8af5985741cf950d147e20d0f67d
"ОБЩЕСТВО С ОГРАНИЧЕННОЙ ОТВЕТСТВЕННОСТЬЮ ""АВТОПАРТНЕР""",ООО АВТОПАРТНЕР,2130083234,"428020, Чувашская Республика - Чувашия, г. Чебоксары, проезд Базовый, д. 6А", 56.106395, 47.246617,45.3,"Торговля автомобильными деталями, узлами и принадлежностями",https://spark-interfax.ru/chuvashskaya-respublika-chuvashiya-cheboksary/ooo-avtopartner-inn-2130083234-ogrn-1112130000630-f031083fd54f4106b5e00667cf2d2699
"ОБЩЕСТВО С ОГРАНИЧЕННОЙ ОТВЕТСТВЕННОСТЬЮ ""КЛИМАТ-КОМФОРТ""",ООО КЛИМАТ-КОМФОРТ,2130157648,"428000, Чувашская Республика - Чувашия, г. Чебоксары, ул. К.Маркса, д. 52 офис 204", 56.135414, 47.245763,33.12,Ремонт машин и оборудования,https://spark-interfax.ru/chuvashskaya-respublika-chuvashiya-cheboksary/ooo-klimat-komfort-inn-2130157648-ogrn-1152130009404-2163ebffd92f499eb42fc35cd5fbb74f
"ОБЩЕСТВО С ОГРАНИЧЕННОЙ ОТВЕТСТВЕННОСТЬЮ ""БЕЗОПАСНОСТЬ И ОХРАНА ТРУДА""",ООО БОТ,2128706227,"428001, Чувашская Республика - Чувашия, г. Чебоксары, бульвар Приволжский, д. 4 к. 1 пом. 12", 56.152016, 47.194297,71.20.7,Деятельность по оценке условий труда,https://spark-interfax.ru/chuvashskaya-respublika-chuvashiya-cheboksary/ooo-bot-inn-2128706227-ogrn-1052128153494-2c949eb012524b15b3a7e7272381194d
"АКЦИОНЕРНОЕ ОБЩЕСТВО ""ПРЕДПРИЯТИЕ ДЕЗИНФЕКЦИОННОГО ПРОФИЛЯ ЧУВАШСКОЙ РЕСПУБЛИКИ""",АО ПРЕДПРИЯТИЕ ДЕЗИНФЕКЦИОННОГО ПРОФИЛЯ ЧУВАШСКОЙ РЕСПУБЛИКИ,2130229444,"428003, Чувашская Республика - Чувашия, г.о. город Чебоксары, г Чебоксары, пр-д Гаражный, д. 6/40", 56.112031, 47.282182,86.90.1,Деятельность организаций санитарно-эпидемиологической службы,https://spark-interfax.ru/chuvashskaya-respublika-chuvashiya-cheboksary/ao-predpriyatie-dezinfektsionnogo-profilya-chuvashskoi-respubliki-inn-2130229444-ogrn-1212100009208-6906d9b197e0226ae0531b9aa8c04bb6
"ОБЩЕСТВО С ОГРАНИЧЕННОЙ ОТВЕТСТВЕННОСТЬЮ ""ЯППИ""",ООО ЯППИ,2130002940,"428000, Чувашская Республика - Чувашия, г. Чебоксары, проезд Складской, д. 6 пом. 301", 56.134930, 47.294494,56.29,Деятельность предприятий общественного питания по прочим видам организации питания,https://spark-interfax.ru/chuvashskaya-respublika-chuvashiya-cheboksary/ooo-yappi-inn-2130002940-ogrn-1062130005838-b32d3e2b924b45c4abf3199161fe7712
"ОТКРЫТОЕ АКЦИОНЕРНОЕ ОБЩЕСТВО ""ПОРЕЦКИЙ РЫНОК""",ОАО ПОРЕЦКИЙ РЫНОК,2113004507,"429020, Чувашская Республика - Чувашия, Порецкий район, с. Порецкое, ул. Кооперативная, д. 73", 55.199229, 46.322032,68.20.2,Аренда и управление собственным или арендованным нежилым недвижимым имуществом,https://spark-interfax.ru/chuvashskaya-respublika-chuvashiya-poretski-raion/pao-poretski-rynok-inn-2113004507-ogrn-1142138000223-37c4defa08044a95ae29d79d1ba71c2b
"ОБЩЕСТВО С ОГРАНИЧЕННОЙ ОТВЕТСТВЕННОСТЬЮ ""МЕДИ-ГРУПП""",ООО МЕДИ-ГРУПП,2130177443,"428034, Чувашская Республика - Чувашия, г.о. город Чебоксары, г Чебоксары, ул Университетская, д. 27, помещ. 3.3", 56.140014, 47.166748,41.20,Строительство жилых и нежилых зданий,https://spark-interfax.ru/chuvashskaya-respublika-chuvashiya-cheboksary/ooo-medi-grupp-inn-2130177443-ogrn-1162130064546-f4386a0396a14fa29086c4c409147d2c
"ОБЩЕСТВО С ОГРАНИЧЕННОЙ ОТВЕТСТВЕННОСТЬЮ ""МАГАЗИН 01""",ООО МАГАЗИН 01,2130190236,"428903, Чувашская Республика - Чувашия, г.о. город Чебоксары, г Чебоксары, пр-д Лапсарский, зд. 2Н, стр. 2, помещ. 6", 56.064629, 47.269746,46.90,Торговля оптовая неспециализированная,https://spark-interfax.ru/chuvashskaya-respublika-chuvashiya-cheboksary/ooo-magazin-inn-2130190236-ogrn-1172130009974-59152600152d5bb9e0531c9aa8c084ba
"ЗАКРЫТОЕ АКЦИОНЕРНОЕ ОБЩЕСТВО ""МЕЖХОЗЯЙСТВЕННАЯ СТРОИТЕЛЬНАЯ ОРГАНИЗАЦИЯ ""БАТЫРЕВСКАЯ""",ЗАО МСО БАТЫРЕВСКАЯ,2103000493,"429350, Чувашская Республика - Чувашия, Батыревский район, с. Батырево, ул. Дружбы, д. 6 корп. Б", 55.062328, 47.583394,43.11,Разборка и снос зданий,https://spark-interfax.ru/chuvashskaya-respublika-chuvashiya-batyrevski-raion/ao-mso-batyrevskaya-inn-2103000493-ogrn-1022101831146-9172c7a0d4f146cfaa768d5cd6068ad3
"ОБЩЕСТВО С ОГРАНИЧЕННОЙ ОТВЕТСТВЕННОСТЬЮ ""АГРОФИРМА ""ЧЕМЕНЬ""",ООО АГРОФИРМА ЧЕМЕНЬ,2103005854,"429363, Чувашская Республика - Чувашия, Батыревский район, с. Большое Чеменево, ул. Ф.Туптова, д. 6В", 55.025990, 47.250340,16.10,Распиловка и строгание древесины,https://spark-interfax.ru/chuvashskaya-respublika-chuvashiya-batyrevski-raion/ooo-agrofirma-chemen-inn-2103005854-ogrn-1032132002550-1864b02632834f4aa6bad2bea4f42b76
"ОБЩЕСТВО С ОГРАНИЧЕННОЙ ОТВЕТСТВЕННОСТЬЮ ""СИДЕЛИ""",ООО СИДЕЛИ,2103006632,"429364, Чувашская Республика - Чувашия, м.о. Батыревский, д Кокшаново, ул Советская, д. 9", 55.068016, 47.403416,01.11.1,Выращивание зерновых культур,https://spark-interfax.ru/chuvashskaya-respublika-chuvashiya-batyrevski-raion/ooo-sideli-inn-2103006632-ogrn-1052132003967-6dc036c511ca4ffa8b231fad24e9ab2b
"ОБЩЕСТВЕННАЯ ОРГАНИЗАЦИЯ ТЕРРИТОРИАЛЬНОГО ОБЩЕСТВЕННОГО САМОУПРАВЛЕНИЯ ""ВОЗРОЖДЕНИЕ"" АЛИКОВСКОГО МУНИЦИПАЛЬНОГО ОКРУГА ЧУВАШСКОЙ РЕСПУБЛИКИ",ТОС ВОЗРОЖДЕНИЕ,1232100003178,"429240, Чувашская Республика - Чувашия, м.о. Аликовский, д Питишево, ул Войкова, зд. 58", 55.798261, 46.697801,94.99,"Деятельность прочих общественных организаций и некоммерческих организаций, кроме религиозных и политических организаций",https://spark-interfax.ru/chuvashskaya-respublika-chuvashiya-alikovski-raion/oo-vozrozhdenie-inn-2100006673-ogrn-1232100003178-fae0e683bc6b675ce053259aa8c02aab
"АКЦИОНЕРНОЕ ОБЩЕСТВО ""КАНАШСКАЯ ГОРОДСКАЯ ЯРМАРКА""",АО КАНАШСКАЯ ГОРОДСКАЯ ЯРМАРКА,2123012240,"429330, Чувашская Республика - Чувашия, г. Канаш, ул. Московская, д. 13", 55.509285, 47.496393,68.20.2,Аренда и управление собственным или арендованным нежилым недвижимым имуществом,https://spark-interfax.ru/chuvashskaya-respublika-chuvashiya-kanash/ao-kanashskaya-gorodskaya-yarmarka-inn-2123012240-ogrn-1112134000615-c5feafa7ab4a4f3b9a31c3caba7abe87
"ОБЩЕСТВО С ОГРАНИЧЕННОЙ ОТВЕТСТВЕННОСТЬЮ ""АГРОКОН""",ООО АГРОКОН,2138000085,"429047, Чувашская Республика - Чувашия, Красночетайский район, д. Русские Атаи, ул. Центральная, домовладение 57", 55.701820, 46.404419,01.25.1,Выращивание прочих плодовых и ягодных культур,https://spark-interfax.ru/chuvashskaya-respublika-chuvashiya-krasnochetaiski-raion/ooo-agrokon-inn-2138000085-ogrn-1182130005826-6d2872c311d924d8e0531b9aa8c08787
"ОБЩЕСТВО С ОГРАНИЧЕННОЙ ОТВЕТСТВЕННОСТЬЮ ""НИВА""",ООО НИВА,2106011623,"429314, Чувашская Республика - Чувашия, м.о. Канашский, д Новые Пинеры, ул Молодежная, д. 1", 55.614424, 47.489238,01.11.1,Выращивание зерновых культур,https://spark-interfax.ru/chuvashskaya-respublika-chuvashiya-kanashski-raion/ooo-niva-inn-2106011623-ogrn-1212100003312-c0c43a2f97bc7068e053219aa8c0c2c1
"ОБЩЕСТВО С ОГРАНИЧЕННОЙ ОТВЕТСТВЕННОСТЬЮ ""АКАТУЙ""",ООО АКАТУЙ,2120003335,"429380, Чувашская Республика - Чувашия, Яльчикский район, с. Яльчики, ул. Пушкина, д. 6А", 55.166965, 48.002751,47.1,Торговля розничная в неспециализированных магазинах,https://spark-interfax.ru/chuvashskaya-respublika-chuvashiya-yalchikski-raion/ooo-akatui-inn-2120003335-ogrn-1062132018189-f8d88bf96cab4b9ab1c20a12a7d26a36
"АВТОНОМНАЯ НЕКОММЕРЧЕСКАЯ ОРГАНИЗАЦИЯ ""ГАРАНТИЙНЫЙ ФОНД ЧУВАШСКОЙ РЕСПУБЛИКИ""",АНО ГФ ЧР,1092100001267,"428000, Чувашская Республика - Чувашия, г. Чебоксары, проспект Ленина, зд. 12Б", 56.128070, 47.247525,64.99,"Предоставление прочих финансовых услуг, кроме услуг по страхованию и пенсионному обеспечению, не включенных в другие группировки",https://spark-interfax.ru/chuvashskaya-respublika-chuvashiya-cheboksary/ano-gf-chr-inn-2130065228-ogrn-1092100001267-6906d9b19a6a226ae0531b9aa8c04bb6
"ОБЩЕСТВО С ОГРАНИЧЕННОЙ ОТВЕТСТВЕННОСТЬЮ ""СТРОИТЕЛЬНОЕ УПРАВЛЕНИЕ-6""",ООО СУ-6,2130169080,"428034, Чувашская Республика - Чувашия, г. Чебоксары, проспект Московский, д. 25 к. 1 пом. 16", 56.144245, 47.211677,41.20,Строительство жилых и нежилых зданий,https://spark-interfax.ru/chuvashskaya-respublika-chuvashiya-cheboksary/ooo-su-inn-2130169080-ogrn-1162130054371-71dd6cb99ad147f69d6afbc81a0739f5
"ОБЩЕСТВО С ОГРАНИЧЕННОЙ ОТВЕТСТВЕННОСТЬЮ ""ПАРАДИС""",ООО ПАРАДИС,2130221639,"428022, Чувашская Республика - Чувашия, г. Чебоксары, ул. Цивильская, д. 11 каб. 225", 56.124656, 47.270009,55.10,Деятельность гостиниц и прочих мест для временного проживания,https://spark-interfax.ru/chuvashskaya-respublika-chuvashiya-cheboksary/ooo-paradis-inn-2130221639-ogrn-1202100008131-b277030b20482f87e053219aa8c071b3
"ОБЩЕСТВО С ОГРАНИЧЕННОЙ ОТВЕТСТВЕННОСТЬЮ ""ДОМОСТРОИТЕЛЬНЫЙ КОМБИНАТ РАФФ+""",ООО ДСК РАФФ+,2124048552,"429965, Чувашская Республика - Чувашия, г.о. город Новочебоксарск, г Новочебоксарск, ул Промышленная, зд. 89, к. 4, помещ. 26", 56.088111, 47.510997,23.61,Производство изделий из бетона для использования в строительстве,https://spark-interfax.ru/chuvashskaya-respublika-chuvashiya-novocheboksarsk/ooo-dsk-raff-inn-2124048552-ogrn-1212100007305-cdf7cf85e702588ee053219aa8c0d579
"АКЦИОНЕРНОЕ ОБЩЕСТВО ""МАРПОСАДКАБЕЛЬ""",АО МАРПОСАДКАБЕЛЬ,2111006918,"429570, Чувашская Республика - Чувашия, Мариинско-Посадский район, г. Мариинский Посад, ул. Николаева, д. 93", 56.096016, 47.705254,27.32,Производство прочих проводов и кабелей для электронного и электрического оборудования,https://spark-interfax.ru/chuvashskaya-respublika-chuvashiya-mariinsko-posadski-raion/ao-marposadkabel-inn-2111006918-ogrn-1042135001600-104fd7eeec154beb91a1a3c86848f296
"ОБЩЕСТВО С ОГРАНИЧЕННОЙ ОТВЕТСТВЕННОСТЬЮ ""КАРАЕВО""",ООО КАРАЕВО,2109903188,"429628, Чувашская Республика - Чувашия, Красноармейский район, с. Караево, ул. Механизаторов, д. 2", 55.752436, 47.032421,01.1,Выращивание однолетних культур,https://spark-interfax.ru/chuvashskaya-respublika-chuvashiya-krasnoarmeiski-raion/ooo-karaevo-inn-2109903188-ogrn-1092137000130-6c3a936fbeb54b40ad0b33040a2d9c88
"СЕЛЬСКОХОЗЯЙСТВЕННЫЙ ПРОИЗВОДСТВЕННЫЙ КООПЕРАТИВ ""РАССВЕТ""",СХПК РАССВЕТ,2108001892,"429146, Чувашская Республика - Чувашия, Комсомольский район, с. Тугаево, ул. Кирова, д. 8", 55.200768, 47.350296,01.1,Выращивание однолетних культур,https://spark-interfax.ru/chuvashskaya-respublika-chuvashiya-komsomolski-raion/koop-rassvet-inn-2108001892-ogrn-1022101830013-4824eb3d1bfb4020add05597be1b22e8
"ЗАКРЫТОЕ АКЦИОНЕРНОЕ ОБЩЕСТВО ""КОЛОС""",ЗАО КОЛОС,2113003863,"429700, Чувашская Республика - Чувашия, Ибресинский район, пгт. Ибреси, ул. Сельхозтехники, д. 13", 55.283357, 47.033148,01.11,"Выращивание зерновых (кроме риса), зернобобовых культур и семян масличных культур",https://spark-interfax.ru/chuvashskaya-respublika-chuvashiya-ibresinski-raion/ao-kolos-inn-2113003863-ogrn-1082138000031-2baaa81a84d14e458962bb03ef6eee18
"ОБЩЕСТВО С ОГРАНИЧЕННОЙ ОТВЕТСТВЕННОСТЬЮ ""ПОЛЕ ГРУПП""",ООО ПОЛЕ ГРУПП,2100006850,"429545, Чувашская Республика - Чувашия, м.о. Моргаушский, д Ойкасы (Большесундырское с/п), ул Центральная, двлд. 1", 56.137339, 46.836664,01.13,"Выращивание овощей, бахчевых, корнеплодных и клубнеплодных культур, грибов и трюфелей",https://spark-interfax.ru/chuvashskaya-respublika-chuvashiya-morgaushski-raion/ooo-pole-grupp-inn-2100006850-ogrn-1232100003354-fb8082e1e56773f0e053259aa8c06632
"ОБЩЕСТВО С ОГРАНИЧЕННОЙ ОТВЕТСТВЕННОСТЬЮ ""ТАНЫШ""",ООО ТАНЫШ,2108001878,"429140, Чувашская Республика - Чувашия, Комсомольский район, с. Комсомольское, ул. Канашская, д. 40", 55.259893, 47.537747,68.20.2,Аренда и управление собственным или арендованным нежилым недвижимым имуществом,https://spark-interfax.ru/chuvashskaya-respublika-chuvashiya-komsomolski-raion/ooo-tanysh-inn-2108001878-ogrn-1022101829298-200fb3298fb94323983ce3c17bbb6933
"СЕЛЬСКОХОЗЯЙСТВЕННЫЙ ПРОИЗВОДСТВЕННЫЙ КООПЕРАТИВ ""ВОСТОК""",СХПК ВОСТОК,2108005992,"429151, Чувашская Республика - Чувашия, Комсомольский район, д. Сюрбей-Токаево, ул. Им. Пожеданова, зд. 2А", 55.265004, 47.410362,01.11.1,Выращивание зерновых культур,https://spark-interfax.ru/chuvashskaya-respublika-chuvashiya-komsomolski-raion/koop-vostok-inn-2108005992-ogrn-1042132001713-cc85ab0f5527435aa01ae25ea9989259
"МУНИЦИПАЛЬНОЕ БЮДЖЕТНОЕ ДОШКОЛЬНОЕ ОБРАЗОВАТЕЛЬНОЕ УЧРЕЖДЕНИЕ ""ДЕТСКИЙ САД № 211"" ГОРОДА ЧЕБОКСАРЫ ЧУВАШСКОЙ РЕСПУБЛИКИ",МБДОУ ДЕТСКИЙ САД № 211 Г. ЧЕБОКСАРЫ,1222100002838,"428037, Чувашская Республика - Чувашия, г.о. город Чебоксары, г Чебоксары, ул А.В.Асламаса, зд. 20", 56.108681, 47.335233,85.11,Образование дошкольное,https://spark-interfax.ru/chuvashskaya-respublika-chuvashiya-cheboksary/mbu-detski-sad-n-g-cheboksary-inn-2130231531-ogrn-1222100002838-dcd1d78d76c81991e053259aa8c099a0
"МУНИЦИПАЛЬНОЕ БЮДЖЕТНОЕ ДОШКОЛЬНОЕ ОБРАЗОВАТЕЛЬНОЕ УЧРЕЖДЕНИЕ ""ДЕТСКИЙ САД № 208"" ГОРОДА ЧЕБОКСАРЫ ЧУВАШСКОЙ РЕСПУБЛИКИ",МБДОУ ДЕТСКИЙ САД № 208 Г. ЧЕБОКСАРЫ,1202100000508,"428030, Чувашская Республика - Чувашия, г. Чебоксары, ул. Новогородская, д. 20А", 56.127562, 47.379698,85.11,Образование дошкольное,https://spark-interfax.ru/chuvashskaya-respublika-chuvashiya-cheboksary/mbu-detski-sad-n-g-cheboksary-inn-2130216477-ogrn-1202100000508-9d90014147c27a27e053179aa8c0032a
"МУНИЦИПАЛЬНОЕ БЮДЖЕТНОЕ ДОШКОЛЬНОЕ ОБРАЗОВАТЕЛЬНОЕ УЧРЕЖДЕНИЕ ""ДЕТСКИЙ САД №105 ОБЩЕРАЗВИВАЮЩЕГО ВИДА С ПРИОРИТЕТНЫМ ОСУЩЕСТВЛЕНИЕМ ДЕЯТЕЛЬНОСТИ ПО СОЦИАЛЬНО-ЛИЧНОСТНОМУ РАЗВИТИЮ ДЕТЕЙ"" ГОРОДА ЧЕБОКСАРЫ ЧУВАШСКОЙ РЕСПУБЛИКИ",МБДОУ ДЕТСКИЙ САД № 105 Г. ЧЕБОКСАРЫ,1022101278210,"428000, Чувашская Республика - Чувашия, г. Чебоксары, ул. Гузовского, д. 21А", 56.146836, 47.183261,85.11,Образование дошкольное,https://spark-interfax.ru/chuvashskaya-respublika-chuvashiya-cheboksary/mbu-detski-sad-n-g-cheboksary-inn-2129033912-ogrn-1022101278210-6906d9b1c2f2226ae0531b9aa8c04bb6
"МУНИЦИПАЛЬНОЕ БЮДЖЕТНОЕ ДОШКОЛЬНОЕ ОБРАЗОВАТЕЛЬНОЕ УЧРЕЖДЕНИЕ ""ДЕТСКИЙ САД №209 ""ЭВРИКА"" ГОРОДА ЧЕБОКСАРЫ ЧУВАШСКОЙ РЕСПУБЛИКИ",МБДОУ ДЕТСКИЙ САД №209 ЭВРИКА Г. ЧЕБОКСАРЫ,1202100001256,"428034, Чувашская Республика - Чувашия, г. Чебоксары, ул. Академика Ран Х.М.Миначева, зд. 23", 56.137242, 47.149225,85.11,Образование дошкольное,https://spark-interfax.ru/chuvashskaya-respublika-chuvashiya-cheboksary/mbu-detski-sad-n-evrika-g-cheboksary-inn-2130216928-ogrn-1202100001256-9ea98bf8a46b723fe053179aa8c0100c
"МУНИЦИПАЛЬНОЕ БЮДЖЕТНОЕ ДОШКОЛЬНОЕ ОБРАЗОВАТЕЛЬНОЕ УЧРЕЖДЕНИЕ ""ДЕТСКИЙ САД № 101"" ГОРОДА ЧЕБОКСАРЫ ЧУВАШСКОЙ РЕСПУБЛИКИ",МБДОУ ДЕТСКИЙ САД № 101 Г. ЧЕБОКСАРЫ,1022101281223,"428005, Чувашская Республика - Чувашия, г. Чебоксары, ул. Грасиса, д. 8 к. А", 56.125783, 47.199123,85.11,Образование дошкольное,https://spark-interfax.ru/chuvashskaya-respublika-chuvashiya-cheboksary/mbu-detski-sad-n-g-cheboksary-inn-2129034899-ogrn-1022101281223-6906d9b1c2f1226ae0531b9aa8c04bb6
"МУНИЦИПАЛЬНОЕ БЮДЖЕТНОЕ ДОШКОЛЬНОЕ ОБРАЗОВАТЕЛЬНОЕ УЧРЕЖДЕНИЕ ""ДЕТСКИЙ САД №122 ""СОЛНЕЧНЫЙ ЛУЧИК"" ОБЩЕРАЗВИВАЮЩЕГО ВИДА С ПРИОРИТЕТНЫМ ОСУЩЕСТВЛЕНИЕМ ДЕЯТЕЛЬНОСТИ ПО ПОЗНАВАТЕЛЬНО-РЕЧЕВОМУ РАЗВИТИЮ ДЕТЕЙ"" ГОРОДА ЧЕБОКСАРЫ ЧУВАШСКОЙ РЕСПУБЛИКИ",МБДОУ ДЕТСКИЙ САД № 122 Г. ЧЕБОКСАРЫ,1022101278902,"428015, Чувашская Республика - Чувашия, г. Чебоксары, проспект Московский, д. 33 к. Б", 56.141091, 47.205190,85.11,Образование дошкольное,https://spark-interfax.ru/chuvashskaya-respublika-chuvashiya-cheboksary/mbu-detski-sad-n-g-cheboksary-inn-2129035719-ogrn-1022101278902-6906d9b1c359226ae0531b9aa8c04bb6
"МУНИЦИПАЛЬНОЕ БЮДЖЕТНОЕ ДОШКОЛЬНОЕ ОБРАЗОВАТЕЛЬНОЕ УЧРЕЖДЕНИЕ ""ДЕТСКИЙ САД № 174 ""МИКРОША"" ОБЩЕРАЗВИВАЮЩЕГО ВИДА С ПРИОРИТЕТНЫМ ОСУЩЕСТВЛЕНИЕМ ДЕЯТЕЛЬНОСТИ ПО СОЦИАЛЬНО-ЛИЧНОСТНОМУ РАЗВИТИЮ ДЕТЕЙ"" ГОРОДА ЧЕБОКСАРЫ ЧУВАШСКОЙ РЕСПУБЛИКИ",МБДОУ ДЕТСКИЙ САД № 174 Г. ЧЕБОКСАРЫ,1022101278066,"428020, Чувашская Республика - Чувашия, г. Чебоксары, ул. Лебедева, д. 5", 56.147559, 47.166152,85.11,Образование дошкольное,https://spark-interfax.ru/chuvashskaya-respublika-chuvashiya-cheboksary/mbu-detski-sad-n-g-cheboksary-inn-2129035532-ogrn-1022101278066-6906d9b1c36e226ae0531b9aa8c04bb6
"МУНИЦИПАЛЬНОЕ БЮДЖЕТНОЕ ДОШКОЛЬНОЕ ОБРАЗОВАТЕЛЬНОЕ УЧРЕЖДЕНИЕ ""ДЕТСКИЙ САД № 82 КОМБИНИРОВАННОГО ВИДА"" ГОРОДА ЧЕБОКСАРЫ ЧУВАШСКОЙ РЕСПУБЛИКИ",МБДОУ ДЕТСКИЙ САД № 82 Г. ЧЕБОКСАРЫ,1022101276977,"428017, Чувашская Республика - Чувашия, г. Чебоксары, ул. Мичмана Павлова, д. 11 к. А", 56.140800, 47.189869,85.11,Образование дошкольное,https://spark-interfax.ru/chuvashskaya-respublika-chuvashiya-cheboksary/mbu-detski-sad-n-g-cheboksary-inn-2129034345-ogrn-1022101276977-6906d9b1c470226ae0531b9aa8c04bb6
"МУНИЦИПАЛЬНОЕ БЮДЖЕТНОЕ ДОШКОЛЬНОЕ ОБРАЗОВАТЕЛЬНОЕ УЧРЕЖДЕНИЕ ""ДЕТСКИЙ САД № 85"" ГОРОДА ЧЕБОКСАРЫ ЧУВАШСКОЙ РЕСПУБЛИКИ",МБДОУ ДЕТСКИЙ САД № 85 Г. ЧЕБОКСАРЫ,1022101279320,"428017, Чувашская Республика - Чувашия, г. Чебоксары, ул. Т.Кривова, д. 7 к. 1", 56.142298, 47.194690,85.11,Образование дошкольное,https://spark-interfax.ru/chuvashskaya-respublika-chuvashiya-cheboksary/mbu-detski-sad-n-g-cheboksary-inn-2129034850-ogrn-1022101279320-6906d9b1c466226ae0531b9aa8c04bb6
"МУНИЦИПАЛЬНОЕ БЮДЖЕТНОЕ ДОШКОЛЬНОЕ ОБРАЗОВАТЕЛЬНОЕ УЧРЕЖДЕНИЕ ""ДЕТСКИЙ САД № 89 ""ЛАДУШКИ"" ГОРОДА ЧЕБОКСАРЫ ЧУВАШСКОЙ РЕСПУБЛИКИ",МБДОУ ДЕТСКИЙ САД № 89 Г. ЧЕБОКСАРЫ,1022100984729,"428022, Чувашская Республика - Чувашия, г. Чебоксары, ул. Космонавта Николаева А.Г., д. 47 к. А", 56.129253, 47.278816,85.11,Образование дошкольное,https://spark-interfax.ru/chuvashskaya-respublika-chuvashiya-cheboksary/mbu-detski-sad-n-g-cheboksary-inn-2127309629-ogrn-1022100984729-6906d9b1c21e226ae0531b9aa8c04bb6
