Название,Название Кратко,ИНН,адрес,lat,lon,Код оквэд,Основной вид деятельности,Ссылка
"ОБЩЕСТВО С ОГРАНИЧЕННОЙ ОТВЕТСТВЕННОСТЬЮ ""САН АГРО""",ООО САН АГРО,3662161573,"394036, Воронежская обл., г. Воронеж, ул. Карла Маркса, д. 72А офис 205", 51.666289, 39.204213,46.21,"Торговля оптовая зерном, необработанным табаком, семенами и кормами для сельскохозяйственных животных",https://spark-interfax.ru/voronezhskaya-oblast-voronezh/ooo-san-agro-inn-3662161573-ogrn-1113668003613-4b89698372d941d3bb019f1892fb6919
"АКЦИОНЕРНОЕ ОБЩЕСТВО ""КОНЦЕРН ""СОЗВЕЗДИЕ""",АО КОНЦЕРН СОЗВЕЗДИЕ,3666127502,"394018, Воронежская обл., г. Воронеж, ул. Плехановская, д. 14", 51.663610, 39.198347,72.19,Научные исследования и разработки в области естественных и технических наук прочие,https://spark-interfax.ru/voronezhskaya-oblast-voronezh/ao-kontsern-sozvezdie-inn-3666127502-ogrn-1053600445337-3beae045ac634ed082efc62078a26cc6
"АКЦИОНЕРНОЕ ОБЩЕСТВО ""МОДУЛЬ-ВОРОНЕЖ""",АО МОДУЛЬ-В,3662173875,"394033, Воронежская обл., г. Воронеж, проспект Ленинский, д. 119А литера 2А-3 пом. 14", 51.673840, 39.253036,26.20,Производство компьютеров и периферийного оборудования,https://spark-interfax.ru/voronezhskaya-oblast-voronezh/ao-modul-v-inn-3662173875-ogrn-1123668010575-ebdb24b448dd4b1aae55a1558ebd13f9
"ОБЩЕСТВО С ОГРАНИЧЕННОЙ ОТВЕТСТВЕННОСТЬЮ ""КВ СИСТЕМЫ""",ООО КВ СИСТЕМЫ,3662196840,"394026, Воронежская обл., г. Воронеж, ул. Дружинников, д. 5Б офис 2", 51.684703, 39.174406,27.12,Производство электрической распределительной и регулирующей аппаратуры,https://spark-interfax.ru/voronezhskaya-oblast-voronezh/ooo-kv-sistemy-inn-3662196840-ogrn-1133668054662-06b6750318fa4aeab598250cee65f66d
"ОБЩЕСТВО С ОГРАНИЧЕННОЙ ОТВЕТСТВЕННОСТЬЮ ""БОРИСОГЛЕБСКОЕ МАШИНОСТРОЕНИЕ""",ООО БОРМАШ,3604011804,"397340, Воронежская обл., Поворинский район, с. Пески, ул. Пролетарская, д. 59", 51.250470, 42.472045,28.25,Производство промышленного холодильного и вентиляционного оборудования,https://spark-interfax.ru/voronezhskaya-oblast-povorinski-raion/ooo-bormash-inn-3604011804-ogrn-1023600612804-e5c7af7fdc2b471787793df419693163
ВОРОНЕЖСКИЙ ИНСТИТУТ ВЫСОКИХ ТЕХНОЛОГИЙ - АВТОНОМНАЯ НЕКОММЕРЧЕСКАЯ ОБРАЗОВАТЕЛЬНАЯ ОРГАНИЗАЦИЯ ВЫСШЕГО ОБРАЗОВАНИЯ,ВИВТ - АНОО ВО,1033600006439,"394043, Воронежская обл., г. Воронеж, ул. Ленина, д. 73А", 51.684201, 39.217491,85.22,Образование высшее,https://spark-interfax.ru/voronezhskaya-oblast-voronezh/ano-vivt-anoo-inn-3662006761-ogrn-1033600006439-6906d94b978e226ae0531b9aa8c04bb6
"СЕЛЬСКОХОЗЯЙСТВЕННЫЙ ПОТРЕБИТЕЛЬСКИЙ СБЫТОВОЙ КООПЕРАТИВ ""ПАНИНСКИЕ САДЫ""",СПСК ПАНИНСКИЕ САДЫ,1243600002634,"396180, Воронежская обл, м.р-н Панинский, с.п. Красненское, п Первомайский, ул Центральная, д. 2, кв. 1", 51.720512, 40.147915,46.31,Торговля оптовая фруктами и овощами,https://spark-interfax.ru/voronezhskaya-oblast-paninski-raion/koop-paninskie-sady-inn-3604084552-ogrn-1243600002634-122cdbb5d11f4ed8e063259aa8c05b89
"ГОСУДАРСТВЕННОЕ БЮДЖЕТНОЕ ПРОФЕССИОНАЛЬНОЕ ОБРАЗОВАТЕЛЬНОЕ УЧРЕЖДЕНИЕ ВОРОНЕЖСКОЙ ОБЛАСТИ ""ВОРОНЕЖСКИЙ ТЕХНИКУМ ПИЩЕВОЙ И ПЕРЕРАБАТЫВАЮЩЕЙ ПРОМЫШЛЕННОСТИ""",ГБПОУ ВО ВТППП,1153668048027,"394005, Воронежская обл., г. Воронеж, проспект Московский, д. 129", 51.727751, 39.177381,85.21,Образование профессиональное среднее,https://spark-interfax.ru/voronezhskaya-oblast-voronezh/gbu-vtppp-inn-3662214232-ogrn-1153668048027-6906d94cba71226ae0531b9aa8c04bb6
"ГОСУДАРСТВЕННОЕ БЮДЖЕТНОЕ ПРОФЕССИОНАЛЬНОЕ ОБРАЗОВАТЕЛЬНОЕ УЧРЕЖДЕНИЕ ВОРОНЕЖСКОЙ ОБЛАСТИ ""ВОРОНЕЖСКИЙ ГОСУДАРСТВЕННЫЙ ПРОМЫШЛЕННО-ГУМАНИТАРНЫЙ КОЛЛЕДЖ ИМЕНИ ВАСИЛИЯ МИХАЙЛОВИЧА ПЕСКОВА""",ГБПОУ ВО ВГПГК ИМЕНИ В.М.ПЕСКОВА,1033600041254,"394036, Воронежская обл., г. Воронеж, проспект Революции, д. 20", 51.673094, 39.209616,85.21,Образование профессиональное среднее,https://spark-interfax.ru/voronezhskaya-oblast-voronezh/gbu-vgpgk-imeni-v-m-peskova-inn-3666028526-ogrn-1033600041254-6906d94c07e0226ae0531b9aa8c04bb6
"ФЕДЕРАЛЬНОЕ ГОСУДАРСТВЕННОЕ БЮДЖЕТНОЕ ОБРАЗОВАТЕЛЬНОЕ УЧРЕЖДЕНИЕ ВЫСШЕГО ОБРАЗОВАНИЯ ""ВОРОНЕЖСКИЙ ГОСУДАРСТВЕННЫЙ ПЕДАГОГИЧЕСКИЙ УНИВЕРСИТЕТ""","ФГБОУ ВО ВОРОНЕЖСКИЙ ГОСУДАРСТВЕННЫЙ ПЕДАГОГИЧЕСКИЙ УНИВЕРСИТЕТ, ФГБОУ ВО ВГПУ, ВОРОНЕЖСКИЙ ГОСУДАРСТВЕННЫЙ ПЕДАГОГИЧЕСКИЙ УНИВЕРСИТЕТ, ВГПУ",1033600041683,"394043, Воронежская обл., г. Воронеж, ул. Ленина, д. 86", 51.686593, 39.216350,85.22,Образование высшее,https://spark-interfax.ru/voronezhskaya-oblast-voronezh/fgbu-voronezhski-gosudarstvenny-pedagogicheski-universitet-fgbou-vo-vgpu-voronezhski-gosudarstvenny-pedagogicheski-universitet-vgpu-i-6906d94bfb05226ae0531b9aa8c04bb6
"ГОСУДАРСТВЕННОЕ БЮДЖЕТНОЕ ПРОФЕССИОНАЛЬНОЕ ОБРАЗОВАТЕЛЬНОЕ УЧРЕЖДЕНИЕ ВОРОНЕЖСКОЙ ОБЛАСТИ ""ЛИСКИНСКИЙ ПРОМЫШЛЕННО-ТРАНСПОРТНЫЙ ТЕХНИКУМ ИМЕНИ А.К. ЛЫСЕНКО""",ГБПОУ ВО ЛПТТ ИМЕНИ А.К. ЛЫСЕНКО,1023601513980,"397900, Воронежская обл., Лискинский район, г. Лиски, ул. Лысенко, д. 1", 50.991026, 39.502681,85.21,Образование профессиональное среднее,https://spark-interfax.ru/voronezhskaya-oblast-liskinski-raion/gbu-lptt-imeni-a-k-lysenko-inn-3652001595-ogrn-1023601513980-6906d94c07da226ae0531b9aa8c04bb6
"ОБЩЕСТВО С ОГРАНИЧЕННОЙ ОТВЕТСТВЕННОСТЬЮ ""СПЕЦИАЛИЗИРОВАННОЕ ХОЗЯЙСТВО МОСКОВСКОЕ""",ООО СПЕЦИАЛИЗИРОВАННОЕ ХОЗЯЙСТВО МОСКОВСКОЕ,3602008789,"397713, Воронежская обл, м.р-н Бобровский, с.п. Семёно-Александровское, с Семёно-Александровка, тер. ООО СХ Московское, зд. 1, офис 1", 51.037136, 40.217468,01.46,Разведение свиней,https://spark-interfax.ru/voronezhskaya-oblast-bobrovski-raion/ooo-spetsializirovannoe-khozyaistvo-moskovskoe-inn-3602008789-ogrn-1063652010080-4407fad1f20343aab7f8ce15be33e4f0
"ФЕДЕРАЛЬНОЕ ГОСУДАРСТВЕННОЕ БЮДЖЕТНОЕ УЧРЕЖДЕНИЕ ГОСУДАРСТВЕННЫЙ ЦЕНТР АГРОХИМИЧЕСКОЙ СЛУЖБЫ ""ВОРОНЕЖСКИЙ""",ФГБУ ГЦАС ВОРОНЕЖСКИЙ,1033600045797,"394087, Воронежская обл., г. Воронеж, ул. Ломоносова, д. 98", 51.716212, 39.226833,01.61,Предоставление услуг в области растениеводства,https://spark-interfax.ru/voronezhskaya-oblast-voronezh/fgbu-voronezhski-inn-3666028847-ogrn-1033600045797-6906d94c067f226ae0531b9aa8c04bb6
"ФЕДЕРАЛЬНОЕ ГОСУДАРСТВЕННОЕ БЮДЖЕТНОЕ УЧРЕЖДЕНИЕ ""СТАНЦИЯ АГРОХИМИЧЕСКОЙ СЛУЖБЫ ""ТАЛОВСКАЯ""",ФГБУ САС ТАЛОВСКАЯ,1023601357097,"397463, Воронежская обл., Таловский район, пос. 2-Го Участка Института Им. Докучаева, квартал 5-Й, стр. 84", 51.037701, 40.740326,01.61,Предоставление услуг в области растениеводства,https://spark-interfax.ru/voronezhskaya-oblast-talovski-raion/fgbu-sas-talovskaya-inn-3629000120-ogrn-1023601357097-6906d94c0680226ae0531b9aa8c04bb6
"ФЕДЕРАЛЬНОЕ ГОСУДАРСТВЕННОЕ БЮДЖЕТНОЕ ОБРАЗОВАТЕЛЬНОЕ УЧРЕЖДЕНИЕ ВЫСШЕГО ОБРАЗОВАНИЯ ""ВОРОНЕЖСКАЯ ГОСУДАРСТВЕННАЯ АКАДЕМИЯ СПОРТА""",ФГБОУ ВО ВГАС,1065027031365,"394036, Воронежская обл., г. Воронеж, ул. Карла Маркса, д. 59", 51.666550, 39.201617,85.22,Образование высшее,https://spark-interfax.ru/voronezhskaya-oblast-voronezh/fgbu-vgas-inn-3666138230-ogrn-1065027031365-6906d94c0ad3226ae0531b9aa8c04bb6
"ФЕДЕРАЛЬНОЕ ГОСУДАРСТВЕННОЕ БЮДЖЕТНОЕ ОБРАЗОВАТЕЛЬНОЕ УЧРЕЖДЕНИЕ ВЫСШЕГО ОБРАЗОВАНИЯ ""ВОРОНЕЖСКИЙ ГОСУДАРСТВЕННЫЙ ТЕХНИЧЕСКИЙ УНИВЕРСИТЕТ""","ФГБОУ ВО ВОРОНЕЖСКИЙ ГОСУДАРСТВЕННЫЙ ТЕХНИЧЕСКИЙ УНИВЕРСИТЕТ, ВОРОНЕЖСКИЙ ГОСУДАРСТВЕННЫЙ ТЕХНИЧЕСКИЙ УНИВЕРСИТЕТ, ФГБОУ ВО ВГТУ, ВГТУ",1033600070448,"394006, Воронежская обл., г. Воронеж, ул. 20-Летия Октября, д. 84", 51.650106, 39.192754,85.22,Образование высшее,https://spark-interfax.ru/voronezhskaya-oblast-voronezh/fgbu-voronezhski-gosudarstvenny-tekhnicheski-universitet-voronezhski-gosudarstvenny-tekhnicheski-universitet-fgbou-vo-vgtu-vgtu-inn-3-6906d94c0746226ae0531b9aa8c04bb6
"ОБЩЕСТВО С ОГРАНИЧЕННОЙ ОТВЕТСТВЕННОСТЬЮ ""МТС ВОРОБЬЁВСКАЯ""",ООО МТС ВОРОБЬЁВСКАЯ,3614010447,"397550, Воронежская обл., Воробьевский район, с. Лещаное, ул. Привокзальная, д. 5Б офис 2", 50.595306, 40.891613,33.12,Ремонт машин и оборудования,https://spark-interfax.ru/voronezhskaya-oblast-vorobevski-raion/ooo-mts-vorobevskaya-inn-3614010447-ogrn-1203600004563-9ea98bf8ad39723fe053179aa8c0100c
"ОБЩЕСТВО С ОГРАНИЧЕННОЙ ОТВЕТСТВЕННОСТЬЮ ""ПРИРЕЧНОЕ""",ООО ПРИРЕЧНОЕ,3666192332,"394016, Воронежская обл., г. Воронеж, проезд Ясный, д. 1А офис 104", 51.689023, 39.156567,55.20,Деятельность по предоставлению мест для краткосрочного проживания,https://spark-interfax.ru/voronezhskaya-oblast-voronezh/ooo-prirechnoe-inn-3666192332-ogrn-1143668027821-b6d9d6caeacd445186d6d2704c850efc
"ФЕДЕРАЛЬНОЕ ГОСУДАРСТВЕННОЕ БЮДЖЕТНОЕ НАУЧНОЕ УЧРЕЖДЕНИЕ ""ВОРОНЕЖСКИЙ ФЕДЕРАЛЬНЫЙ АГРАРНЫЙ НАУЧНЫЙ ЦЕНТР ИМ. В.В. ДОКУЧАЕВА""",ФГБНУ ВОРОНЕЖСКИЙ ФАНЦ ИМ. В.В. ДОКУЧАЕВА,1023601355227,"397463, Воронежская обл, м.р-н Таловский, с.п. Каменно-Степное, п 2-го участка института им. Докучаева, кв-л 5-й, д. 81", 51.037701, 40.740326,72.19,Научные исследования и разработки в области естественных и технических наук прочие,https://spark-interfax.ru/voronezhskaya-oblast-talovski-raion/fgbu-voronezhski-fants-im-v-v-dokuchaeva-inn-3629001244-ogrn-1023601355227-6906d94c06a1226ae0531b9aa8c04bb6
"ОБЩЕСТВО С ОГРАНИЧЕННОЙ ОТВЕТСТВЕННОСТЬЮ ""БОРИСОГЛЕБСК-АГРОХИМРЕСУРС""",ООО БОРИСОГЛЕБСК-АГРОХИМРЕСУРС,3604017010,"397151, Воронежская обл., Борисоглебский район, с. Богана, пер. Колхозный, д. 1", 51.478762, 42.184537,01.1,Выращивание однолетних культур,https://spark-interfax.ru/voronezhskaya-oblast-borisoglebsk/ooo-borisoglebsk-agrokhimresurs-inn-3604017010-ogrn-1073604001481-fc957ac1343a43739be9843060b4e4d3
"СЕЛЬСКОХОЗЯЙСТВЕННЫЙ ПОТРЕБИТЕЛЬСКИЙ СНАБЖЕНЧЕСКО-СБЫТОВОЙ КООПЕРАТИВ ""ДОВЕРИЕ""",СПССК ДОВЕРИЕ,3607005083,"396110, Воронежская обл., с. Верхняя Хава, ул. Калинина, д. 2 ""А""/2", 51.847504, 39.907857,45.3,"Торговля автомобильными деталями, узлами и принадлежностями",https://spark-interfax.ru/voronezhskaya-oblast-verkhnekhavski-raion/pk-doverie-inn-3607005083-ogrn-1063616014549-6906d94c4c4c226ae0531b9aa8c04bb6
"ЗАКРЫТОЕ АКЦИОНЕРНОЕ ОБЩЕСТВО "" МАНИНО """,ЗАО '' МАНИНО '',3610008060,"397640, Воронежская обл., Калачеевский район, с. Манино, ул. Федота Щербинина, д. 43", 50.488064, 41.389774,01.41,"Разведение молочного крупного рогатого скота, производство сырого молока",https://spark-interfax.ru/voronezhskaya-oblast-kalacheevski-raion/ao-manino-inn-3610008060-ogrn-1023600795063-5d331e8333974fbeb4749f44fe8f8362
"ОБЩЕСТВО С ОГРАНИЧЕННОЙ ОТВЕТСТВЕННОСТЬЮ ""ЭХО ЛАБ""",ООО ЭХО ЛАБ,3663168564,"394010, Воронежская обл, г.о. город Воронеж, г Воронеж, ул Артамонова, д. 34/8, кв. 361", 51.716417, 39.266073,77.29,Прокат и аренда прочих предметов личного пользования и хозяйственно-бытового назначения,https://spark-interfax.ru/voronezhskaya-oblast-voronezh/ooo-ekho-lab-inn-3663168564-ogrn-1243600010411-1ca07e9b46b84a18e063259aa8c044a4
"МУНИЦИПАЛЬНОЕ ПРЕДПРИЯТИЕ ГОРОДСКОГО ОКРУГА САМАРА ""ИНЖЕНЕРНАЯ СЛУЖБА""",МП ГОРОДСКОГО ОКРУГА САМАРА ИНЖЕНЕРНАЯ СЛУЖБА,6315701071,"443099, Самарская обл., г. Самара, ул. Куйбышева, д. 103", 53.188422, 50.090497,35.30.2,Передача пара и горячей воды (тепловой энергии),https://spark-interfax.ru/samarskaya-oblast-samara/mup-inzhenernaya-sluzhba-inn-6315701071-ogrn-1026300972675-6906d9579621226ae0531b9aa8c04bb6
"МУНИЦИПАЛЬНОЕ ПРЕДПРИЯТИЕ ГОРОДСКОГО ОКРУГА САМАРА ""БЛАГОУСТРОЙСТВО""",МП Г.О.САМАРА БЛАГОУСТРОЙСТВО,6315705990,"443080, Самарская обл., г. Самара, ул. Гаражная, д. 14", 53.208114, 50.178379,81.29.2,Подметание улиц и уборка снега,https://spark-interfax.ru/samarskaya-oblast-samara/mup-blagoustroistvo-inn-6315705990-ogrn-1066315023720-6906d95773d0226ae0531b9aa8c04bb6
"РЕГИОНАЛЬНАЯ ОБЩЕСТВЕННАЯ ОРГАНИЗАЦИЯ ""КАЗАЧЬЯ ДОБРОВОЛЬНАЯ ПОЖАРНАЯ КОМАНДА""",РОО КДПК,1226300006822,"443065, Самарская обл, г.о. Самара, вн.р-н Куйбышевский, г Самара, пер Долотный, д. 8, кв. 55", 53.120472, 50.084339,84.25.1,Деятельность по обеспечению пожарной безопасности,https://spark-interfax.ru/samarskaya-oblast-samara/oo-kdpk-inn-6314048438-ogrn-1226300006822-d86b50647b241897e053259aa8c0849f
МИНИСТЕРСТВО СОЦИАЛЬНО-ДЕМОГРАФИЧЕСКОЙ И СЕМЕЙНОЙ ПОЛИТИКИ САМАРСКОЙ ОБЛАСТИ,МИНСОЦДЕМОГРАФИИ САМАРСКОЙ ОБЛАСТИ,1126316005628,"443086, Самарская обл., г. Самара, ул. Революционная, д. 44", 53.213397, 50.169687,84.11.21,"Деятельность органов государственной власти субъектов Российской Федерации (республик, краев, областей), кроме судебной власти, представительств исполнительных органов государственной власти субъектов Российской Федерации при Президенте Российской Федерации",https://spark-interfax.ru/samarskaya-oblast-samara/gku-minsotsdemografii-samarskoi-oblasti-inn-6316176298-ogrn-1126316005628-6906d959613e226ae0531b9aa8c04bb6
ФОНД ПОДДЕРЖКИ И РАЗВИТИЯ ФУТБОЛА В САМАРСКОЙ ОБЛАСТИ,ФПРФ СО,1146300002551,"443051, Самарская обл., г. Самара, ул. Строителей, владение 1", 53.237337, 50.271709,64.99,"Предоставление прочих финансовых услуг, кроме услуг по страхованию и пенсионному обеспечению, не включенных в другие группировки",https://spark-interfax.ru/samarskaya-oblast-samara/fond-fprf-inn-6312997744-ogrn-1146300002551-6906d95783ac226ae0531b9aa8c04bb6
"АВТОНОМНАЯ НЕКОММЕРЧЕСКАЯ ОРГАНИЗАЦИЯ ""ВОЛЕЙБОЛЬНЫЙ КЛУБ ""НОВА""",АНО ВК НОВА,1176313081548,"446213, Самарская обл., г. Новокуйбышевск, ул. Дзержинского, д. 16 офис 23", 53.090423, 49.963882,93.12,Деятельность спортивных клубов,https://spark-interfax.ru/samarskaya-oblast-novokuibyshevsk/ano-vk-nova-inn-6330078775-ogrn-1176313081548-6906d95a0d9e226ae0531b9aa8c04bb6
"АВТОНОМНАЯ НЕКОММЕРЧЕСКАЯ ОРГАНИЗАЦИЯ ДОПОЛНИТЕЛЬНОГО ОБРАЗОВАНИЯ ""АКАДЕМИЯ ФУТБОЛА ""КРЫЛЬЯ СОВЕТОВ"" (СПОРТИВНАЯ ШКОЛА)""",АНО ДО АКАДЕМИЯ КС,1206300068930,"443051, Самарская обл., г. Самара, ул. Строителей, д. 1", 53.237337, 50.271709,85.41,Образование дополнительное детей и взрослых,https://spark-interfax.ru/samarskaya-oblast-samara/ano-akademiya-ks-inn-6312205660-ogrn-1206300068930-b650b94862b038a8e053219aa8c0fd91
"АВТОНОМНАЯ НЕКОММЕРЧЕСКАЯ ОРГАНИЗАЦИЯ ""ГАНДБОЛЬНЫЙ КЛУБ ""ЛАДА""",АНО ГК ЛАДА,1216300027240,"445028, Самарская обл, г.о. Тольятти, г Тольятти, б-р Приморский, влд. 49", 53.506744, 49.260235,93.12,Деятельность спортивных клубов,https://spark-interfax.ru/samarskaya-oblast-tolyatti/ano-gk-lada-inn-6320056081-ogrn-1216300027240-c49df055307e77cce053219aa8c02bc6
"АВТОНОМНАЯ НЕКОММЕРЧЕСКАЯ ОРГАНИЗАЦИЯ ""ХОККЕЙНЫЙ КЛУБ ""ЦСК ВВС""",АНО ХК ЦСК ВВС,1176313065477,"443052, Самарская обл., г. Самара, пер. Костромской, д. 15А", 53.214597, 50.285422,93.19,Деятельность в области спорта прочая,https://spark-interfax.ru/samarskaya-oblast-samara/ano-khk-tssk-vvs-inn-6319220001-ogrn-1176313065477-6906d95a0763226ae0531b9aa8c04bb6
"АВТОНОМНАЯ НЕКОММЕРЧЕСКАЯ ОБРАЗОВАТЕЛЬНАЯ ОРГАНИЗАЦИЯ ДОШКОЛЬНОГО ОБРАЗОВАНИЯ ЦЕНТР РАЗВИТИЯ РЕБЁНКА-ДЕТСКИЙ САД ""СТРАНА ДЕТСТВА""",АНОО ДО СТРАНА ДЕТСТВА,1216300057225,"443035, Самарская обл, г.о. Самара, вн.р-н Кировский, г Самара, ул Нагорная, д. 143, ком. 1, 2, 3, 4, 5, 6", 53.233417, 50.251417,85.11,Образование дошкольное,https://spark-interfax.ru/samarskaya-oblast-samara/ano-strana-detstva-inn-6312210501-ogrn-1216300057225-d25e5694b7923536e053219aa8c05e1a
"ЧАСТНОЕ УЧРЕЖДЕНИЕ ДОШКОЛЬНАЯ ОБРАЗОВАТЕЛЬНАЯ ОРГАНИЗАЦИЯ ""ЮЛА""",ЧУДОО ЮЛА,1126300002795,"443090, Самарская обл., г. Самара, шоссе Московское, д. 57 офис Н9", 53.223887, 50.193632,85.11,Образование дошкольное,https://spark-interfax.ru/samarskaya-oblast-samara/uch-yula-inn-6316997551-ogrn-1126300002795-6906d957b716226ae0531b9aa8c04bb6
"ЧАСТНОЕ ДОШКОЛЬНОЕ ОБРАЗОВАТЕЛЬНОЕ УЧРЕЖДЕНИЕ ""РЖД ДЕТСКИЙ САД № 27""",РЖД ДЕТСКИЙ САД № 27,1046300009755,"443030, Самарская обл., г. Самара, ул. Красноармейская, д. 112 к. А", 53.189133, 50.127059,85.11,Образование дошкольное,https://spark-interfax.ru/samarskaya-oblast-samara/uch-rzhd-detski-sad-n-inn-6311071020-ogrn-1046300009755-6906d957938f226ae0531b9aa8c04bb6
"АВТОНОМНАЯ НЕКОММЕРЧЕСКАЯ ОБРАЗОВАТЕЛЬНАЯ ОРГАНИЗАЦИЯ ДОШКОЛЬНОГО ОБРАЗОВАНИЯ ""ЯНА""",АНОО ДО ЯНА,1136300000924,"443041, Самарская обл., г. Самара, ул. Никитинская, д. 53", 53.190239, 50.118551,85.11,Образование дошкольное,https://spark-interfax.ru/samarskaya-oblast-samara/ano-yana-inn-6311998270-ogrn-1136300000924-6906d957e104226ae0531b9aa8c04bb6
"АВТОНОМНАЯ НЕКОММЕРЧЕСКАЯ ОБРАЗОВАТЕЛЬНАЯ ОРГАНИЗАЦИЯ ДОШКОЛЬНОГО ОБРАЗОВАНИЯ ЦЕНТР РАЗВИТИЯ РЕБЕНКА - ДЕТСКИЙ САД ""ПРОСТРАНСТВО ПЛЮС""",АНОО ДО ЦРР ДС ПРОСТРАНСТВО ПЛЮС,1216300003336,"443045, Самарская обл, г.о. Самара, вн.р-н Октябрьский, г Самара, проезд 3-й, д. 50, помещ. Н1", 53.204217, 50.181356,85.11,Образование дошкольное,https://spark-interfax.ru/samarskaya-oblast-samara/ano-prostranstvo-plyus-inn-6316270205-ogrn-1216300003336-bab74067a8e70bf1e053219aa8c0d78d
"АВТОНОМНАЯ НЕКОММЕРЧЕСКАЯ ОБРАЗОВАТЕЛЬНАЯ ОРГАНИЗАЦИЯ ДОШКОЛЬНОГО ОБРАЗОВАНИЯ ЦЕНТР РАЗВИТИЯ РЕБЕНКА ""ПЛАНЕТА ДЕТСТВА САМАРА""",АНОО ДО ПЛАНЕТА ДЕТСТВА САМАРА,1156313015396,"443086, Самарская обл, г.о. Самара, вн.р-н Октябрьский, г Самара, ул Революционная, д. 77, кв. 198", 53.213807, 50.167026,85.11,Образование дошкольное,https://spark-interfax.ru/samarskaya-oblast-samara/ano-planeta-detstva-samara-inn-6316209095-ogrn-1156313015396-6906d957d3bf226ae0531b9aa8c04bb6
"АВТОНОМНАЯ НЕКОММЕРЧЕСКАЯ ОРГАНИЗАЦИЯ ДОШКОЛЬНОГО ОБРАЗОВАНИЯ ""РАДУГА""",АНОДО РАДУГА,1126300004820,"443086, Самарская обл., г. Самара, ул. Революционная, д. 5 кв. 63", 53.215996, 50.164082,85.11,Образование дошкольное,https://spark-interfax.ru/samarskaya-oblast-samara/ano-raduga-inn-6316997696-ogrn-1126300004820-6906d957e93e226ae0531b9aa8c04bb6
"ЧАСТНОЕ ДОШКОЛЬНОЕ ОБРАЗОВАТЕЛЬНОЕ УЧРЕЖДЕНИЕ,ЦЕНТР РАЗВИТИЯ РЕБЕНКА ""ФИОЛЕТИКА""","ЧДОУ,ЦРР ФИОЛЕТИКА",1126300004600,"443087, Самарская обл., г. Самара, проспект Карла Маркса, д. 360 к. А офис 30", 53.237533, 50.237255,85.11,Образование дошкольное,https://spark-interfax.ru/samarskaya-oblast-samara/uch-fioletika-inn-6319142297-ogrn-1126300004600-6906d957ce86226ae0531b9aa8c04bb6
"ГОСУДАРСТВЕННОЕ БЮДЖЕТНОЕ ПРОФЕССИОНАЛЬНОЕ ОБРАЗОВАТЕЛЬНОЕ УЧРЕЖДЕНИЕ САМАРСКОЙ ОБЛАСТИ ""САМАРСКИЙ ГОСУДАРСТВЕННЫЙ КОЛЛЕДЖ СЕРВИСНЫХ ТЕХНОЛОГИЙ И ДИЗАЙНА""",ГБПОУ СГКСТД,6317016226,"443020, Самарская обл., г. Самара, ул. Галактионовская к. 37", 53.185395, 50.098068,85.21,Образование профессиональное среднее,https://spark-interfax.ru/samarskaya-oblast-samara/gbu-gbpou-sgkstd-inn-6317016226-ogrn-1026301424885-6906d9584c98226ae0531b9aa8c04bb6
"САМАРСКИЙ СОЮЗ МОЛОДЕЖИ - ТЕРРИТОРИАЛЬНАЯ ОБЩЕСТВЕННАЯ ОРГАНИЗАЦИЯ ""РОССИЙСКОГО СОЮЗА МОЛОДЕЖИ"" В САМАРСКОЙ ОБЛАСТИ",ССМ,1036303395105,"443041, Самарская обл., г. Самара, ул. Ленинская, д. 137", 53.193453, 50.111172,94.99,"Деятельность прочих общественных организаций и некоммерческих организаций, кроме религиозных и политических организаций",https://spark-interfax.ru/samarskaya-oblast-samara/oo-ssm-inn-6315941732-ogrn-1036303395105-6906d9583adc226ae0531b9aa8c04bb6
"РЕГИОНАЛЬНАЯ МОЛОДЕЖНАЯ ОБЩЕСТВЕННАЯ ОРГАНИЗАЦИЯ ""СТУДЕНЧЕСКИЙ СОВЕТ САМАРСКОЙ ОБЛАСТИ""",РМОО СТУДЕНЧЕСКИЙ СОВЕТ САМАРСКОЙ ОБЛАСТИ,1116300004347,"443009, Самарская обл., г. Самара, ул. Воронежская, д. 9", 53.217781, 50.254720,94.99,"Деятельность прочих общественных организаций и некоммерческих организаций, кроме религиозных и политических организаций",https://spark-interfax.ru/samarskaya-oblast-samara/oo-studencheski-sovet-samarskoi-oblasti-inn-6319141864-ogrn-1116300004347-6906d957fc4c226ae0531b9aa8c04bb6
"ОБЩЕСТВО С ОГРАНИЧЕННОЙ ОТВЕТСТВЕННОСТЬЮ "" К.Х.ПОЛЯНСКОЕ""",ООО К.Х.ПОЛЯНСКОЕ,6365004439,"446281, Самарская обл., Большечерниговский район, с. Августовка, ул. Гаражная, владение 12", 52.243494, 50.746055,01.11,"Выращивание зерновых (кроме риса), зернобобовых культур и семян масличных культур",https://spark-interfax.ru/samarskaya-oblast-bolshechernigovski-raion/ooo-k-kh-polyanskoe-inn-6365004439-ogrn-1046302280188-5d291c3928a247adbd7f7dc7e4ce642e
"СЕЛЬСКОХОЗЯЙСТВЕННЫЙ СНАБЖЕНЧЕСКО-СБЫТОВОЙ ПОТРЕБИТЕЛЬСКИЙ КООПЕРАТИВ ""АГРО-УСПЕХ""",СССПК АГРО-УСПЕХ,6375192982,"446630, Самарская обл., с. Богатое, ул. Лесная, д. 38 корп. ЦЦ кв. 5", 53.064063, 51.326364,46.75.1,Торговля оптовая удобрениями и агрохимическими продуктами,https://spark-interfax.ru/samarskaya-oblast-bogatovski-raion/pk-agro-uspekh-inn-6375192982-ogrn-1076375000767-6906d958d3d4226ae0531b9aa8c04bb6
"АВТОНОМНАЯ НЕКОММЕРЧЕСКАЯ ОРГАНИЗАЦИЯ ДОШКОЛЬНОГО ОБРАЗОВАНИЯ ""МАЛЬВИНА""",АНОДО МАЛЬВИНА,1126300004643,"443011, Самарская обл, г.о. Самара, вн.р-н Октябрьский, г Самара, просека 1-я, д. 10Ж", 53.231272, 50.168634,85.11,Образование дошкольное,https://spark-interfax.ru/samarskaya-oblast-samara/ano-malvina-inn-6318990375-ogrn-1126300004643-6906d957b293226ae0531b9aa8c04bb6
"ЧАСТНОЕ ДОШКОЛЬНОЕ ОБРАЗОВАТЕЛЬНОЕ УЧРЕЖДЕНИЕ ""ЛЕЛЯ""",ЧДОУ ЛЕЛЯ,1126300002730,"443086, Самарская обл., г. Самара, ул. Мичурина, д. 147", 53.216170, 50.168258,85.11,Образование дошкольное,https://spark-interfax.ru/samarskaya-oblast-samara/uch-lelya-inn-6316997544-ogrn-1126300002730-6906d9595dda226ae0531b9aa8c04bb6
"АВТОНОМНАЯ НЕКОММЕРЧЕСКАЯ ОБРАЗОВАТЕЛЬНАЯ ОРГАНИЗАЦИЯ ДОШКОЛЬНОГО ОБРАЗОВАНИЯ ЦЕНТР РАЗВИТИЯ РЕБЕНКА ""МАКСИМКА""",АНОО ДЦ МАКСИМКА,1126300003785,"443029, Самарская обл., г. Самара, проезд 9-Й (7-Я Просека Тер), д. 23", 53.198627, 50.113987,85.11,Образование дошкольное,https://spark-interfax.ru/samarskaya-oblast-samara/ano-maksimka-inn-6319142265-ogrn-1126300003785-6906d959604d226ae0531b9aa8c04bb6
"АВТОНОМНАЯ НЕКОММЕРЧЕСКАЯ ДОШКОЛЬНАЯ ОБРАЗОВАТЕЛЬНАЯ ОРГАНИЗАЦИЯ ""ОРАНЖЕВОЕ СОЛНЦЕ""",АНДОО ОРАНЖЕВОЕ СОЛНЦЕ,1126300003752,"443042, Самарская обл., г. Самара, ул. Белорусская, д. 81 офис 29", 53.141225, 50.047820,85.11,Образование дошкольное,https://spark-interfax.ru/samarskaya-oblast-samara/ano-oranzhevoe-solntse-inn-6317700651-ogrn-1126300003752-6906d959604a226ae0531b9aa8c04bb6
"АВТОНОМНАЯ НЕКОММЕРЧЕСКАЯ ОБРАЗОВАТЕЛЬНАЯ ОРГАНИЗАЦИЯ ДОШКОЛЬНОГО ОБРАЗОВАНИЯ ЦЕНТР РАЗВИТИЯ РЕБЕНКА ""МАЛЫШ""",АНОО ДО МАЛЫШ,1126300000925,"443086, Самарская обл., г. Самара, ул. Мичурина, д. 149 пом. Н10", 53.217416, 50.170775,85.11,Образование дошкольное,https://spark-interfax.ru/samarskaya-oblast-samara/ano-malysh-inn-6317700429-ogrn-1126300000925-6906d957b4f9226ae0531b9aa8c04bb6
"АВТОНОМНАЯ НЕКОММЕРЧЕСКАЯ ОБРАЗОВАТЕЛЬНАЯ ОРГАНИЗАЦИЯ ДОШКОЛЬНОГО ОБРАЗОВАНИЯ ЦЕНТР РАЗВИТИЯ РЕБЕНКА ""КРОХА""",АНОО ДО ЦРР КРОХА,1126300005480,"443029, Самарская обл., г. Самара, ул. Солнечная, д. 1 офис 1", 53.239718, 50.189235,88.10,Предоставление социальных услуг без обеспечения проживания престарелым и инвалидам,https://spark-interfax.ru/samarskaya-oblast-samara/ano-krokha-inn-6319142410-ogrn-1126300005480-6906d9596c93226ae0531b9aa8c04bb6
"АВТОНОМНАЯ НЕКОММЕРЧЕСКАЯ ОБРАЗОВАТЕЛЬНАЯ ОРГАНИЗАЦИЯ ДОШКОЛЬНОГО ОБРАЗОВАНИЯ ЦЕНТР РАЗВИТИЯ РЕБЕНКА ""ПЕТРУШКА""",АНОО ДО ЦЕНТР РАЗВИТИЯ РЕБЕНКА ПЕТРУШКА,1126300005193,"443067, Самарская обл., г. Самара, ул. Карбышева, д. 81 офис 1", 53.211199, 50.204897,85.11,Образование дошкольное,https://spark-interfax.ru/samarskaya-oblast-samara/ano-petrushka-inn-6318990424-ogrn-1126300005193-6906d957cbf2226ae0531b9aa8c04bb6
"АВТОНОМНАЯ НЕКОММЕРЧЕСКАЯ ОБРАЗОВАТЕЛЬНАЯ ОРГАНИЗАЦИЯ ДОШКОЛЬНОГО ОБРАЗОВАНИЯ ""МИР ДЕТСТВА""",АНОО ДО МИР ДЕТСТВА,1096300000785,"443083, Самарская обл., г. Самара, ул. Победы, д. 81 офис 95", 53.207999, 50.238754,85.11,Образование дошкольное,https://spark-interfax.ru/samarskaya-oblast-samara/ano-mir-detstva-inn-6318179181-ogrn-1096300000785-6906d958f944226ae0531b9aa8c04bb6
"АВТОНОМНАЯ НЕКОММЕРЧЕСКАЯ ОБРАЗОВАТЕЛЬНАЯ ОРГАНИЗАЦИЯ ДОШКОЛЬНОГО ОБРАЗОВАНИЯ ""БУРАТИНО""",АНОО ДО БУРАТИНО,1126300002872,"443001, Самарская обл., г. Самара, ул. Ленинская, д. 228", 53.199247, 50.116375,85.11,Образование дошкольное,https://spark-interfax.ru/samarskaya-oblast-samara/ano-buratino-inn-6315990320-ogrn-1126300002872-6906d957d027226ae0531b9aa8c04bb6
"АВТОНОМНАЯ НЕКОММЕРЧЕСКАЯ ОБРАЗОВАТЕЛЬНАЯ ОРГАНИЗАЦИЯ ДОШКОЛЬНОГО ОБРАЗОВАНИЯ ""ЦЕНТР РАЗВИТИЯ РЕБЕНКА ""НИКА""",АНОО НИКА,1106300003127,"443051, Самарская обл., г. Самара, ул. Путейская, д. 39", 53.238808, 50.275648,85.11,Образование дошкольное,https://spark-interfax.ru/samarskaya-oblast-samara/ano-nika-inn-6312099437-ogrn-1106300003127-6906d957d628226ae0531b9aa8c04bb6
"АВТОНОМНАЯ НЕКОММЕРЧЕСКАЯ ОБРАЗОВАТЕЛЬНАЯ ОРГАНИЗАЦИЯ ДОШКОЛЬНОГО ОБРАЗОВАНИЯ ЦЕНТР РАЗВИТИЯ РЕБЕНКА-ДЕТСКИЙ САД ""КОНФЕТНОЕ ДЕРЕВО""",АНОО ДО КОНФЕТНОЕ ДЕРЕВО,1126300005721,"443001, Самарская обл., г. Самара, ул. Ленинская, д. 302 офис Н9", 53.202139, 50.123043,85.11,Образование дошкольное,https://spark-interfax.ru/samarskaya-oblast-samara/ano-konfetnoe-derevo-inn-6315990465-ogrn-1126300005721-6906d9596c65226ae0531b9aa8c04bb6
"АВТОНОМНАЯ НЕКОММЕРЧЕСКАЯ ОБРАЗОВАТЕЛЬНАЯ ОРГАНИЗАЦИЯ ДОШКОЛЬНОГО ОБРАЗОВАНИЯ ЦЕНТР РАЗВИТИЯ РЕБЁНКА - ДЕТСКИЙ САД ""ПИРАМИДКА""",АНОО ДО ПИРАМИДКА,1206300035325,"443125, Самарская обл., г. Самара, ул. Ново-Садовая, д. 353В", 53.252873, 50.212232,85.11,Образование дошкольное,https://spark-interfax.ru/samarskaya-oblast-samara/ano-piramidka-inn-6319247162-ogrn-1206300035325-a803822729a41a53e053189aa8c02d8f
"АВТОНОМНАЯ НЕКОММЕРЧЕСКАЯ ОБРАЗОВАТЕЛЬНАЯ ОРГАНИЗАЦИЯ ДОШКОЛЬНОГО ОБРАЗОВАНИЯ ""НАША КРОХА""",АНО ОДО НАША КРОХА,1166313102097,"443086, Самарская обл, г.о. Самара, вн.р-н Октябрьский, г Самара, ул Революционная, д. 5, кв. 63", 53.215996, 50.164082,85.11,Образование дошкольное,https://spark-interfax.ru/samarskaya-oblast-samara/ano-nasha-krokha-inn-6319207850-ogrn-1166313102097-6906d959d854226ae0531b9aa8c04bb6
СЕЛЬСКОХОЗЯЙСТВЕННЫЙ ПРОИЗВОДСТВЕННЫЙ КООПЕРАТИВ (КОЛХОЗ) ИМЕНИ КУЙБЫШЕВА,СПК (КОЛХОЗ) ИМЕНИ КУЙБЫШЕВА,6371000432,"446425, Самарская обл., Кинельский район, с. Красносамарское, ул. Советская, д. 1", 53.058759, 50.811730,01.41,"Разведение молочного крупного рогатого скота, производство сырого молока",https://spark-interfax.ru/samarskaya-oblast-kinelski-raion/kolkhoz-kolkhoz-imeni-kuibysheva-inn-6371000432-ogrn-1026303275701-10362e9caeea405b9f8bc05788b295bd
"АКЦИОНЕРНОЕ ОБЩЕСТВО ""НАУЧНО-ИССЛЕДОВАТЕЛЬСКИЙ ИНСТИТУТ ""ЭКРАН""",АО НИИ ЭКРАН,6319169796,"443022, Самарская обл., г. Самара, проспект Кирова, д. 24", 53.196160, 50.289180,72.19,Научные исследования и разработки в области естественных и технических наук прочие,https://spark-interfax.ru/samarskaya-oblast-samara/ao-nii-ekran-inn-6319169796-ogrn-1136319002731-bfa558bc892145fa8a46495f499a6317
"ОБЩЕСТВО С ОГРАНИЧЕННОЙ ОТВЕТСТВЕННОСТЬЮ ""ДЕЛЬТАТЕХ""",ООО ДЕЛЬТАТЕХ,6316245174,"443082, Самарская обл, г.о. Самара, вн.р-н Железнодорожный, г Самара, ул Пятигорская, д. 11, ком. 25", 53.186279, 50.139369,30.30.6,Производство беспилотных авиационных систем,https://spark-interfax.ru/samarskaya-oblast-samara/ooo-deltatekh-inn-6316245174-ogrn-1186313044818-6c9b41d3cc562fe0e0531b9aa8c0cfd1
"ОБЩЕСТВО С ОГРАНИЧЕННОЙ ОТВЕТСТВЕННОСТЬЮ ""ТВЕРСКОЕ""",ООО ТВЕРСКОЕ,6316232802,"443520, Самарская обл., Волжский район, с. Сухая Вязовка, ул. Советская, зд. 1А ком. 4", 52.883669, 50.218541,01.11.1,Выращивание зерновых культур,https://spark-interfax.ru/samarskaya-oblast-volzhski-raion/ooo-tverskoe-inn-6316232802-ogrn-1176313024953-7d570de953ba45f0ba82e91e1f00ef12
"ОБЩЕСТВО С ОГРАНИЧЕННОЙ ОТВЕТСТВЕННОСТЬЮ ""ПАРФЕНОВСКОЕ""",ООО ПАРФЕНОВСКОЕ,6350000199,"446408, Самарская обл., Кинельский район, с. Парфеновка, ул. Центральная к. 2", 52.941818, 50.616838,01.11.1,Выращивание зерновых культур,https://spark-interfax.ru/samarskaya-oblast-kinelski-raion/ooo-parfenovskoe-inn-6350000199-ogrn-1116350000381-a660d3a438be4f948f716d05810b4a31
"ОБЩЕСТВО С ОГРАНИЧЕННОЙ ОТВЕТСТВЕННОСТЬЮ ""ЭЛЬМИР""",ООО ЭЛЬМИР,6364003665,"446180, Самарская обл., Большеглушицкий район, с. Большая Глушица, ул. Ленинградская, д. 43", 52.387280, 50.470760,01.11.1,Выращивание зерновых культур,https://spark-interfax.ru/samarskaya-oblast-bolsheglushitski-raion/ooo-elmir-inn-6364003665-ogrn-1026303462745-b2531416972c4b5dafe4465af8101a1f
"АВТОНОМНАЯ НЕКОММЕРЧЕСКАЯ ОБРАЗОВАТЕЛЬНАЯ ОРГАНИЗАЦИЯ ДОШКОЛЬНОГО ОБРАЗОВАНИЯ ""МАЛЕНЬКИЙ ЦВЕТОЧЕК""",АНООДО МАЛЕНЬКИЙ ЦВЕТОЧЕК,1176313016395,"443013, Самарская обл., г. Самара, ул. Осипенко, д. 39 офис Н5", 53.198103, 50.147454,85.11,Образование дошкольное,https://spark-interfax.ru/samarskaya-oblast-samara/ano-malenki-tsvetochek-inn-6315016051-ogrn-1176313016395-6906d959f596226ae0531b9aa8c04bb6
"АВТОНОМНАЯ НЕКОММЕРЧЕСКАЯ ОБРАЗОВАТЕЛЬНАЯ ОРГАНИЗАЦИЯ ДОШКОЛЬНОГО ОБРАЗОВАНИЯ ЦЕНТР РАЗВИТИЯ РЕБЕНКА - ДЕТСКИЙ САД ""ЗЕМЛЯНИЧНЫЙ ДОЖДЬ""",АНОО ДО ЗЕМЛЯНИЧНЫЙ ДОЖДЬ,1116300000574,"443022, Самарская обл., г. Самара, проезд Совхозный, д. 16", 53.194734, 50.265690,85.11,Образование дошкольное,https://spark-interfax.ru/samarskaya-oblast-samara/ano-zemlyanichny-dozhd-inn-6319736325-ogrn-1116300000574-6906d95933c8226ae0531b9aa8c04bb6
"АВТОНОМНАЯ НЕКОММЕРЧЕСКАЯ ОБРАЗОВАТЕЛЬНАЯ ОРГАНИЗАЦИЯ ДОШКОЛЬНОГО ОБРАЗОВАНИЯ ЦЕНТР РАЗВИТИЯ РЕБЕНКА ""КАП И ТОШКА""",АНОО ДО КАП И ТОШКА,1126300002498,"443086, Самарская обл., г. Самара, ул. Революционная, д. 4", 53.217483, 50.164160,85.11,Образование дошкольное,https://spark-interfax.ru/samarskaya-oblast-samara/ano-kap-i-toshka-inn-6316997520-ogrn-1126300002498-6906d957a450226ae0531b9aa8c04bb6
КРЕСТЬЯНСКОЕ ХОЗЯЙСТВО НУРМАШЕВА МУРАТА РАСПАЕВИЧА,КХ НУРМАШЕВА М.Р.,1026303805549,"446372, Самарская обл., Красноярский район, с. Старый Буян, ул. Садовая, д. 37", 53.645114, 50.240963,01.11.1,Выращивание зерновых культур,https://spark-interfax.ru/samarskaya-oblast-krasnoyarski-raion/kfkh-nurmasheva-m-r-inn-6376007329-ogrn-1026303805549-6906d957c1d6226ae0531b9aa8c04bb6
"АВТОНОМНАЯ НЕКОММЕРЧЕСКАЯ ОБРАЗОВАТЕЛЬНАЯ ОРГАНИЗАЦИЯ ДОШКОЛЬНОГО ОБРАЗОВАНИЯ ЦЕНТР РАЗВИТИЯ РЕБЕНКА ""БЕЛЫЕ КОРАБЛИКИ""",АНОО ДЦ БЕЛЫЕ КОРАБЛИКИ,1126300004962,"443020, Самарская обл., г. Самара, ул. Партизанская, д. 184", 53.188249, 50.199343,85.11,Образование дошкольное,https://spark-interfax.ru/samarskaya-oblast-samara/ano-belye-korabliki-inn-6318990417-ogrn-1126300004962-6906d9596a1d226ae0531b9aa8c04bb6
"ОБЩЕСТВО С ОГРАНИЧЕННОЙ ОТВЕТСТВЕННОСТЬЮ ""ТАЛЛЫ""",ООО ТАЛЛЫ,6375001437,"446290, Самарская обл., Большечерниговский район, пос. Кочкиновка, ул. Центральная, д. 28", 52.132311, 50.844567,01.5,Смешанное сельское хозяйство,https://spark-interfax.ru/samarskaya-oblast-bolshechernigovski-raion/ooo-tally-inn-6375001437-ogrn-1136375000013-46010200491c4cd0bb48f0272066b78c
"ОБЩЕСТВО С ОГРАНИЧЕННОЙ ОТВЕТСТВЕННОСТЬЮ ""КРЕСТЬЯНСКОЕ ХОЗЯЙСТВО ""ДЕМЕТРА""""",ООО КХ ДЕМЕТРА,6365002008,"446296, Самарская обл., Большечерниговский район, с. Украинка, ул. Садовая, д. 10", 52.160862, 51.057666,01.11.1,Выращивание зерновых культур,https://spark-interfax.ru/samarskaya-oblast-bolshechernigovski-raion/ooo-kkh-demetra-inn-6365002008-ogrn-1026303463075-e7153154a907472092cda9fb11a8c0ed
"ОБЩЕСТВО С ОГРАНИЧЕННОЙ ОТВЕТСТВЕННОСТЬЮ ""ВЕСНА""",ООО ВЕСНА,6375001395,"446276, Самарская обл., Большечерниговский район, пос. Костино, ул. Школьная, д. 16 офис 1", 52.172069, 51.301450,01.42.11,"Разведение мясного и прочего крупного рогатого скота, включая буйволов, яков и др., на мясо",https://spark-interfax.ru/samarskaya-oblast-bolshechernigovski-raion/ooo-vesna-inn-6375001395-ogrn-1126375000344-8685c5533e694a758f5e82f034f60857
"ОБЩЕСТВО С ОГРАНИЧЕННОЙ ОТВЕТСТВЕННОСТЬЮ ""КОМИЛЬФО-С""",ООО КОМИЛЬФО-С,6312144707,"443035, Самарская обл., г. Самара, ул. Нагорная, д. 134", 53.234086, 50.250769,10.71,"Производство хлеба и мучных кондитерских изделий, тортов и пирожных недлительного хранения",https://spark-interfax.ru/samarskaya-oblast-samara/ooo-komilfo-s-inn-6312144707-ogrn-1146312010085-29d0bb189a044328ada16b4f7eabbde0
"ОБЩЕСТВО С ОГРАНИЧЕННОЙ ОТВЕТСТВЕННОСТЬЮ ""ПЕРВАЯ СТОМАТОЛОГИЯ ЮЖНОГО ГОРОДА""",ООО ПЕРВАЯ СТОМАТОЛОГИЯ ЮЖНОГО ГОРОДА,6330084137,"443543, Самарская обл., Волжский район, с. Лопатино, ул. Дмитрия Донского (Южный Город Мкр.), д. 14 пом. 1", 53.094277, 50.164449,86.23,Стоматологическая практика,https://spark-interfax.ru/samarskaya-oblast-volzhski-raion/ooo-pervaya-stomatologiya-yuzhnogo-goroda-inn-6330084137-ogrn-1186313097805-7ae8ee15bf396771e0531b9aa8c01883
"СЕЛЬСКОХОЗЯЙСТВЕННЫЙ ПОТРЕБИТЕЛЬСКИЙ ПЕРЕРАБАТЫВАЮЩИЙ КООПЕРАТИВ ""ПОВОЛЖЬЕ""",СППК ПОВОЛЖЬЕ,1236300010605,"445149, Самарская обл, м.р-н Ставропольский, с.п. Васильевка, с Зеленовка, ул Лесная, д. 28", 53.506635, 49.608691,01.50,Смешанное сельское хозяйство,https://spark-interfax.ru/samarskaya-oblast-stavropolski-raion/koop-povolzhe-inn-6382096214-ogrn-1236300010605-f9f8ff4f8b2a4521e053249aa8c03e82
"ОБЩЕСТВО С ОГРАНИЧЕННОЙ ОТВЕТСТВЕННОСТЬЮ СЕЛЬСКОХОЗЯЙСТВЕННОЕ ПРЕДПРИЯТИЕ ""ФЕНИКС""",ООО СХП ФЕНИКС,6372025454,"446350, Самарская обл, м.р-н Кинель-Черкасский, с.п. Кинель-Черкассы, с Кинель-Черкассы, ул Карла Маркса, д. 24", 53.464096, 51.477394,01.11,"Выращивание зерновых (кроме риса), зернобобовых культур и семян масличных культур",https://spark-interfax.ru/samarskaya-oblast-kinel-cherkasski-raion/ooo-feniks-inn-6372025454-ogrn-1196313019847-83b5a777a0ca7d7ee0531b9aa8c0b6fa
"ОБЩЕСТВО С ОГРАНИЧЕННОЙ ОТВЕТСТВЕННОСТЬЮ ""ЗУБР""",ООО ЗУБР,6318158470,"446351, Самарская обл., Кинель-Черкасский район, с. Кинель-Черкассы, ул. Кузнецкая, д. 9", 53.467343, 51.488089,01.70,"Охота, отлов и отстрел диких животных, включая предоставление услуг в этих областях",https://spark-interfax.ru/samarskaya-oblast-kinel-cherkasski-raion/ooo-zubr-inn-6318158470-ogrn-1066318035893-7e820568b13c4f40ace977fbbb331700
"ОБЩЕСТВО С ОГРАНИЧЕННОЙ ОТВЕТСТВЕННОСТЬЮ ""ЗУБР""",ООО ЗУБР,6318158470,"446351, Самарская обл., Кинель-Черкасский район, с. Кинель-Черкассы, ул. Кузнецкая, д. 9", 53.467343, 51.488089,01.70,"Охота, отлов и отстрел диких животных, включая предоставление услуг в этих областях",https://spark-interfax.ru/samarskaya-oblast-kinel-cherkasski-raion/ooo-zubr-inn-6318158470-ogrn-1066318035893-7e820568b13c4f40ace977fbbb331700
СОБРАНИЕ ПРЕДСТАВИТЕЛЕЙ СЕЛЬСКОГО ПОСЕЛЕНИЯ ПОДГОРНОЕ МУНИЦИПАЛЬНОГО РАЙОНА БОРСКОГО САМАРСКОЙ ОБЛАСТИ,СОБРАНИЕ ПРЕДСТАВИТЕЛЕЙ СЕЛЬСКОГО ПОСЕЛЕНИЯ ПОДГОРНОЕ МУНИЦИПАЛЬНОГО РАЙОНА БОРСКОГО САМАРСКОЙ ОБЛАСТИ,1056377012086,"446687, Самарская обл., Борский район, с. Подгорное, ул. Центральная, д. 27А", 53.222801, 51.801387,84.11.35,Деятельность органов местного самоуправления городских округов,https://spark-interfax.ru/samarskaya-oblast-borski-raion/mku-sobranie-predstavitelei-selskogo-poseleniya-podgornoe-munitsipalnogo-raiona-borskogo-samarskoi-oblasti-inn-6377007579-ogrn-10563-6906d958a5d2226ae0531b9aa8c04bb6
"ОБЩЕСТВО С ОГРАНИЧЕННОЙ ОТВЕТСТВЕННОСТЬЮ ""ТРУД""",ООО ТРУД,6375190270,"446292, Самарская обл., Большечерниговский район, пос. Глушицкий, ул. Центральная, д. 15 офис 1", 52.161727, 50.431140,01.5,Смешанное сельское хозяйство,https://spark-interfax.ru/samarskaya-oblast-bolshechernigovski-raion/ooo-trud-inn-6375190270-ogrn-1056375001902-e7ca96c87b214d60b58f46722383cb29
"ОБЩЕСТВО С ОГРАНИЧЕННОЙ ОТВЕТСТВЕННОСТЬЮ ""ПРОИЗВОДСТВЕННЫЙ ЖИЛИЩНО-РЕМОНТНЫЙ ТРЕСТ КУЙБЫШЕВСКИЙ""",ООО ПЖРТ КУЙБЫШЕВСКИЙ,6314029185,"443004, Самарская обл., г. Самара, ул. Молдавская, д. 4", 53.114428, 50.078751,68.32.1,Управление эксплуатацией жилого фонда за вознаграждение или на договорной основе,https://spark-interfax.ru/samarskaya-oblast-samara/ooo-pzhrt-kuibyshevski-inn-6314029185-ogrn-1076317006260-2e33b361ac1043a4a866708151cf884f
"ОБЩЕСТВО С ОГРАНИЧЕННОЙ ОТВЕТСТВЕННОСТЬЮ ""РУССКОЕ ПОДВОРЬЕ""",ООО РУССКОЕ ПОДВОРЬЕ,6362011558,"446235, Самарская обл., Безенчукский район, с. Васильевка, ул. Полевая, д. 6-А", 52.993525, 49.312754,01.11,"Выращивание зерновых (кроме риса), зернобобовых культур и семян масличных культур",https://spark-interfax.ru/samarskaya-oblast-bezenchukski-raion/ooo-russkoe-podvore-inn-6362011558-ogrn-1056362005248-2f50fda0fff1487b892f9fc9b1e66920
АДМИНИСТРАЦИЯ СЕЛЬСКОГО ПОСЕЛЕНИЯ ГЕРАСИМОВКА МУНИЦИПАЛЬНОГО РАЙОНА АЛЕКСЕЕВСКИЙ САМАРСКОЙ ОБЛАСТИ,АДМИНИСТРАЦИЯ СЕЛЬСКОГО ПОСЕЛЕНИЯ ГЕРАСИМОВКА,1056377012372,"446645, Самарская обл., Алексеевский район, с. Герасимовка, ул. Школьная, д. 12", 52.704018, 51.507837,84.11.35,Деятельность органов местного самоуправления городских округов,https://spark-interfax.ru/samarskaya-oblast-alekseevski-raion/mku-administratsiya-selskogo-poseleniya-gerasimovka-inn-6377007723-ogrn-1056377012372-6906d958a030226ae0531b9aa8c04bb6
"ОБЩЕСТВО С ОГРАНИЧЕННОЙ ОТВЕТСТВЕННОСТЬЮ ""САМАРСКИЙ СЕМЕННОЙ СЕЛЕКЦИОННЫЙ ЦЕНТР""",ООО СССЦ,6330081658,"Самарская обл, м.р-н Безенчукский, г.п. Безенчук, тер. Западная промзона, зд. 1/1, помещ. 32", 52.989990, 49.351817,01.13.3,Выращивание столовых корнеплодных и клубнеплодных культур с высоким содержанием крахмала или инулина,https://spark-interfax.ru/samarskaya-oblast-bezenchukski-raion/ooo-sssts-inn-6330081658-ogrn-1186313033037-69db8f0a349263e9e0531b9aa8c000d6
"ОБЩЕСТВО С ОГРАНИЧЕННОЙ ОТВЕТСТВЕННОСТЬЮ НАУЧНО-ПРОИЗВОДСТВЕННОЕ ОБЪЕДИНЕНИЕ ""АКВАБИОС""",ООО НПО АКВАБИОС,6324082967,"446337, Самарская обл, м.р-н Кинель-Черкасский, с.п. Кабановка, с Кабановка, ул Крыгина, зд. 1А, ком. 15", 53.657350, 51.282322,03.22.1,Рыбоводство пресноводное индустриальное,https://spark-interfax.ru/samarskaya-oblast-kinel-cherkasski-raion/ooo-akvabios-inn-6324082967-ogrn-1176313059340-591525d4ca2c5bb9e0531c9aa8c084ba
"КРЕСТЬЯНСКОЕ ХОЗЯЙСТВО ""АЛИНА""",КХ АЛИНА,1026303463680,"446186, Самарская обл., Большеглушицкий район, пос. Южный, ул. Озерная, д. 10 офис 1", 52.334606, 51.046444,01.11.1,Выращивание зерновых культур,https://spark-interfax.ru/samarskaya-oblast-bolsheglushitski-raion/kfkh-alina-inn-6364002485-ogrn-1026303463680-6906d95794fa226ae0531b9aa8c04bb6
"ОБЩЕСТВО С ОГРАНИЧЕННОЙ ОТВЕТСТВЕННОСТЬЮ ""АГРОФИРМА КАЛИНОВСКАЯ""",ООО АГРОФИРМА КАЛИНОВСКАЯ,6381020364,"446530, Самарская обл., Сергиевский район, с. Калиновка, ул. Каськова К.А., д. 19 к. А", 53.830228, 51.296460,01.11,"Выращивание зерновых (кроме риса), зернобобовых культур и семян масличных культур",https://spark-interfax.ru/samarskaya-oblast-sergievski-raion/ooo-agrofirma-kalinovskaya-inn-6381020364-ogrn-1186313020915-67a844783f293ddde0531b9aa8c0fc47
"ОБЩЕСТВО С ОГРАНИЧЕННОЙ ОТВЕТСТВЕННОСТЬЮ ""СТЕПНЫЕ ЗОРИ""",ООО СТЕПНЫЕ ЗОРИ,6375190382,"446193, Самарская обл., Большеглушицкий район, с. Мокша, ул. Юбилейная, д. 15 к. А", 52.666957, 50.414121,01.11,"Выращивание зерновых (кроме риса), зернобобовых культур и семян масличных культур",https://spark-interfax.ru/samarskaya-oblast-bolsheglushitski-raion/ooo-stepnye-zori-inn-6375190382-ogrn-1056375005433-f1e87139b6874d47a1138c3a0f4c5553
"ОБЩЕСТВО С ОГРАНИЧЕННОЙ ОТВЕТСТВЕННОСТЬЮ ""УСМАНКА""",ООО УСМАНКА,6366006132,"446675, Самарская обл., Борский район, с. Усманка, ул. Молодежная, д. 17", 52.835913, 51.695585,01.1,Выращивание однолетних культур,https://spark-interfax.ru/samarskaya-oblast-borski-raion/ooo-usmanka-inn-6366006132-ogrn-1046302170694-688772bf2aad47b998f0b4fc5219aaaa
"ОБЩЕСТВО С ОГРАНИЧЕННОЙ ОТВЕТСТВЕННОСТЬЮ ""ВЕСНА""",ООО ВЕСНА,6372005909,"446323, Самарская обл., Кинель-Черкасский район, с. Пустовалово, ул. Центральная, д. 31", 53.220229, 51.202055,01.11.1,Выращивание зерновых культур,https://spark-interfax.ru/samarskaya-oblast-kinel-cherkasski-raion/ooo-vesna-inn-6372005909-ogrn-1026303716735-19cf95687c37497686e65832e817a6ed
"ОБЩЕСТВО С ОГРАНИЧЕННОЙ ОТВЕТСТВЕННОСТЬЮ ""ЮЖНЫЙ""",ООО ЮЖНЫЙ,6364003633,"446191, Самарская обл., Большеглушицкий район, с. Малая Глушица, ул. Советская, д. 33", 52.438460, 50.207898,01.1,Выращивание однолетних культур,https://spark-interfax.ru/samarskaya-oblast-bolsheglushitski-raion/ooo-yuzhny-inn-6364003633-ogrn-1026303463911-c417ea088b334ef9a316cb6a18f0e8b5
"ОБЩЕСТВО С ОГРАНИЧЕННОЙ ОТВЕТСТВЕННОСТЬЮ ""АГРОВОЛГА""",ООО АГРОВОЛГА,6367061640,"443535, Самарская обл., Волжский район, с. Лопатино, ул. Братьев Глубоковых, д. 2", 53.076680, 50.216446,01.1,Выращивание однолетних культур,https://spark-interfax.ru/samarskaya-oblast-volzhski-raion/ooo-agrovolga-inn-6367061640-ogrn-1106367001377-d32581c8d3524a039275539710dca1e4
"ОБЩЕСТВО С ОГРАНИЧЕННОЙ ОТВЕТСТВЕННОСТЬЮ ""ФЛОРА""",ООО ФЛОРА,6375004646,"446157, Самарская обл, м.р-н Красноармейский, с.п. Алексеевский, п Алексеевский, ш Степное, д. 5", 52.531566, 49.846128,01.11.1,Выращивание зерновых культур,https://spark-interfax.ru/samarskaya-oblast-krasnoarmeiski-raion/ooo-flora-inn-6375004646-ogrn-1026303781360-bd48458c7568411a836c18f4d4d4fc60
"ОБЩЕСТВО С ОГРАНИЧЕННОЙ ОТВЕТСТВЕННОСТЬЮ ""СЕМЕЧКА ПОВОЛЖЬЯ""",ООО СП,6357042649,"443069, Самарская обл., г. Самара, ул. Мориса Тореза, д. 67 кв. 17", 53.196640, 50.184217,46.21.11,Торговля оптовая зерном,https://spark-interfax.ru/samarskaya-oblast-samara/ooo-sp-inn-6357042649-ogrn-1036301950222-6178895e74d57e1ce0531b9aa8c027ab
"ОБЩЕСТВО С ОГРАНИЧЕННОЙ ОТВЕТСТВЕННОСТЬЮ ""КИРОВ""",ООО КИРОВ,6377016693,"446651, Самарская обл., Алексеевский район, с. Самовольно-Ивановка, ул. Чапаевская, д. 1", 52.553668, 50.872511,01.11,"Выращивание зерновых (кроме риса), зернобобовых культур и семян масличных культур",https://spark-interfax.ru/samarskaya-oblast-alekseevski-raion/ooo-kirov-inn-6377016693-ogrn-1146377000307-868f13e7ca714842bab6cf2f5e174d72
"ОБЩЕСТВО С ОГРАНИЧЕННОЙ ОТВЕТСТВЕННОСТЬЮ СЕЛЬСКОХОЗЯЙСТВЕННОЕ ПРЕДПРИЯТИЕ ""АЛЬЯНС""",ООО СХП АЛЬЯНС,6372020336,"446325, Самарская обл., Кинель-Черкасский район, пос. Дубовый Колок, ул. Новая, д. 27", 53.373324, 52.140127,01.11,"Выращивание зерновых (кроме риса), зернобобовых культур и семян масличных культур",https://spark-interfax.ru/samarskaya-oblast-kinel-cherkasski-raion/ooo-alyans-inn-6372020336-ogrn-1126372000347-50c3caef0cd546479705cc7ffe875efa
"АВТОНОМНАЯ НЕКОММЕРЧЕСКАЯ ОРГАНИЗАЦИЯ ЦЕНТР СОЦИАЛЬНОЙ ПОМОЩИ ЖЕНЩИНАМ ""ТЫ НЕ ОДНА""",АНО ЦЕНТР СОЦИАЛЬНОЙ ПОМОЩИ ЖЕНЩИНАМ ТЫ НЕ ОДНА,1186313069436,"443020, Самарская обл, г.о. Самара, вн.р-н Самарский, г Самара, ул Ленинская, д. 56/100, ком. 30", 53.184879, 50.104720,87.90,Деятельность по уходу с обеспечением проживания прочая,https://spark-interfax.ru/samarskaya-oblast-samara/ano-ty-ne-odna-inn-6377003750-ogrn-1186313069436-733520edbc0b0975e0531b9aa8c06631
"ОБЩЕСТВО С ОГРАНИЧЕННОЙ ОТВЕТСТВЕННОСТЬЮ ""ЗЕЛЕНОГЛАЗОЕ ТАКСИ""",ООО ЗЕЛЕНОГЛАЗОЕ ТАКСИ,6382042762,"445140, Самарская обл., Ставропольский район, с. Тимофеевка, ул. Строителей, д. 3 офис 2", 53.557455, 49.393255,49.31.21,Регулярные перевозки пассажиров автобусами в городском и пригородном сообщении,https://spark-interfax.ru/samarskaya-oblast-stavropolski-raion/ooo-zelenoglazoe-taksi-inn-6382042762-ogrn-1026303956326-bd547ec9d5ee41008dc878081b47e65f
"НЕКОММЕРЧЕСКИЙ ФОНД ""ДЕТСКИЙ ЕПАРХИАЛЬНЫЙ ОБРАЗОВАТЕЛЬНЫЙ ЦЕНТР""",НФ ДЕОЦ,6312056786,"443098, Самарская обл., г. Самара, ул. Черемшанская, владение 244А", 53.246182, 50.263788,85.41,Образование дополнительное детей и взрослых,https://spark-interfax.ru/samarskaya-oblast-samara/fond-deots-inn-6312056786-ogrn-1046300120404-6906d95880dc226ae0531b9aa8c04bb6
"ОБЩЕСТВО С ОГРАНИЧЕННОЙ ОТВЕТСТВЕННОСТЬЮ ""ПРОГРЕСС""",ООО ПРОГРЕСС,6312193253,"443532, Самарская обл, м.р-н Волжский, с.п. Верхняя Подстепновка, п Верхняя Подстепновка, ул Специалистов, зд. 26В, офис 5", 53.081476, 50.093892,49.31.2,Регулярные перевозки пассажиров прочим сухопутным транспортом в городском и пригородном сообщении,https://spark-interfax.ru/samarskaya-oblast-volzhski-raion/ooo-progress-inn-6312193253-ogrn-1186313106913-7d1c36cfbc096a15e0531b9aa8c0665e
МЕСТНАЯ РЕЛИГИОЗНАЯ ОРГАНИЗАЦИЯ ПРАВОСЛАВНЫЙ ПРИХОД ХРАМА ВО ИМЯ АПОСТОЛОВ ПЕТРА И ПАВЛА Г.О. САМАРА САМАРСКОЙ ЕПАРХИИ РУССКОЙ ПРАВОСЛАВНОЙ ЦЕРКВИ (МОСКОВСКИЙ ПАТРИАРХАТ),МЕСТНАЯ РЕЛИГИОЗНАЯ ОРГАНИЗАЦИЯ ПРАВОСЛАВНЫЙ ПРИХОД ХРАМА ВО ИМЯ АПОСТОЛОВ ПЕТРА И ПАВЛА Г.О. САМАРА САМАРСКОЙ ЕПАРХИИ РУССКОЙ ПРАВОСЛАВНОЙ ЦЕРКВИ (МОСКОВСКИЙ ПАТРИАРХАТ),1036303388109,"443030, Самарская обл., г. Самара, ул. Буянова, д. 135А", 53.197141, 50.125459,94.91,Деятельность религиозных организаций,https://spark-interfax.ru/samarskaya-oblast-samara/ro-mestnaya-religioznaya-organizatsiya-pravoslavny-prikhod-khrama-vo-imya-apostolov-petra-i-pavla-g-o-samara-samarskoi-eparkhii-russkoi-pr-6906d958692b226ae0531b9aa8c04bb6
"МЕСТНОЕ ОТДЕЛЕНИЕ ОБЩЕРОССИЙСКОЙ ОБЩЕСТВЕННО-ГОСУДАРСТВЕННОЙ ОРГАНИЗАЦИИ ""ДОБРОВОЛЬНОЕ ОБЩЕСТВО СОДЕЙСТВИЯ АРМИИ, АВИАЦИИ И ФЛОТУ РОССИИ"" ГОРОДСКОГО ОКРУГА САМАРА",МЕСТНОЕ ОТДЕЛЕНИЕ ДОСААФ РОССИИ ГОРОДСКОГО ОКРУГА САМАРА,1196313041110,"443001, Самарская обл., г. Самара, ул. Чкалова, д. 90 каб. 209", 53.199437, 50.125718,94.99,"Деятельность прочих общественных организаций и некоммерческих организаций, кроме религиозных и политических организаций",https://spark-interfax.ru/samarskaya-oblast-samara/oo-mestnoe-otdelenie-dosaaf-rossii-gorodskogo-okruga-samara-inn-6317137252-ogrn-1196313041110-881c2e8814fe2146e0531b9aa8c0b182
"ПРОМЫШЛЕННАЯ РАЙОННАЯ ОБЩЕСТВЕННАЯ ОРГАНИЗАЦИЯ САМАРСКОЙ ОБЛАСТНОЙ ОРГАНИЗАЦИИ ОБЩЕРОССИЙСКОЙ ОБЩЕСТВЕННОЙ ОРГАНИЗАЦИИ ""ВСЕРОССИЙСКОЕ ОБЩЕСТВО ИНВАЛИДОВ""",ПРОМЫШЛЕННАЯ РАЙОННАЯ ОБЩЕСТВЕННАЯ ОРГАНИЗАЦИЯ САМАРСКОЙ ОБЛАСТНОЙ ОРГАНИЗАЦИИ ОБЩЕРОССИЙСКОЙ ОБЩЕСТВЕННОЙ ОРГАНИЗАЦИИ ВСЕРОССИЙСКОЕ ОБЩЕСТВО ИНВАЛИДОВ,1026300005401,"443009, Самарская обл., г. Самара, ул. Физкультурная, д. 100 офис 1", 53.215268, 50.258029,94.99,"Деятельность прочих общественных организаций и некоммерческих организаций, кроме религиозных и политических организаций",https://spark-interfax.ru/samarskaya-oblast-samara/oo-vserossiskoe-obshchestvo-invalidov-inn-6319015130-ogrn-1026300005401-6906d9581ab4226ae0531b9aa8c04bb6
"АВТОНОМНАЯ НЕКОММЕРЧЕСКАЯ ОРГАНИЗАЦИЯ ""СТУДИЯ ИНКЛЮЗИВНОГО ТВОРЧЕСТВА""",АНО СИТ,1176313056864,"443114, Самарская обл, г.о. Самара, вн.р-н Кировский, г Самара, ул Стара Загора, д. 140, ком. 5,6,15,17-22,48-52", 53.248230, 50.235888,85.41.2,Образование в области культуры,https://spark-interfax.ru/samarskaya-oblast-samara/ano-sit-inn-6316235779-ogrn-1176313056864-6906d95a0450226ae0531b9aa8c04bb6
"САМАРСКАЯ ГОРОДСКАЯ ОБЩЕСТВЕННАЯ ОРГАНИЗАЦИЯ ИНВАЛИДОВ - КОЛЯСОЧНИКОВ ""АССОЦИАЦИЯ ДЕСНИЦА"" САМАРСКОЙ ОБЛАСТНОЙ ОРГАНИЗАЦИИ ОБЩЕРОССИЙСКОЙ ОБЩЕСТВЕННОЙ ОРГАНИЗАЦИИ ""ВСЕРОССИЙСКОЕ ОБЩЕСТВО ИНВАЛИДОВ""",СГООИК АССОЦИАЦИЯ ДЕСНИЦА СОООО ВОИ,1026300005423,"443114, Самарская обл., г. Самара, проспект Кирова, д. 349", 53.247408, 50.230328,94.99,"Деятельность прочих общественных организаций и некоммерческих организаций, кроме религиозных и политических организаций",https://spark-interfax.ru/samarskaya-oblast-samara/oo-assotsiatsiya-desnitsa-soooo-voi-inn-6319058648-ogrn-1026300005423-6906d9583a96226ae0531b9aa8c04bb6
"ОБЩЕСТВО С ОГРАНИЧЕННОЙ ОТВЕТСТВЕННОСТЬЮ ""ЖД-ТРАНССЕРВИС""",ООО ЖД-ТРАНССЕРВИС,6318222790,"443022, Самарская обл., г. Самара, шоссе Заводское, д. 5 литера Т офис 1", 53.176149, 50.208079,49.3,Деятельность прочего сухопутного пассажирского транспорта,https://spark-interfax.ru/samarskaya-oblast-samara/ooo-zhd-transservis-inn-6318222790-ogrn-1126318003063-9a93f84260174c02a5d7ca83e32faef8
"ОБЩЕСТВО С ОГРАНИЧЕННОЙ ОТВЕТСТВЕННОСТЬЮ ""АВТО-РЕГИОН""",ООО АВТО-РЕГИОН,6330041567,"446250, Самарская обл., Безенчукский район, пгт. Безенчук, ул. Советская, д. 5", 52.982680, 49.446688,49.31.2,Регулярные перевозки пассажиров прочим сухопутным транспортом в городском и пригородном сообщении,https://spark-interfax.ru/samarskaya-oblast-bezenchukski-raion/ooo-avto-region-inn-6330041567-ogrn-1106330001535-f8530b1c082e4495a51a923d68b68389
"ОБЩЕСТВО С ОГРАНИЧЕННОЙ ОТВЕТСТВЕННОСТЬЮ ""МЕРИДИАН""",ООО МЕРИДИАН,6318003212,"443048, Самарская обл., г. Самара, пос. Красная Глинка, квартал 2, д. 24 офис 7", 53.384468, 50.169445,49.31,Деятельность сухопутного пассажирского транспорта: перевозки пассажиров в городском и пригородном сообщении,https://spark-interfax.ru/samarskaya-oblast-samara/ooo-meridian-inn-6318003212-ogrn-1156318002081-ea1cab53ef7b4e4f978b2f5556f420e4
"АКЦИОНЕРНОЕ ОБЩЕСТВО ""СЫЗРАНСКОЕ ПАССАЖИРСКОЕ АВТОТРАНСПОРТНОЕ ПРЕДПРИЯТИЕ""",АО СПАТП,6325080627,"446002, Самарская обл, г.о. Сызрань, г Сызрань, ул Воронова, зд. 18", 53.159495, 48.398630,49.31.2,Регулярные перевозки пассажиров прочим сухопутным транспортом в городском и пригородном сообщении,https://spark-interfax.ru/samarskaya-oblast-syzran/ao-spatp-inn-6325080627-ogrn-1256300000648-6906d9578fa9226ae0531b9aa8c04bb6
"ОБЩЕСТВО С ОГРАНИЧЕННОЙ ОТВЕТСТВЕННОСТЬЮ ""СЕЛЬХОЗТЕХНИКА""",ООО СЕЛЬХОЗТЕХНИКА,3619010610,"397837, Воронежская обл., Острогожский район, пос. Элеваторный, ул. Химиков, д. 13", 50.831238, 39.097507,01.11,"Выращивание зерновых (кроме риса), зернобобовых культур и семян масличных культур",https://spark-interfax.ru/voronezhskaya-oblast-ostrogozhski-raion/ooo-selkhoztekhnika-inn-3619010610-ogrn-1093619001145-f5e282f52ce34ec8b930a5fe4a3d6806
"ОБЩЕСТВО С ОГРАНИЧЕННОЙ ОТВЕТСТВЕННОСТЬЮ ""КОСТИН И К""",ООО КОСТИН И К,3607000695,"396116, Воронежская обл., Верхнехавский район, пос. Вишневка, ул. Мира, д. 29", 51.836078, 39.840172,01.11,"Выращивание зерновых (кроме риса), зернобобовых культур и семян масличных культур",https://spark-interfax.ru/voronezhskaya-oblast-verkhnekhavski-raion/ooo-kostin-i-k-inn-3607000695-ogrn-1023600936171-d76f7346619643cd932422cf6f7d884e
"ОБЩЕСТВО С ОГРАНИЧЕННОЙ ОТВЕТСТВЕННОСТЬЮ ""АГРАРНАЯ ПРОИЗВОДСТВЕННАЯ КОМПАНИЯ ""СИМБИОЗ""",ООО АПК СИМБИОЗ,3604017154,"397156, Воронежская обл., Борисоглебский район, с. Третьяки, ул. Народная, д. 42", 51.356508, 42.488121,01.11,"Выращивание зерновых (кроме риса), зернобобовых культур и семян масличных культур",https://spark-interfax.ru/voronezhskaya-oblast-borisoglebsk/ooo-apk-simbioz-inn-3604017154-ogrn-1083604000260-4834d5f1824541d393de129faa2fca8a
"КРЕСТЬЯНСКОЕ ХОЗЯЙСТВО ""КОЛОСОК""",КХ КОЛОСОК,1023601074089,"396790, Воронежская обл, м.р-н Богучарский, г.п. город Богучар, г Богучар, ул Котова, д. 24", 49.943465, 40.540119,01.11.1,Выращивание зерновых культур,https://spark-interfax.ru/voronezhskaya-oblast-bogucharski-raion/kfkh-kolosok-inn-3603001465-ogrn-1023601074089-6906d94bb813226ae0531b9aa8c04bb6
"ТОВАРИЩЕСТВО НА ВЕРЕ ""ПОДЛИПАЕВ, ГЕРАСИМОВ И КОМПАНИЯ""","ТНВ ПОДЛИПАЕВ, ГЕРАСИМОВ И КОМПАНИЯ",3603004547,"396772, Воронежская обл., Богучарский район, с. Монастырщина, ул. Первомайская, д. 36 А", 49.817299, 40.900318,01.11.1,Выращивание зерновых культур,https://spark-interfax.ru/voronezhskaya-oblast-bogucharski-raion/tv-podlipaev-gerasimov-i-kompaniya-inn-3603004547-ogrn-1023601078082-058d646de12d4b789bc8a073a5bbe8f7
"ОБЩЕСТВО С ОГРАНИЧЕННОЙ ОТВЕТСТВЕННОСТЬЮ ТОРГОВЫЙ ДОМ ""АГРИКО""",ООО ТД АГРИКО,3666211426,"394043, Воронежская обл., г. Воронеж, ул. Героев Красной Армии, д. 6 офис 713", 51.689060, 39.221162,46.21.1,"Торговля оптовая зерном, семенами и кормами для животных",https://spark-interfax.ru/voronezhskaya-oblast-voronezh/ooo-agriko-inn-3666211426-ogrn-1163668097340-2e5f3cc4a05144e99af995c047c4f5fb
"ОБЩЕСТВО С ОГРАНИЧЕННОЙ ОТВЕТСТВЕННОСТЬЮ ""СТЕПНОЕ""",ООО СТЕПНОЕ,3603006632,"396771, Воронежская обл., Богучарский район, пос. Дубрава", 49.850037, 40.774712,01.11.1,Выращивание зерновых культур,https://spark-interfax.ru/voronezhskaya-oblast-bogucharski-raion/ooo-stepnoe-inn-3603006632-ogrn-1023601073430-ed483c1ba3f24e0087a60af6975b5b4f
"ОБЩЕСТВО С ОГРАНИЧЕННОЙ ОТВЕТСТВЕННОСТЬЮ ""ВОЗРОЖДЕНИЕ""",ООО ВОЗРОЖДЕНИЕ,3624004322,"396563, Воронежская обл., Подгоренский район, хутор Большой Скорорыб, ул. Молодежная, д. 16", 50.401959, 39.495257,01.1,Выращивание однолетних культур,https://spark-interfax.ru/voronezhskaya-oblast-podgorenski-raion/ooo-vozrozhdenie-inn-3624004322-ogrn-1063627010182-8c23edbce9d743ae9538136c1f06b2f9
"СНАБЖЕНЧЕСКО-СБЫТОВОЙ ПЕРЕРАБАТЫВАЮЩИЙ ПОТРЕБИТЕЛЬСКИЙ СЕЛЬСКОХОЗЯЙСТВЕННЫЙ КООПЕРАТИВ ""ТЕРРА""",ССППСК ТЕРРА,1173668004366,"396363, Воронежская обл, м.р-н Каширский, с.п. Данковское, с Данково, ул Центральная, д. 20", 51.296407, 39.522062,10.39,Прочие виды переработки и консервирования фруктов и овощей,https://spark-interfax.ru/voronezhskaya-oblast-kashirski-raion/koop-terra-inn-3628018608-ogrn-1173668004366-6906d94cd902226ae0531b9aa8c04bb6
"ЗАКРЫТОЕ АКЦИОНЕРНОЕ ОБЩЕСТВО ""УЛЬЯНОВСКОЕ""",ЗАО УЛЬЯНОВСКОЕ,3604015140,"397183, Воронежская обл., Борисоглебский район, с. Ульяновка, ул. Первомайская, д. 13В", 51.284783, 42.013180,01.11.1,Выращивание зерновых культур,https://spark-interfax.ru/voronezhskaya-oblast-borisoglebsk/ao-ulyanovskoe-inn-3604015140-ogrn-1043659514040-02350d9011794baeaf761087156074cc
"ЗАКРЫТОЕ АКЦИОНЕРНОЕ ОБЩЕСТВО ""СЛАВЯНЕ""",ЗАО СЛАВЯНЕ,3620007876,"396454, Воронежская обл., Павловский район, с. Гаврильск, ул. Советская, д. 148", 50.425701, 40.340031,01.11.1,Выращивание зерновых культур,https://spark-interfax.ru/voronezhskaya-oblast-pavlovski-raion/ao-slavyane-inn-3620007876-ogrn-1023601069128-a1a867145d7d4330b1f73c02f61f2eb5
"НЕКОММЕРЧЕСКОЕ ПАРТНЕРСТВО КРЕСТЬЯНСКИХ (ФЕРМЕРСКИХ), ЛИЧНЫХ ПОДСОБНЫХ ХОЗЯЙСТВ И КООПЕРАТИВОВ ВОРОНЕЖСКОЙ ОБЛАСТИ ""ВОРОНЕЖ АККОР""",НП ВОРОНЕЖ АККОР,1103600001328,"394006, Воронежская обл., г. Воронеж, ул. Ворошилова, д. 10", 51.656249, 39.179363,70.22,Консультирование по вопросам коммерческой деятельности и управления,https://spark-interfax.ru/voronezhskaya-oblast-voronezh/np-voronezh-akkor-inn-3664082447-ogrn-1103600001328-6906d94c7656226ae0531b9aa8c04bb6
"ОБЩЕСТВО С ОГРАНИЧЕННОЙ ОТВЕТСТВЕННОСТЬЮ ""ГЕКТАР""",ООО ГЕКТАР,3613005003,"396342, Воронежская обл., Каширский район, с. Кондрашкино, ул. Ленинградская, д. 1 ком. 2", 51.394986, 39.683523,01.11,"Выращивание зерновых (кроме риса), зернобобовых культур и семян масличных культур",https://spark-interfax.ru/voronezhskaya-oblast-kashirski-raion/ooo-gektar-inn-3613005003-ogrn-1173668006280-6076f46bea474cb98d35d46d1a3375d1
"АССОЦИАЦИЯ КРЕСТЬЯНСКИХ (ФЕРМЕРСКИХ) ХОЗЯЙСТВ ТАЛОВСКОГО РАЙОНА ВОРОНЕЖСКОЙ ОБЛАСТИ ""ТАЛОВСКАЯ""",АССОЦИАЦИЯ КФХ ТАЛОВСКАЯ,1023601357361,"397480, Воронежская обл., рабочий пос. Таловая, ул. Советская, д. 135", 51.118755, 40.722263,99999,99999,https://spark-interfax.ru/voronezhskaya-oblast-talovski-raion/okfkh-talovskaya-inn-3629003178-ogrn-1023601357361-6906d94c164d226ae0531b9aa8c04bb6
"ОБЩЕСТВО С ОГРАНИЧЕННОЙ ОТВЕТСТВЕННОСТЬЮ ""СПУТНИК""",ООО СПУТНИК,3623006870,"397302, Воронежская обл., Поворинский район, с. Октябрьское, ул. Ленинская, д. 87", 51.238913, 41.945627,01.61,Предоставление услуг в области растениеводства,https://spark-interfax.ru/voronezhskaya-oblast-povorinski-raion/ooo-sputnik-inn-3623006870-ogrn-1063604012581-26b1306b78d5452c986c75cc90c50cbc
"КРЕСТЬЯНСКОЕ ХОЗЯЙСТВО ""ВЛАДИМИРОВСКОЕ""",КРЕСТЬЯНСКОЕ ХОЗЯЙСТВО ВЛАДИМИРОВСКОЕ,1033664504257,"396608, Воронежская обл., Россошанский район, хутор Чагари, ул. Молодежная, д. 16", 50.058407, 39.457997,01.11.1,Выращивание зерновых культур,https://spark-interfax.ru/voronezhskaya-oblast-rossoshanski-raion/vladimirovskoe-inn-3627006800-ogrn-1033664504257-6178895470107e1ce0531b9aa8c027ab
"ЗАКРЫТОЕ АКЦИОНЕРНОЕ ОБЩЕСТВО ""КАМЕНКАСЕЛЬХОЗХИМИЯ""",ЗАО КАМЕНКАСЕЛЬХОЗХИМИЯ,3611005093,"396510, Воронежская обл., пгт. Каменка, ул. Советская, д. 118", 50.708640, 39.432449,01.11.1,Выращивание зерновых культур,https://spark-interfax.ru/voronezhskaya-oblast-kamenski-raion/ao-kamenkaselkhozkhimiya-inn-3611005093-ogrn-1023601513187-6178895452c37e1ce0531b9aa8c027ab
"ОБЩЕСТВО С ОГРАНИЧЕННОЙ ОТВЕТСТВЕННОСТЬЮ ""ПОДГОРЕНСКИЙ ЭЛЕВАТОР""",ООО ПОДГОРЕНСКИЙ ЭЛЕВАТОР,6814004326,"396560, Воронежская обл, м.р-н Подгоренский, г.п. Подгоренское, пгт Подгоренский, ул Дорожная, д. 18, стр. 1, офис 7", 50.403614, 39.638832,52.10.3,Хранение и складирование зерна,https://spark-interfax.ru/voronezhskaya-oblast-podgorenski-raion/ooo-podgorenski-elevator-inn-6814004326-ogrn-1216800002572-c1dddbf730c02b0ae053219aa8c03eb5
"ОБЩЕСТВО С ОГРАНИЧЕННОЙ ОТВЕТСТВЕННОСТЬЮ ""РАЙМ""",ООО РАЙМ,3662094937,"394019, Воронежская обл., г. Воронеж, ул. Машиностроителей, д. 7", 51.681114, 39.165338,46.34.2,"Торговля оптовая алкогольными напитками, включая пиво и пищевой этиловый спирт",https://spark-interfax.ru/voronezhskaya-oblast-voronezh/ooo-raim-inn-3662094937-ogrn-1053600016755-6178895489dd7e1ce0531b9aa8c027ab
"ОБЩЕСТВО С ОГРАНИЧЕННОЙ ОТВЕТСТВЕННОСТЬЮ ""ВИКТОРИЯ""",ООО ВИКТОРИЯ,3608000970,"397560, Воронежская обл, м.р-н Воробьёвский, с.п. Солонецкое, п Центральной усадьбы совхоза ""Воробьёвский"", ул 40 лет Победы, д. 8, кв. 1", 50.684083, 40.820532,01.11,"Выращивание зерновых (кроме риса), зернобобовых культур и семян масличных культур",https://spark-interfax.ru/voronezhskaya-oblast-vorobevski-raion/ooo-viktoriya-inn-3608000970-ogrn-1213600017014-c1510b13dd692fb6e053219aa8c02cd3
"ОБЩЕСТВО С ОГРАНИЧЕННОЙ ОТВЕТСТВЕННОСТЬЮ ""СИГМА""",ООО СИГМА,6355003757,"445241, Самарская обл., г. Октябрьск, ул. Мира, д. 96", 53.183429, 48.771889,68.32,Управление недвижимым имуществом за вознаграждение или на договорной основе,https://spark-interfax.ru/samarskaya-oblast-oktyabrsk/ooo-sigma-inn-6355003757-ogrn-1026303066415-c5ca8d93bebe4aebb1fa81414a8f5309
"ЗАКРЫТОЕ АКЦИОНЕРНОЕ ОБЩЕСТВО ""ТОЛЬЯТТИНСКИЙ ЗАВОД АВТОАГРЕГАТОВ""",ЗАО ТЗА,6320010545,"445003, Самарская обл., г. Тольятти, шоссе Комсомольское, владение 39", 53.474878, 49.381603,29.32,Производство прочих комплектующих и принадлежностей для автотранспортных средств,https://spark-interfax.ru/samarskaya-oblast-tolyatti/ao-tza-inn-6320010545-ogrn-1026302003100-ebc93feab46f437cb23ea01274542c2f
"ОБЩЕСТВО С ОГРАНИЧЕННОЙ ОТВЕТСТВЕННОСТЬЮ ""ИДЕАЛ-ПЛАСТ""",ООО ИДЕАЛ-ПЛАСТ,6322017578,"445015, Самарская обл., г. Тольятти, ул. Никонова, д. 43З", 53.466539, 49.553989,29.32.3,"Производство частей и принадлежностей для автотранспортных средств, не включенных в другие группировки",https://spark-interfax.ru/samarskaya-oblast-tolyatti/ooo-ideal-plast-inn-6322017578-ogrn-1036301023230-90d781b4974b4c38b820d8ba966da4a5
"ОБЩЕСТВО С ОГРАНИЧЕННОЙ ОТВЕТСТВЕННОСТЬЮ ""РАЗВИТИЕ""",ООО РАЗВИТИЕ,6311113551,"443001, Самарская обл, г.о. Самара, вн.р-н Ленинский, г Самара, ул Галактионовская, д. 157, офис 505", 53.198175, 50.106957,62.0,"Разработка компьютерного программного обеспечения, консультационные услуги в данной области и другие сопутствующие услуги",https://spark-interfax.ru/samarskaya-oblast-samara/ooo-razvitie-inn-6311113551-ogrn-1096311001907-ae714875697540adb2df2850d5aa649c
"АВТОНОМНАЯ НЕКОММЕРЧЕСКАЯ ОРГАНИЗАЦИЯ ПОДДЕРЖКИ СЕМЕЙ, ДЕТЕЙ И МОЛОДЕЖИ ""СЕМЕЙНО-МОЛОДЕЖНОЕ СООБЩЕСТВО""",АНО СМС,1194700000241,"188640, Ленинградская обл., Всеволожский район, г. Всеволожск, ул. Межевая, д. 27 пом. 11/1", 60.024470, 30.638220,88.99,"Предоставление прочих социальных услуг без обеспечения проживания, не включенных в другие группировки",https://spark-interfax.ru/leningradskaya-oblast-vsevolozhski-raion/ano-sms-inn-4703161432-ogrn-1194700000241-820f346e82d03a42e0531b9aa8c01446
"ОБЩЕСТВО С ОГРАНИЧЕННОЙ ОТВЕТСТВЕННОСТЬЮ ""ДСК-МАТЕРИАЛЫ""",ООО ДСК-МАТЕРИАЛЫ,6320038526,"445043, Самарская обл., г. Тольятти, ул. Северная, владение 37 офис 23", 53.578674, 49.263425,13.95,"Производство нетканых текстильных материалов и изделий из них, кроме одежды",https://spark-interfax.ru/samarskaya-oblast-tolyatti/ooo-dsk-materialy-inn-6320038526-ogrn-1196313061449-8eb57daf75785e32e0531c9aa8c0bf86
"ОБЩЕСТВО С ОГРАНИЧЕННОЙ ОТВЕТСТВЕННОСТЬЮ ""ХМ РУС""",ООО ХМ РУС,6321431433,"445043, Самарская обл., г. Тольятти, ул. Северная, владение 111 стр. 1 пом. 65-66", 53.580857, 49.221331,25.21.1,Производство радиаторов,https://spark-interfax.ru/samarskaya-oblast-tolyatti/ooo-khm-rus-inn-6321431433-ogrn-1176313046491-108a5f70363940a9b5fbc4b0946c605b
"ОБЩЕСТВО С ОГРАНИЧЕННОЙ ОТВЕТСТВЕННОСТЬЮ "" ЕВГРИФ""",ООО ЕВГРИФ,6350009032,"446430, Самарская обл, г.о. Кинель, г Кинель, ул 27 Партсъезда, двлд. 9Г", 53.215090, 50.647501,68.32.1,Управление эксплуатацией жилого фонда за вознаграждение или на договорной основе,https://spark-interfax.ru/samarskaya-oblast-kinel/ooo-evgrif-inn-6350009032-ogrn-1056350004248-2d3b1614849f4c83a20b533f4ac80ee3
"АКЦИОНЕРНОЕ ОБЩЕСТВО ""СУМИРИКО АУТОМОТИВ ХОУЗ РУС""",АО СРК ХОУЗ РУС,6321145249,"445043, Самарская обл, г.о. Тольятти, г Тольятти, ш Южное, зд. 22, ком. 32", 53.552078, 49.310054,22.19.3,"Производство труб, трубок, рукавов и шлангов из вулканизированной резины",https://spark-interfax.ru/samarskaya-oblast-tolyatti/ao-srk-khouz-rus-inn-6321145249-ogrn-1056320002551-d5edc691c55344a29e1f7a58da1418fd
"ОБЩЕСТВО С ОГРАНИЧЕННОЙ ОТВЕТСТВЕННОСТЬЮ ""КОММУНАЛЬНАЯ СЕРВИСНАЯ КОМПАНИЯ Г.ОТРАДНОГО""",ООО КСК Г.ОТРАДНОГО,6372008843,"446303, Самарская обл., г. Отрадный, ул. Гайдара, д. 17", 53.374758, 51.333353,68.32.1,Управление эксплуатацией жилого фонда за вознаграждение или на договорной основе,https://spark-interfax.ru/samarskaya-oblast-otradny/ooo-ksk-g-otradnogo-inn-6372008843-ogrn-1046302613037-dae20c7562be4732b76b992be079cc50
"АКЦИОНЕРНОЕ ОБЩЕСТВО ""ПРОИЗВОДСТВЕННОЕ ОБЪЕДИНЕНИЕ КОММУНАЛЬНОГО ХОЗЯЙСТВА ГОРОДСКОГО ОКРУГА ТОЛЬЯТТИ""",АО ПО КХ Г.О. ТОЛЬЯТТИ,6324014124,"445035, Самарская обл., г. Тольятти, ул. Комсомольская, д. 92 литера АА1", 53.512328, 49.458253,43.21,Производство электромонтажных работ,https://spark-interfax.ru/samarskaya-oblast-tolyatti/ao-po-kkh-g-o-tolyatti-inn-6324014124-ogrn-1106324008284-c8b3b6fd47514def961e0b37e8336c3b
"ОБЩЕСТВО С ОГРАНИЧЕННОЙ ОТВЕТСТВЕННОСТЬЮ ""ОРФЕЙ""",ООО ОРФЕЙ,6362001729,"446250, Самарская обл., Безенчукский район, пгт. Безенчук, ул. Рабочая, д. 14", 52.979586, 49.444066,56.10,Деятельность ресторанов и услуги по доставке продуктов питания,https://spark-interfax.ru/samarskaya-oblast-bezenchukski-raion/ooo-orfei-inn-6362001729-ogrn-1026303355143-494139aaa566432095dcdddf7de31b85
"ОБЩЕСТВО С ОГРАНИЧЕННОЙ ОТВЕТСТВЕННОСТЬЮ "" РАССВЕТ""",ООО РАССВЕТ,6371004966,"446408, Самарская обл., Кинельский район, с. Парфеновка, ул. Центральная, д. 2", 52.941818, 50.616838,01.11.1,Выращивание зерновых культур,https://spark-interfax.ru/samarskaya-oblast-kinelski-raion/ooo-rassvet-inn-6371004966-ogrn-1026303273787-58d308d9570f4352b1129bfc9a08e7ab
"ОБЩЕСТВО С ОГРАНИЧЕННОЙ ОТВЕТСТВЕННОСТЬЮ ""УПРАВЛЯЮЩАЯ КОМПАНИЯ БЕЗЕНЧУК""",ООО УК БЕЗЕНЧУК,6330082563,"446250, Самарская обл, м.р-н Безенчукский, г.п. Безенчук, пгт Безенчук, ул Ломоносова, д. 12А, офис 1", 52.980413, 49.448400,68.32.1,Управление эксплуатацией жилого фонда за вознаграждение или на договорной основе,https://spark-interfax.ru/samarskaya-oblast-bezenchukski-raion/ooo-uk-bezenchuk-inn-6330082563-ogrn-1186313058568-7074ff483bb62556e0531b9aa8c086a6
"ОБЩЕСТВО С ОГРАНИЧЕННОЙ ОТВЕТСТВЕННОСТЬЮ ""КОММУНАЛЬНЫЕ ТЕХНОЛОГИИ""",ООО КОММУНАЛЬНЫЕ ТЕХНОЛОГИИ,6375001596,"446180, Самарская обл., Большеглушицкий район, с. Большая Глушица, ул. Чапаевская, д. 94В", 52.376987, 50.467304,35.30.14,Производство пара и горячей воды (тепловой энергии) котельными,https://spark-interfax.ru/samarskaya-oblast-bolsheglushitski-raion/ooo-kommunalnye-tekhnologii-inn-6375001596-ogrn-1136375000178-e62fd305a0ec44a9af09b640c46b38f3
"ОБЩЕСТВО С ОГРАНИЧЕННОЙ ОТВЕТСТВЕННОСТЬЮ "" РУСТЕП""",ООО РУСТЕП,6350009040,"446430, Самарская обл., г. Кинель, ул. Крымская, д. 32", 53.216698, 50.644088,68.32.1,Управление эксплуатацией жилого фонда за вознаграждение или на договорной основе,https://spark-interfax.ru/samarskaya-oblast-kinel/ooo-rustep-inn-6350009040-ogrn-1056350004259-0e611530caf44da3be2546717be620eb
"МУНИЦИПАЛЬНОЕ АВТОНОМНОЕ УЧРЕЖДЕНИЕ ""РЕДАКЦИЯ ГАЗЕТЫ ""ТРУДОВАЯ ЖИЗНЬ""",МАУ РЕДАКЦИЯ ГАЗЕТЫ ТРУДОВАЯ ЖИЗНЬ,6372027719,"446350, Самарская обл, м.р-н Кинель-Черкасский, с.п. Кинель-Черкассы, с Кинель-Черкассы, ул Красноармейская, д. 56", 53.467609, 51.476458,58.13,Издание газет,https://spark-interfax.ru/samarskaya-oblast-kinel-cherkasski-raion/much-redaktsiya-gazety-trudovaya-zhizn-inn-6372027719-ogrn-1246300025806-6906d957a992226ae0531b9aa8c04bb6
"МУНИЦИПАЛЬНОЕ БЮДЖЕТНОЕ УЧРЕЖДЕНИЕ ""УПРАВЛЕНИЕ ПО СТРОИТЕЛЬСТВУ АДМИНИСТРАЦИИ МУНИЦИПАЛЬНОГО РАЙОНА ЧЕЛНО-ВЕРШИНСКИЙ САМАРСКОЙ ОБЛАСТИ""",МБУ УПРАВЛЕНИЕ ПО СТРОИТЕЛЬСТВУ,1046302721156,"446840, Самарская обл, м.р-н Челно-Вершинский, с.п. Челно-Вершины, с Челно-Вершины, ул Советская, влд. 12А", 54.418625, 51.086658,41.2,Строительство жилых и нежилых зданий,https://spark-interfax.ru/samarskaya-oblast-chelno-vershinski-raion/mbu-upravlenie-po-stroitelstvu-inn-6385003472-ogrn-1046302721156-6906d9587df5226ae0531b9aa8c04bb6
"МУНИЦИПАЛЬНОЕ УНИТАРНОЕ ПРЕДПРИЯТИЕ ""ПРОГРЕСС""",МУП ПРОГРЕСС,6330062126,"445597, Самарская обл., Хворостянский район, пос. Прогресс, ул. Новый Квартал, д. 12", 52.514408, 49.024665,36.00.2,Распределение воды для питьевых и промышленных нужд,https://spark-interfax.ru/samarskaya-oblast-khvorostyanski-raion/mup-progress-inn-6330062126-ogrn-1146330001982-6906d957ce6f226ae0531b9aa8c04bb6
"ОБЩЕСТВО С ОГРАНИЧЕННОЙ ОТВЕТСТВЕННОСТЬЮ ""БИОСЕК""",ООО БИОСЕК,6382089538,"445012, Самарская обл, г.о. Тольятти, г Тольятти, ш Поволжское, влд. 3, офис 232", 53.515622, 49.523542,25.61,Обработка металлов и нанесение покрытий на металлы,https://spark-interfax.ru/samarskaya-oblast-tolyatti/ooo-biosek-inn-6382089538-ogrn-1226300008660-d8f8215474d666ade053259aa8c0b95d
"ОТКРЫТОЕ АКЦИОНЕРНОЕ ОБЩЕСТВО ""ТОЛЬЯТТИНСКИЙ ЗАВОД ТЕХНОЛОГИЧЕСКОГО ОСНАЩЕНИЯ""",ОАО ТЗТО,6320003555,"445035, Самарская обл., г. Тольятти, ул. Индустриальная, владение 9", 53.514300, 49.454571,29.31,Производство электрического и электронного оборудования для автотранспортных средств,https://spark-interfax.ru/samarskaya-oblast-tolyatti/pao-tzto-inn-6320003555-ogrn-1026301989284-ed85ec244e3d423a8772bd53152d5d29
"ОБЩЕСТВО С ОГРАНИЧЕННОЙ ОТВЕТСТВЕННОСТЬЮ ""ДЕТАЛЬСТРОЙКОНСТРУКЦИЯ""",ООО ДСК,6321158664,"445043, Самарская обл., г. Тольятти, ул. Северная, владение 39 офис 410", 53.579279, 49.278962,29.31,Производство электрического и электронного оборудования для автотранспортных средств,https://spark-interfax.ru/samarskaya-oblast-tolyatti/ooo-dsk-inn-6321158664-ogrn-1056320250656-e87f77f30a07432ca9e3388fca1bfcbe
"ОБЩЕСТВО С ОГРАНИЧЕННОЙ ОТВЕТСТВЕННОСТЬЮ ""ДСК-ШТАМП""",ООО ДСК-ШТАМП,6324075938,"445035, Самарская обл., г. Тольятти, ул. Индустриальная, владение 9 офис 315А", 53.514300, 49.454571,25.73,Производство инструмента,https://spark-interfax.ru/samarskaya-oblast-tolyatti/ooo-dsk-shtamp-inn-6324075938-ogrn-1166313144326-fc4abbafb7b74080b17470276d3d6ee9
"ОБЩЕСТВО С ОГРАНИЧЕННОЙ ОТВЕТСТВЕННОСТЬЮ ""ДЕТАЛЬСТРОЙКОНСТРУКЦИЯ""",ООО ДСК,6321158664,"445043, Самарская обл., г. Тольятти, ул. Северная, владение 39 офис 410", 53.579279, 49.278962,29.31,Производство электрического и электронного оборудования для автотранспортных средств,https://spark-interfax.ru/samarskaya-oblast-tolyatti/ooo-dsk-inn-6321158664-ogrn-1056320250656-e87f77f30a07432ca9e3388fca1bfcbe
"ОБЩЕСТВО С ОГРАНИЧЕННОЙ ОТВЕТСТВЕННОСТЬЮ ""ДИЗТРАНССТРОЙ-САМАРА""",ООО ДИЗТРАНССТРОЙ-САМАРА,6314042740,"443042, Самарская обл., г. Самара, ул. Обувная, д. 1А", 53.151342, 50.068906,01.11,"Выращивание зерновых (кроме риса), зернобобовых культур и семян масличных культур",https://spark-interfax.ru/samarskaya-oblast-samara/ooo-diztransstroi-samara-inn-6314042740-ogrn-1166313147395-d84d254cb55f4d8094b8e4678f8e8506
"ОБЩЕСТВО С ОГРАНИЧЕННОЙ ОТВЕТСТВЕННОСТЬЮ ""ВОСХОД""",ООО ВОСХОД,6369011927,"446931, Самарская обл., Шенталинский район, с. Каменка, ул. Центральная, д. 1 к. А", 54.428655, 51.674926,01.11.1,Выращивание зерновых культур,https://spark-interfax.ru/samarskaya-oblast-shentalinski-raion/ooo-voskhod-inn-6369011927-ogrn-1086369000431-8b22e7d40c634862832d7da251282514
"ОБЩЕСТВО С ОГРАНИЧЕННОЙ ОТВЕТСТВЕННОСТЬЮ ""РОДИНА""",ООО РОДИНА,6369011050,"446917, Самарская обл., Шенталинский район, д. Старое Афонькино, ул. Центральная, д. 16-1", 54.586733, 51.602717,01.1,Выращивание однолетних культур,https://spark-interfax.ru/samarskaya-oblast-shentalinski-raion/ooo-rodina-inn-6369011050-ogrn-1076369000102-a7edf8e665c745b8805d117556b4d2f9
"ОБЩЕСТВО С ОГРАНИЧЕННОЙ ОТВЕТСТВЕННОСТЬЮ УПРАВЛЯЮЩАЯ КОМПАНИЯ ""СОДРУЖЕСТВО""",ООО УК СОДРУЖЕСТВО,6323101134,"445012, Самарская обл, г.о. Тольятти, г Тольятти, ул Матросова, д. 21Б, офис 207", 53.479633, 49.471057,68.32,Управление недвижимым имуществом за вознаграждение или на договорной основе,https://spark-interfax.ru/samarskaya-oblast-tolyatti/ooo-sodruzhestvo-inn-6323101134-ogrn-1076320021800-90a8fda8e26b4189af470d0df8246c78
"ПРОИЗВОДСТВЕННЫЙ КООПЕРАТИВ ""СЛОБОДА""",ПК СЛОБОДА,6381020879,"446935, Самарская обл., Шенталинский район, д. Васильевка, ул. Полевая, к. 4", 54.262016, 51.572689,01.11,"Выращивание зерновых (кроме риса), зернобобовых культур и семян масличных культур",https://spark-interfax.ru/samarskaya-oblast-shentalinski-raion/pk-sloboda-inn-6381020879-ogrn-1196313049679-8adc430518b183bde0531c9aa8c077bc
"ОБЩЕСТВО С ОГРАНИЧЕННОЙ ОТВЕТСТВЕННОСТЬЮ ""МЕДФАРМ""",ООО МЕДФАРМ,6319163730,"443031, Самарская обл., г. Самара, ул. 9-Я Просека 2 Линия, д. 15 ""А"" пом. Н 1 офис ПОЗИЦИЯ 6", 53.268311, 50.192540,47.75.1,"Торговля розничная косметическими и парфюмерными товарами, кроме мыла в специализированных магазинах",https://spark-interfax.ru/samarskaya-oblast-samara/ooo-medfarm-inn-6319163730-ogrn-1126319006384-6178895f645b7e1ce0531b9aa8c027ab
"ОБЩЕСТВО С ОГРАНИЧЕННОЙ ОТВЕТСТВЕННОСТЬЮ ""АГРО-НЕПТУН""",ООО АГРО-Н,7313003940,"433876, Ульяновская обл., Новоспасский район, с. Троицкий Сунгур, ул. Советская, д. 153 литера А офис 10", 53.286591, 47.615810,01.41,"Разведение молочного крупного рогатого скота, производство сырого молока",https://spark-interfax.ru/ulyanovskaya-oblast-novospasski-raion/ooo-agro-n-inn-7313003940-ogrn-1047300600973-f0ad2f648aee44008e7af55ee941ea51
"ОБЩЕСТВО С ОГРАНИЧЕННОЙ ОТВЕТСТВЕННОСТЬЮ ""НОВАЯ ЖИЗНЬ""",ООО НОВАЯ ЖИЗНЬ,7322004517,"433601, Ульяновская обл., Цильнинский район, с. Покровское", 54.593537, 48.080026,01.11.1,Выращивание зерновых культур,https://spark-interfax.ru/ulyanovskaya-oblast-tsilninski-raion/ooo-novaya-zhizn-inn-7322004517-ogrn-1027301058443-c14dbcc902cc4c01ba58f331c3ec41a5
"ОБЩЕСТВО С ОГРАНИЧЕННОЙ ОТВЕТСТВЕННОСТЬЮ "" ЗБМ-АЭРО""",ООО ЗБМ-АЭРО,7300033673,"433223, Ульяновская обл, м.р-н Карсунский, с.п. Сосновское, с Сосновка, ул Красноармейская, д. 54", 54.109552, 46.638433,30.30,"Производство летательных аппаратов, включая космические, и соответствующего оборудования",https://spark-interfax.ru/ulyanovskaya-oblast-karsunski-raion/ooo-zbm-aero-inn-7300033673-ogrn-1247300005655-1c13add41eb41e10e063259aa8c0db45
"ОБЩЕСТВО С ОГРАНИЧЕННОЙ ОТВЕТСТВЕННОСТЬЮ ""ЭЙАРТЭК""",ООО ЭЙАРТЭК,7300000540,"432048, Ульяновская обл, г.о. город Ульяновск, г Ульяновск, ул Транспортная, д. 2, офис 1", 54.301642, 48.369448,62.01,Разработка компьютерного программного обеспечения,https://spark-interfax.ru/ulyanovskaya-oblast-ulyanovsk/ooo-eiartek-inn-7300000540-ogrn-1227300004282-dc4506ab42a6426de053259aa8c08cbe
"АКЦИОНЕРНОЕ ОБЩЕСТВО ""УЛЬЯНОВСКИЙ ПАТРОННЫЙ ЗАВОД""",АО УПЗ,7328500127,"432007, Ульяновская обл., г. Ульяновск, ул. Шоферов, д. 1", 54.335406, 48.480448,25.40,Производство оружия и боеприпасов,https://spark-interfax.ru/ulyanovskaya-oblast-ulyanovsk/ao-upz-inn-7328500127-ogrn-1047301521520-e27704f5e845468ea58647efc6be2b2a
"АВТОНОМНАЯ НЕКОММЕРЧЕСКАЯ ОРГАНИЗАЦИЯ ЦЕНТР ПОДДЕРЖКИ КУЛЬТУРЫ И РАЗВИТИЯ СОВРЕМЕННОГО ИСКУССТВА ""МЕЛЬНИЦА""",АНО МЕЛЬНИЦА,1227300012807,"432000, Ульяновская обл, г.о. город Ульяновск, г Ульяновск, ул Ленина, д. 83, офис 8", 54.314809, 48.394379,90.04.2,Деятельность многоцелевых центров и подобных заведений с преобладанием культурного обслуживания,https://spark-interfax.ru/ulyanovskaya-oblast-ulyanovsk/ano-melnitsa-inn-7300009092-ogrn-1227300012807-eb1f0ead6b1c16e2e053249aa8c028dd
"МИКРОКРЕДИТНАЯ КОМПАНИЯ ФОНД ""ФОНД ФИНАНСИРОВАНИЯ ПРОМЫШЛЕННОСТИ И ПРЕДПРИНИМАТЕЛЬСТВА""",МКК ФОНД ФФПП,1107300000653,"432072, Ульяновская обл., г. Ульяновск, проезд Максимова, д. 4", 54.345845, 48.576495,64.92,Предоставление займов и прочих видов кредита,https://spark-interfax.ru/ulyanovskaya-oblast-ulyanovsk/fond-ffpp-inn-7325096925-ogrn-1107300000653-6906d9a2f4b2226ae0531b9aa8c04bb6
"СЕЛЬСКОХОЗЯЙСТВЕННЫЙ ПРОИЗВОДСТВЕННЫЙ КООПЕРАТИВ ""ПОБЕДА""",СПК ПОБЕДА,7315000470,"433904, Ульяновская обл., Радищевский район, с. Волчанка", 53.007235, 48.149436,01.11.1,Выращивание зерновых культур,https://spark-interfax.ru/ulyanovskaya-oblast-radishchevski-raion/koop-pobeda-inn-7315000470-ogrn-1027300909371-1258922b8aa74899802cc5c96d0266fa
"КРЕСТЬЯНСКОЕ (ФЕРМЕРСКОЕ) ХОЗЯЙСТВО ""ЧЕРВОННЫЕ САДЫ""",КФХ ЧЕРВОННЫЕ САДЫ,1246300013244,"446541, Самарская обл, м.р-н Сергиевский, с.п. Сергиевск, с Сергиевск, ул Петра Великого, двлд. 17, помещ. 1", 53.962515, 51.172515,01.11.1,Выращивание зерновых культур,https://spark-interfax.ru/samarskaya-oblast-sergievski-raion/kfkh-chervonnye-sady-inn-6381022837-ogrn-1246300013244-1839f79bfa47781ae063259aa8c03951
"ОБЩЕСТВО С ОГРАНИЧЕННОЙ ОТВЕТСТВЕННОСТЬЮ УПРАВЛЯЮЩАЯ КОМПАНИЯ ""ВОЛГА""",ООО УК ВОЛГА,6318012859,"443112, Самарская обл, г.о. Самара, вн.р-н Красноглинский, п Управленческий, ул Имени академика Н.Д. Кузнецова, д. 15, помещ. 98", 53.342900, 50.227066,68.32,Управление недвижимым имуществом за вознаграждение или на договорной основе,https://spark-interfax.ru/samarskaya-oblast-samara/ooo-volga-inn-6318012859-ogrn-1166313074212-81b90ebde0364ea69f82887b9d038d6d
"ФЕДЕРАЛЬНОЕ ГОСУДАРСТВЕННОЕ БЮДЖЕТНОЕ ОБРАЗОВАТЕЛЬНОЕ УЧРЕЖДЕНИЕ ВЫСШЕГО ОБРАЗОВАНИЯ ""ПОВОЛЖСКИЙ ГОСУДАРСТВЕННЫЙ УНИВЕРСИТЕТ СЕРВИСА""","ФГБОУ ВО ПВГУС, ПОВОЛЖСКИЙ ГОСУДАРСТВЕННЫЙ УНИВЕРСИТЕТ СЕРВИСА, УНИВЕРСИТЕТ СЕРВИСА",1036300992067,"445017, Самарская обл., г. Тольятти, ул. Гагарина, д. 4", 53.511796, 49.415769,85.22,Образование высшее,https://spark-interfax.ru/samarskaya-oblast-tolyatti/fgbu-pvgus-povolzhski-gosudarstvenny-universitet-servisa-universitet-servisa-inn-6323068825-ogrn-1036300992067-6906d9584daa226ae0531b9aa8c04bb6
"РЕГИОНАЛЬНОЕ ОБЩЕСТВЕННОЕ УЧРЕЖДЕНИЕ ""ДОБРОВОЛЬНАЯ ПОЖАРНАЯ КОМАНДА ""СЛУЖБА СПАСЕНИЯ САМАРСКОЙ ОБЛАСТИ""",РОУ ДПК СЛУЖБА СПАСЕНИЯ,1126300001630,"446213, Самарская обл., г. Новокуйбышевск, ул. Молодежная, д. 5", 53.088318, 49.963767,84.25.9,Деятельность по обеспечению безопасности в чрезвычайных ситуациях прочая,https://spark-interfax.ru/samarskaya-oblast-novokuibyshevsk/ouch-sluzhba-spaseniya-inn-6330044448-ogrn-1126300001630-6906d95956b5226ae0531b9aa8c04bb6
"КРЕСТЬЯНСКОЕ (ФЕРМЕРСКОЕ) ХОЗЯЙСТВО ""МИХАЙЛО-ЛЕБЯЖЬЕ""",КФХ МИХАЙЛО-ЛЕБЯЖЬЕ,1236300012057,"445595, Самарская обл, м.р-н Хворостянский, с.п. Новокуровка, с Михайло-Лебяжье, ул Советская, зд. 66", 52.632345, 49.235449,01.45,Разведение овец и коз,https://spark-interfax.ru/samarskaya-oblast-khvorostyanski-raion/kfkh-mikhailo-lebyazhe-inn-6330099856-ogrn-1236300012057-fae0e683b93f675ce053259aa8c02aab
"КРЕСТЬЯНСКОЕ (ФЕРМЕРСКОЕ) ХОЗЯЙСТВО ""РОДНИК""",КФХ РОДНИК,1236300011298,"446493, Самарская обл, м.р-н Похвистневский, с.п. Старопохвистнево, п Сукаевка, ул Главная, д. 2А", 53.740681, 52.099048,01.42.12,"Разведение племенного мясного и прочего крупного рогатого скота, включая буйволов, яков и др.",https://spark-interfax.ru/samarskaya-oblast-pokhvistnevski-raion/kfkh-rodnik-inn-6372027148-ogrn-1236300011298-fa85e7943bdc60aae053259aa8c0afc5
"КРЕСТЬЯНСКОЕ (ФЕРМЕРСКОЕ) ХОЗЯЙСТВО ""ГВАРДЕЙЦЫ""",КФХ ГВАРДЕЙЦЫ,1236300012497,"446411, Самарская обл, м.р-н Кинельский, с.п. Сколково, с Преображенка, ул Гвардейская, д. 45", 53.305611, 50.755013,01.11,"Выращивание зерновых (кроме риса), зернобобовых культур и семян масличных культур",https://spark-interfax.ru/samarskaya-oblast-kinelski-raion/kfkh-gvardeitsy-inn-6350029984-ogrn-1236300012497-fb8082e1e46573f0e053259aa8c06632
"КРЕСТЬЯНСКОЕ (ФЕРМЕРСКОЕ) ХОЗЯЙСТВО ""АВЕРЬЯНОВСКОЕ""",КФХ АВЕРЬЯНОВСКОЕ,1236300011067,"446294, Самарская обл, м.р-н Большечерниговский, с.п. Петровский, п Аверьяновский, ул Молодежная, д. 7, кв. 2", 52.080631, 50.316080,01.42.1,"Разведение мясного и прочего крупного рогатого скота, включая буйволов, яков и др.",https://spark-interfax.ru/samarskaya-oblast-bolshechernigovski-raion/kfkh-averyanovskoe-inn-6375006682-ogrn-1236300011067-fa85e794341d60aae053259aa8c0afc5
"КРЕСТЬЯНСКОЕ (ФЕРМЕРСКОЕ) ХОЗЯЙСТВО ""ДОСТОЯНИЕ""",КФХ ДОСТОЯНИЕ,1236300011310,"446410, Самарская обл, м.р-н Кинельский, с.п. Кинельский, п Кинельский, ул Полевая, д. 23, кв. 1", 53.255510, 50.643579,01.42,"Разведение прочих пород крупного рогатого скота и буйволов, производство спермы",https://spark-interfax.ru/samarskaya-oblast-kinelski-raion/kfkh-dostoyanie-inn-6350029938-ogrn-1236300011310-fa85e79431f960aae053259aa8c0afc5
"КРЕСТЬЯНСКОЕ (ФЕРМЕРСКОЕ) ХОЗЯЙСТВО ""САМАРСКИЕ ЯГОДЫ""",КФХ САМАРСКИЕ ЯГОДЫ,1236300010319,"446370, Самарская обл, м.р-н Красноярский, с.п. Красный Яр, с Красный Яр, ул Промысловая, д. 99А", 53.500485, 50.393876,01.25.1,Выращивание прочих плодовых и ягодных культур,https://spark-interfax.ru/samarskaya-oblast-krasnoyarski-raion/kfkh-samarskie-yagody-inn-6376030600-ogrn-1236300010319-f9f8ff4f82d74521e053249aa8c03e82
"КРЕСТЬЯНСКОЕ (ФЕРМЕРСКОЕ) ХОЗЯЙСТВО ""АГРОКУР""",КФХ АГРОКУР,1236300010870,"446876, Самарская обл, м.р-н Елховский, с.п. Сухие Аврали, с Мулловка, ул Школьная, двлд. 45", 53.826586, 50.062658,01.47,Разведение сельскохозяйственной птицы,https://spark-interfax.ru/samarskaya-oblast-elkhovski-raion/kfkh-agrokur-inn-6376030631-ogrn-1236300010870-f9f8ff4f91d54521e053249aa8c03e82
"КРЕСТЬЯНСКОЕ (ФЕРМЕРСКОЕ) ХОЗЯЙСТВО ""АМИНА""",КФХ АМИНА,1236300010748,"443525, Самарская обл, м.р-н Волжский, с.п. Подъем-Михайловка, п Дудачный, ул Садовая, д. 2, кв. 1", 52.810515, 50.532239,01.45.1,Разведение овец и коз,https://spark-interfax.ru/samarskaya-oblast-volzhski-raion/kfkh-amina-inn-6330099817-ogrn-1236300010748-f9f8ff4f8bca4521e053249aa8c03e82
"КРЕСТЬЯНСКОЕ (ФЕРМЕРСКОЕ) ХОЗЯЙСТВО ""АВРОРА""",КФХ АВРОРА,1236300010869,"446852, Самарская обл, м.р-н Челно-Вершинский, с.п. Сиделькино, с Старое Аделяково, ул Школьная, двлд. 7, кв. 2", 54.527257, 51.027042,01.41,"Разведение молочного крупного рогатого скота, производство сырого молока",https://spark-interfax.ru/samarskaya-oblast-chelno-vershinski-raion/kfkh-avrora-inn-6381022523-ogrn-1236300010869-f9f8ff4f91d44521e053249aa8c03e82
"ОБЩЕСТВО С ОГРАНИЧЕННОЙ ОТВЕТСТВЕННОСТЬЮ ""ДЕЛЬТАТЕХ""",ООО ДЕЛЬТАТЕХ,6316245174,"443082, Самарская обл, г.о. Самара, вн.р-н Железнодорожный, г Самара, ул Пятигорская, д. 11, ком. 25", 53.186279, 50.139369,30.30.6,Производство беспилотных авиационных систем,https://spark-interfax.ru/samarskaya-oblast-samara/ooo-deltatekh-inn-6316245174-ogrn-1186313044818-6c9b41d3cc562fe0e0531b9aa8c0cfd1
"СЕЛЬСКОХОЗЯЙСТВЕННЫЙ ПОТРЕБИТЕЛЬСКИЙ ПЕРЕРАБАТЫВАЮЩИЙ ОБСЛУЖИВАЮЩИЙ СНАБЖЕНЧЕСКО-СБЫТОВОЙ КООПЕРАТИВ ""ДУСЛЫК""",СППОССК ДУСЛЫК,1246300007942,"446493, Самарская обл, м.р-н Похвистневский, с.п. Алькино, п Красный Мост, ул Центральная, д. 10", 53.695284, 52.254066,01.50,Смешанное сельское хозяйство,https://spark-interfax.ru/samarskaya-oblast-pokhvistnevski-raion/koop-duslyk-inn-6372027451-ogrn-1246300007942-1460415f89744e64e063259aa8c034e2
"ОБЩЕСТВО С ОГРАНИЧЕННОЙ ОТВЕТСТВЕННОСТЬЮ ""МОЯ УСАДЬБА""",ООО МОЯ УСАДЬБА,6376065497,"446384, Самарская обл., Красноярский район, пос. Угловой, ул. Центральная, д. 4", 53.545202, 50.384120,01.49.2,Разведение кроликов и прочих пушных зверей на фермах,https://spark-interfax.ru/samarskaya-oblast-krasnoyarski-raion/ooo-moya-usadba-inn-6376065497-ogrn-1086376000545-915776aac01d4cfa93da2be1f54ed0d3
"ЧЕЛНО-ВЕРШИНСКОЕ МЕСТНОЕ ОТДЕЛЕНИЕ САМАРСКОГО РЕГИОНАЛЬНОГО ОТДЕЛЕНИЯ ВСЕРОССИЙСКОЙ ОБЩЕСТВЕННОЙ ОРГАНИЗАЦИИ ВЕТЕРАНОВ ""БОЕВОЕ БРАТСТВО""",ЧЕЛНО-ВЕРШИНСКОЕ МЕСТНОЕ ОТДЕЛЕНИЕ СРО ВООВ БОЕВОЕ БРАТСТВО,1166313076160,"446840, Самарская обл., Челно-Вершинский район, с. Челно-Вершины, ул. В.Старшинова, д. 2", 54.417215, 51.076785,94.99,"Деятельность прочих общественных организаций и некоммерческих организаций, кроме религиозных и политических организаций",https://spark-interfax.ru/samarskaya-oblast-chelno-vershinski-raion/oo-boevoe-bratstvo-inn-6381005310-ogrn-1166313076160-6906d959d319226ae0531b9aa8c04bb6
"ОБЩЕСТВО С ОГРАНИЧЕННОЙ ОТВЕТСТВЕННОСТЬЮ ""АРБАТ""",ООО АРБАТ,6319182966,"443052, Самарская обл., г. Самара, проспект Кирова, д. 24 к. 11", 53.196160, 50.289180,23.62,Производство гипсовых изделий для использования в строительстве,https://spark-interfax.ru/samarskaya-oblast-samara/ooo-arbat-inn-6319182966-ogrn-1146319006107-362f5621e6984950a949653037fffdd0
"ОБЩЕСТВО С ОГРАНИЧЕННОЙ ОТВЕТСТВЕННОСТЬЮ ""РУССКИЙ СИДР""",ООО РУССКИЙ СИДР,6382090935,"445010, Самарская обл, г.о. Тольятти, г Тольятти, ул Жилина, д. 13А, офис 8", 53.508698, 49.411085,46.34,Торговля оптовая напитками,https://spark-interfax.ru/samarskaya-oblast-tolyatti/ooo-russki-sidr-inn-6382090935-ogrn-1226300019956-de784a39af631a58e053259aa8c0c9ec
"ОБЩЕСТВО С ОГРАНИЧЕННОЙ ОТВЕТСТВЕННОСТЬЮ ""ТЮШЕВСКОЙ АГРОСНАБ""",ООО ТЮШЕВСКОЙ АГРОСНАБ,5943040803,"617873, Пермский кр., Октябрьский район, пос. Тюш, ул. Октябрьская, д. 1", 56.637359, 57.002954,35.22,Распределение газообразного топлива по газораспределительным сетям,https://spark-interfax.ru/permski-krai-oktyabrski-raion/ooo-tyushevskoi-agrosnab-inn-5943040803-ogrn-1025902306880-61788992d5677e1ce0531b9aa8c027ab
"КРЕСТЬЯНСКОЕ (ФЕРМЕРСКОЕ) ХОЗЯЙСТВО ""ПАСЛЁН""",КФХ ПАСЛЁН,1246300012309,"446381, Самарская обл, м.р-н Красноярский, с.п. Большая Раковка, с Большая Раковка, ул Комсомольская, зд. 85В", 53.692073, 50.617819,01.13.1,Выращивание овощей,https://spark-interfax.ru/samarskaya-oblast-krasnoyarski-raion/kfkh-paslen-inn-6376031152-ogrn-1246300012309-172055d6649c7d63e063259aa8c07e38
"АВТОНОМНАЯ НЕКОММЕРЧЕСКАЯ ОРГАНИЗАЦИЯ ""НОВОКУЙБЫШЕВСКИЙ ЦЕНТР ПОДДЕРЖКИ МОЛОДЕЖНЫХ ИНИЦИАТИВ""",АНО НЦПМИ,1216300037690,"446202, Самарская обл, г.о. Новокуйбышевск, г Новокуйбышевск, ул Кирова, д. 21, помещ. 13", 53.087130, 49.953555,88.99,"Предоставление прочих социальных услуг без обеспечения проживания, не включенных в другие группировки",https://spark-interfax.ru/samarskaya-oblast-novokuibyshevsk/ano-ntspmi-inn-6330094880-ogrn-1216300037690-ca1e194e422e0b84e053219aa8c034f0
ФЕДЕРАЛЬНОЕ ГОСУДАРСТВЕННОЕ БЮДЖЕТНОЕ УЧРЕЖДЕНИЕ НАУКИ САМАРСКИЙ ФЕДЕРАЛЬНЫЙ ИССЛЕДОВАТЕЛЬСКИЙ ЦЕНТР РОССИЙСКОЙ АКАДЕМИИ НАУК,САМНЦ РАН,1036300448898,"443001, Самарская обл., г. Самара, пер. Студенческий, д. 3А", 53.201157, 50.106663,72.19,Научные исследования и разработки в области естественных и технических наук прочие,https://spark-interfax.ru/samarskaya-oblast-samara/fgbu-samnts-ran-inn-6316032112-ogrn-1036300448898-6906d958654c226ae0531b9aa8c04bb6
"АВТОНОМНАЯ НЕКОММЕРЧЕСКАЯ ОРГАНИЗАЦИЯ САМАРСКИЙ ОБЛАСТНОЙ ЦЕНТР СОЦИАЛЬНОГО ОБСЛУЖИВАНИЯ НАСЕЛЕНИЯ ""САМАРСКИЙ""",АНО СОЦСОН САМАРСКИЙ,1176313018639,"443063, Самарская обл., г. Самара, ул. Сердобская, д. 14", 53.216835, 50.232377,88.10,Предоставление социальных услуг без обеспечения проживания престарелым и инвалидам,https://spark-interfax.ru/samarskaya-oblast-samara/ano-samarski-inn-6319215570-ogrn-1176313018639-6906d959f57e226ae0531b9aa8c04bb6
"ОБЩЕСТВО С ОГРАНИЧЕННОЙ ОТВЕТСТВЕННОСТЬЮ ""ТЕРРА""",ООО ТЕРРА,6381013487,"446587, Самарская обл., Исаклинский район, пос. Сокский, ул. Луговая, д. 7 кв. 1", 54.067697, 51.855787,01.5,Смешанное сельское хозяйство,https://spark-interfax.ru/samarskaya-oblast-isaklinski-raion/ooo-terra-inn-6381013487-ogrn-1106381000395-28c3a98287944b30849c4af96f4bd318
"ОБЩЕСТВО С ОГРАНИЧЕННОЙ ОТВЕТСТВЕННОСТЬЮ ""АГРОФИРМА ""ХЛЕБОРОБ""",ООО АГРОФИРМА ХЛЕБОРОБ,6374006249,"446818, Самарская обл., Кошкинский район, с. Русская Васильевка, ул. Молодежная, д. 1 офис 2", 54.301011, 50.705162,01.1,Выращивание однолетних культур,https://spark-interfax.ru/samarskaya-oblast-koshkinski-raion/ooo-agrofirma-khleborob-inn-6374006249-ogrn-1026303765707-f34fb845b3fd4ac8b4a8aab3738a6609
"СЕЛЬСКОХОЗЯЙСТВЕННЫЙ ПОТРЕБИТЕЛЬСКИЙ ПЕРЕРАБАТЫВАЮЩИЙ КООПЕРАТИВ ""САВИЯ МЯСКО""",СППК САВИЯ МЯСКО,1216300038877,"445590, Самарская обл, м.р-н Хворостянский, с.п. Хворостянка, с Хворостянка, ул Рабочая, д. 1А", 52.605617, 48.954027,10.11,Переработка и консервирование мяса,https://spark-interfax.ru/samarskaya-oblast-khvorostyanski-raion/koop-saviya-myasko-inn-6330095001-ogrn-1216300038877-ca1e194e51bd0b84e053219aa8c034f0
"ОБЩЕСТВО С ОГРАНИЧЕННОЙ ОТВЕТСТВЕННОСТЬЮ ""СПЕКТР""",ООО СПЕКТР,6378000216,"446161, Самарская обл., Пестравский район, с. Пестравка, ул. Шоссейная, владение 29", 52.419413, 49.978152,01.11.1,Выращивание зерновых культур,https://spark-interfax.ru/samarskaya-oblast-pestravski-raion/ooo-spektr-inn-6378000216-ogrn-1026303780909-8ecf96075d2049128188d79ba80cb04d
"ОБЩЕСТВО С ОГРАНИЧЕННОЙ ОТВЕТСТВЕННОСТЬЮ ""АГРОЭЛИТ""",ООО АГРОЭЛИТ,6325045559,"446702, Самарская обл, м.р-н Шигонский, с.п. Береговой, тер земли бывшего колхоза Память Ильича, зд. 7", 53.387000, 48.678200,01.11,"Выращивание зерновых (кроме риса), зернобобовых культур и семян масличных культур",https://spark-interfax.ru/samarskaya-oblast-shigonski-raion/ooo-agroelit-inn-6325045559-ogrn-1076325003061-792e1494c94f4445b7580d8613963980
"ОБЩЕСТВО С ОГРАНИЧЕННОЙ ОТВЕТСТВЕННОСТЬЮ ""ЗЕРНОВАЯ КОМПАНИЯ ""ВОЛГА""",ООО ЗК ВОЛГА,6325043992,"446725, Самарская обл., Шигонский район, с. Подвалье, ул. Колхозная, д. 41Б", 53.683999, 48.832591,01.1,Выращивание однолетних культур,https://spark-interfax.ru/samarskaya-oblast-shigonski-raion/ooo-zk-volga-inn-6325043992-ogrn-1076325001610-4f9b51e0291d473d9d112e1ff62c05d0
"ОБЩЕСТВО С ОГРАНИЧЕННОЙ ОТВЕТСТВЕННОСТЬЮ ""АТОЛЛ - АГРО""",ООО АТОЛЛ - АГРО,6375001645,"446160, Самарская обл, м.р-н Пестравский, с.п. Пестравка, с Пестравка, ул Заводская, д. 18Д", 52.399456, 49.945975,01.11.1,Выращивание зерновых культур,https://spark-interfax.ru/samarskaya-oblast-pestravski-raion/ooo-atoll-agro-inn-6375001645-ogrn-1136375000222-9b670486c7ce4658a0d1c63f755000b0
"ОБЩЕСТВО С ОГРАНИЧЕННОЙ ОТВЕТСТВЕННОСТЬЮ ""ДЕМЕТРА-АГРОС""",ООО ДЕМЕТРА-АГРОС,6362010392,"445595, Самарская обл., Хворостянский район, с. Михайло-Лебяжье, ул. Советская, д. 40", 52.632345, 49.235449,01.11.1,Выращивание зерновых культур,https://spark-interfax.ru/samarskaya-oblast-khvorostyanski-raion/ooo-demetra-agros-inn-6362010392-ogrn-1036302061531-bf63759bf76244a68a65cbd3a9404d5b
КОЛХОЗ ИМЕНИ КИРОВА,КОЛХОЗ ИМЕНИ КИРОВА,2105000379,"429709, Чувашская Республика - Чувашия, Ибресинский район, пос. Бугуян, ул. Школьная, д. 47", 55.322728, 46.796438,01.11.1,Выращивание зерновых культур,https://spark-interfax.ru/chuvashskaya-respublika-chuvashiya-ibresinski-raion/kolkhoz-kolkhoz-imeni-kirova-inn-2105000379-ogrn-1022102029542-c11e8a2dbc5243cca8680a095ded18d6
"СЕЛЬСКОХОЗЯЙСТВЕННЫЙ ПРОИЗВОДСТВЕННЫЙ КООПЕРАТИВ ""МАЯК""",СПК МАЯК,2113000527,"429020, Чувашская Республика - Чувашия, Порецкий район, с. Ряпино, ул. Ульянова, д. 29", 55.232689, 46.289790,10.5,Производство молочной продукции,https://spark-interfax.ru/chuvashskaya-respublika-chuvashiya-poretski-raion/koop-mayak-inn-2113000527-ogrn-1022103031598-99019a921195445380b2000a706f3241
"СЕЛЬСКОХОЗЯЙСТВЕННЫЙ ПРОИЗВОДСТВЕННЫЙ КООПЕРАТИВ ""МАЯК""",СПК МАЯК,2113000527,"429020, Чувашская Республика - Чувашия, Порецкий район, с. Ряпино, ул. Ульянова, д. 29", 55.232689, 46.289790,10.5,Производство молочной продукции,https://spark-interfax.ru/chuvashskaya-respublika-chuvashiya-poretski-raion/koop-mayak-inn-2113000527-ogrn-1022103031598-99019a921195445380b2000a706f3241
"ОБЩЕСТВО С ОГРАНИЧЕННОЙ ОТВЕТСТВЕННОСТЬЮ ""СПЕЦИАЛИЗИРОВАННЫЙ ЗАСТРОЙЩИК ""ОТДЕЛФИНСТРОЙ""",ООО СЗОТДЕЛФИНСТРОЙ,2128023414,"428034, Чувашская Республика - Чувашия, г. Чебоксары, проспект Московский, д. 17 к. 1 неж. пом. 10", 56.145341, 47.222147,71.12.2,"Деятельность заказчика-застройщика, генерального подрядчика",https://spark-interfax.ru/chuvashskaya-respublika-chuvashiya-cheboksary/ooo-szotdelfinstroi-inn-2128023414-ogrn-1022101132822-531e1b14db074dea951a93e6ddb7dd4a
"ОБЩЕСТВЕННАЯ ОРГАНИЗАЦИЯ ТЕРРИТОРИАЛЬНОГО ОБЩЕСТВЕННОГО САМОУПРАВЛЕНИЯ ""ИВАНОВСКИЙ"" ДЕРЕВНИ ИВАНОВКА ПОРЕЦКОГО МУНИЦИПАЛЬНОГО ОКРУГА ЧУВАШСКОЙ РЕСПУБЛИКИ",ТОС ИВАНОВСКИЙ,1242100009073,"429023, Чувашская Республика - Чувашия, м.о. Порецкий, д Ивановка, ул Луговая, д. 6", 55.021793, 46.161877,94.99,"Деятельность прочих общественных организаций и некоммерческих организаций, кроме религиозных и политических организаций",https://spark-interfax.ru/chuvashskaya-respublika-chuvashiya-poretski-raion/oo-ivanovski-inn-2100022019-ogrn-1242100009073-2a60e4e4acb57048e063269aa8c099c9
"ОБЩЕСТВО С ОГРАНИЧЕННОЙ ОТВЕТСТВЕННОСТЬЮ ""КИПИАЙ АГРО""",ООО КИПИАЙ АГРО,2130153298,"428000, Чувашская Республика - Чувашия, г. Чебоксары, ул. Ленинградская, зд. 36 офис 609", 56.137980, 47.245640,01.11,"Выращивание зерновых (кроме риса), зернобобовых культур и семян масличных культур",https://spark-interfax.ru/chuvashskaya-respublika-chuvashiya-cheboksary/ooo-kipiai-agro-inn-2130153298-ogrn-1152130005103-cae109a67755415189f18f1073679aae
"ОБЩЕСТВО С ОГРАНИЧЕННОЙ ОТВЕТСТВЕННОСТЬЮ ""УПРАВЛЯЮЩАЯ КОМПАНИЯ ЖИЛИЩНО-КОММУНАЛЬНОГО ХОЗЯЙСТВА УРМАРСКОГО РАЙОНА""",ООО УК ЖКХ УРМАРСКОГО РАЙОНА,2114903271,"429400, Чувашская Республика - Чувашия, Урмарский район, пгт. Урмары, ул. Мира, д. 7", 55.682934, 47.943720,68.32,Управление недвижимым имуществом за вознаграждение или на договорной основе,https://spark-interfax.ru/chuvashskaya-respublika-chuvashiya-urmarski-raion/ooo-uk-zhkkh-urmarskogo-raiona-inn-2114903271-ogrn-1082137000032-05aeaaa2b4eb477e91900ce5245ca9ba
"АКЦИОНЕРНОЕ ОБЩЕСТВО ""ВЕГА""",АО ВЕГА,2107902012,"429433, Чувашская Республика - Чувашия, Козловский район, д. Ягунькино, ул. Капитана Петрова, д. 1А", 55.838432, 48.044006,01.1,Выращивание однолетних культур,https://spark-interfax.ru/chuvashskaya-respublika-chuvashiya-kozlovski-raion/ao-vega-inn-2107902012-ogrn-1042137001565-6718a0067f6c4e4095d31c28b956962a
"АКЦИОНЕРНОЕ ОБЩЕСТВО ""ВЕГА""",АО ВЕГА,2107902012,"429433, Чувашская Республика - Чувашия, Козловский район, д. Ягунькино, ул. Капитана Петрова, д. 1А", 55.838432, 48.044006,01.1,Выращивание однолетних культур,https://spark-interfax.ru/chuvashskaya-respublika-chuvashiya-kozlovski-raion/ao-vega-inn-2107902012-ogrn-1042137001565-6718a0067f6c4e4095d31c28b956962a
"ОБЩЕСТВО С ОГРАНИЧЕННОЙ ОТВЕТСТВЕННОСТЬЮ ""АГРОФИРМА""ЗАРЯ""",ООО АГРОФИРМАЗАРЯ,2105006010,"429721, Чувашская Республика - Чувашия, Ибресинский район, пос. Малиновка, ул. Лесная, д. 26", 55.119184, 47.141655,01.41,"Разведение молочного крупного рогатого скота, производство сырого молока",https://spark-interfax.ru/chuvashskaya-respublika-chuvashiya-ibresinski-raion/ooo-agrofirmazarya-inn-2105006010-ogrn-1162130054558-5b7cee0daee245a788afbed4c3a58a7b
"ОБЩЕСТВО С ОГРАНИЧЕННОЙ ОТВЕТСТВЕННОСТЬЮ ""УПРАВЛЯЮЩАЯ КОМПАНИЯ ""ВОЛГАХИМ""",ООО УК ВОЛГАХИМ,2124047767,"429965, Чувашская Республика - Чувашия, г. Новочебоксарск, ул. Промышленная, д. 101 корп. 351", 56.061722, 47.537936,68.20,Аренда и управление собственным или арендованным недвижимым имуществом,https://spark-interfax.ru/chuvashskaya-respublika-chuvashiya-novocheboksarsk/ooo-uk-volgakhim-inn-2124047767-ogrn-1202100009044-b5371773f4462eb8e053219aa8c030c7
"ОБЩЕСТВО С ОГРАНИЧЕННОЙ ОТВЕТСТВЕННОСТЬЮ ""АГРОФИРМА ""ТОЙСИНСКАЯ""",ООО АГРОФИРМА ТОЙСИНСКАЯ,2103903706,"429354, Чувашская Республика - Чувашия, м.о. Батыревский, с Тойси, ул Коммунистическая, д. 38", 55.074262, 47.774825,01.1,Выращивание однолетних культур,https://spark-interfax.ru/chuvashskaya-respublika-chuvashiya-batyrevski-raion/ooo-agrofirma-toisinskaya-inn-2103903706-ogrn-1062132018640-f78da557d25a4ec3abb7837919521542
"СНАБЖЕНЧЕСКО-СБЫТОВОЙ СЕЛЬСКОХОЗЯЙСТВЕННЫЙ ПОТРЕБИТЕЛЬСКИЙ КООПЕРАТИВ ""МОЛОЧНАЯ УСАДЬБА""",СССПК МОЛОЧНАЯ УСАДЬБА,1202100000299,"429290, Чувашская Республика - Чувашия, м.о. Янтиковский, д Салагаево, ул Родник, д. 24", 55.506308, 47.824844,01.41,"Разведение молочного крупного рогатого скота, производство сырого молока",https://spark-interfax.ru/chuvashskaya-respublika-chuvashiya-yantikovski-raion/koop-molochnaya-usadba-inn-2123022978-ogrn-1202100000299-9d032018cf7149eae053179aa8c0dd22
"ОБЩЕСТВО С ОГРАНИЧЕННОЙ ОТВЕТСТВЕННОСТЬЮ ""ПЕРКАРБОНАТ""",ООО ПЕРКАРБОНАТ,2124045287,"429965, Чувашская Республика - Чувашия, г. Новочебоксарск, ул. Промышленная, владение 101 д", 56.067129, 47.534186,20.13,Производство прочих основных неорганических химических веществ,https://spark-interfax.ru/chuvashskaya-respublika-chuvashiya-novocheboksarsk/ooo-perkarbonat-inn-2124045287-ogrn-1182130007652-5a1d40ce940b4ca7a386e60e098778e8
"ОБЩЕСТВО С ОГРАНИЧЕННОЙ ОТВЕТСТВЕННОСТЬЮ ""КАНМАШ АГРО""",ООО КАНМАШ АГРО,2123010436,"429330, Чувашская Республика - Чувашия, г. Канаш, ул. Красноармейская, д. 72", 55.507701, 47.472239,46.61,"Торговля оптовая машинами, оборудованием и инструментами для сельского хозяйства",https://spark-interfax.ru/chuvashskaya-respublika-chuvashiya-kanash/ooo-kanmash-agro-inn-2123010436-ogrn-1052134004306-aa008b7477a742fba2aa12de61b61684
"ОБЩЕСТВО С ОГРАНИЧЕННОЙ ОТВЕТСТВЕННОСТЬЮ ""ТОРГОВЫЙ ДОМ ""АККОНД""",ООО ТД АККОНД,2130132795,"428003, Чувашская Республика - Чувашия, г. Чебоксары, проезд Хозяйственный, д. 11А", 56.131356, 47.296037,46.36,"Торговля оптовая сахаром, шоколадом и сахаристыми кондитерскими изделиями",https://spark-interfax.ru/chuvashskaya-respublika-chuvashiya-cheboksary/ooo-td-akkond-inn-2130132795-ogrn-1142130001936-5452c91aee1944b88de90b797be2a444
"ОБЩЕСТВО С ОГРАНИЧЕННОЙ ОТВЕТСТВЕННОСТЬЮ ""ПТИЧИЙ ПОЛЕТ""",ООО ПТИЧИЙ ПОЛЕТ,2107005260,"429430, Чувашская Республика - Чувашия, Козловский район, г. Козловка, ул. Шоссейная, д. 17 офис 2", 55.834654, 48.258973,55.2,Деятельность по предоставлению мест для краткосрочного проживания,https://spark-interfax.ru/chuvashskaya-respublika-chuvashiya-kozlovski-raion/ooo-ptichi-polet-inn-2107005260-ogrn-1132137000357-55542c84398542d2a50298fd77ecb222
"ОБЩЕСТВО С ОГРАНИЧЕННОЙ ОТВЕТСТВЕННОСТЬЮ ""ЧЕСТЕРИ""",ООО ЧЕСТЕРИ,2100000463,"429336, Чувашская Республика - Чувашия, м.о. Канашский, г Канаш, ш Янтиковское, д. 22, офис 2", 55.509681, 47.519200,55.10,Деятельность гостиниц и прочих мест для временного проживания,https://spark-interfax.ru/chuvashskaya-respublika-chuvashiya-kanash/ooo-chesteri-inn-2100000463-ogrn-1222100006930-e8ebcb23b42a7112e053259aa8c0aedf
"ОБЩЕСТВО С ОГРАНИЧЕННОЙ ОТВЕТСТВЕННОСТЬЮ ""ЯСНА""",ООО ЯСНА,2129047104,"428034, Чувашская Республика - Чувашия, г. Чебоксары, проспект Максима Горького, д. 33 кв. 144", 56.148406, 47.179960,79.12,Деятельность туроператоров,https://spark-interfax.ru/chuvashskaya-respublika-chuvashiya-cheboksary/ooo-yasna-inn-2129047104-ogrn-1032129000881-590dff08b120457ea8c52e91622a62da
"ОБЩЕСТВО С ОГРАНИЧЕННОЙ ОТВЕТСТВЕННОСТЬЮ ""СК ""ИМЕНИЕ-21""",ООО СК ИМЕНИЕ-21,2100004926,"428903, Чувашская Республика - Чувашия, г.о. город Чебоксары, г Чебоксары, пр-д Березовый, зд. 15А, офис 1", 56.073897, 47.239881,41.20,Строительство жилых и нежилых зданий,https://spark-interfax.ru/chuvashskaya-respublika-chuvashiya-cheboksary/ooo-sk-imenie-inn-2100004926-ogrn-1232100001430-f5928f7f553f52e1e053249aa8c082f3
"ПУБЛИЧНОЕ АКЦИОНЕРНОЕ ОБЩЕСТВО ""ХИМПРОМ""",ПАО ХИМПРОМ,2124009521,"429965, Чувашская Республика - Чувашия, г. Новочебоксарск, ул. Промышленная, д. 101", 56.081143, 47.521034,20.14.7,Производство прочих химических органических основных веществ,https://spark-interfax.ru/chuvashskaya-respublika-chuvashiya-novocheboksarsk/pao-khimprom-inn-2124009521-ogrn-1022100910226-b6d18b8a33ef4181ae0d285dc48f9fd3
"ОБЩЕСТВО С ОГРАНИЧЕННОЙ ОТВЕТСТВЕННОСТЬЮ ""СУГУТКА""",ООО СУГУТКА,2121003546,"429293, Чувашская Республика - Чувашия, Янтиковский район, д. Беляево, ул. Ленинградская, д. 10", 55.585178, 47.727332,47.25,Торговля розничная напитками в специализированных магазинах,https://spark-interfax.ru/chuvashskaya-respublika-chuvashiya-yantikovski-raion/ooo-sugutka-inn-2121003546-ogrn-1142134000392-ab984acf9d9a4eb68193422f125b02f6
"ОБЩЕСТВО С ОГРАНИЧЕННОЙ ОТВЕТСТВЕННОСТЬЮ ""ФАБРИКА ШКОЛЬНОГО ПИТАНИЯ""",ООО ФШП,2124029292,"429950, Чувашская Республика - Чувашия, г. Новочебоксарск, ул. Промышленная, д. 61Б", 56.098145, 47.496848,56.29,Деятельность предприятий общественного питания по прочим видам организации питания,https://spark-interfax.ru/chuvashskaya-respublika-chuvashiya-novocheboksarsk/ooo-fshp-inn-2124029292-ogrn-1082124000760-3c81926336e046ad8843c468eac73067
"ОБЩЕСТВО С ОГРАНИЧЕННОЙ ОТВЕТСТВЕННОСТЬЮ ""МЯСОПЕРЕРАБАТЫВАЮЩЕЕ ПРЕДПРИЯТИЕ ""ПРИВОЛЖСКИЕ КОЛБАСЫ""",ООО ПРИВОЛЖСКИЕ КОЛБАСЫ,2124042470,"429965, Чувашская Республика - Чувашия, г.о. город Новочебоксарск, г Новочебоксарск, ул Восточная, влд. 12Б, помещ. 15", 56.103614, 47.478278,10.13,Производство продукции из мяса убойных животных и мяса птицы,https://spark-interfax.ru/chuvashskaya-respublika-chuvashiya-novocheboksarsk/ooo-privolzhskie-kolbasy-inn-2124042470-ogrn-1162130060685-48fdaa1460fa4d918608980623450f0b
"АКЦИОНЕРНОЕ ОБЩЕСТВО ""НИЖНЕЛОМОВСКИЙ ЭЛЕКТРОМЕХАНИЧЕСКИЙ ЗАВОД""",АО НЛЭМЗ,5827901321,"442151, Пензенская обл., Нижнеломовский район, г. Нижний Ломов, ул. Толстого, д. 1", 53.500783, 43.663358,25.40,Производство оружия и боеприпасов,https://spark-interfax.ru/penzenskaya-oblast-nizhnelomovski-raion/ao-nlemz-inn-5827901321-ogrn-1115827001740-d2d9d96af57b42d8a0c032d3ae23e198
"СЕЛЬСКОХОЗЯЙСТВЕННЫЙ ПОТРЕБИТЕЛЬСКИЙ ПЕРЕРАБАТЫВАЮЩИЙ КООПЕРАТИВ ""ЭКОПРОД""",СППК ЭКОПРОД,5812008524,"442327, Пензенская обл., Городищенский район, с. Средняя Елюзань, ул. Шоссейная, зд. 9А", 53.027975, 45.944507,10.13.7,"Производство муки и гранул из мяса и мясных субпродуктов, непригодных для употребления в пищу",https://spark-interfax.ru/penzenskaya-oblast-gorodishchenski-raion/koop-ekoprod-inn-5812008524-ogrn-1175835015070-6906d991e03b226ae0531b9aa8c04bb6
"СЕЛЬСКОХОЗЯЙСТВЕННЫЙ ПОТРЕБИТЕЛЬСКИЙ ПЕРЕРАБАТЫВАЮЩИЙ КООПЕРАТИВ ""БЕКОВСКИЙ КООППРОДУКТ""",СППК БЕКОВСКИЙ КООППРОДУКТ,5808005263,"442940, Пензенская обл., Бековский район, рабочий пос. Беково, ул. Ленинская, д. 7 пом. 10", 52.462181, 43.714639,10.39,Прочие виды переработки и консервирования фруктов и овощей,https://spark-interfax.ru/penzenskaya-oblast-bekovski-raion/koop-bekovski-koopprodukt-inn-5808005263-ogrn-1105805001576-6906d991b0bd226ae0531b9aa8c04bb6
"ОБЩЕСТВО С ОГРАНИЧЕННОЙ ОТВЕТСТВЕННОСТЬЮ ""РОСТОК""",ООО РОСТОК,5802003527,"442246, Пензенская обл., Каменский район, г. Каменка, ул. Ломовская, д. 4", 53.185625, 44.011837,10.61,Производство продуктов мукомольной и крупяной промышленности,https://spark-interfax.ru/penzenskaya-oblast-kamenski-raion/ooo-rostok-inn-5802003527-ogrn-1045800504023-d923d872a6bb49f89583a8bc73fcc402
"СЕЛЬСКОХОЗЯЙСТВЕННЫЙ СНАБЖЕНЧЕСКО-СБЫТОВОЙ ПОТРЕБИТЕЛЬСКИЙ КООПЕРАТИВ ""ЭКОРОСТ""",СССПК ЭКОРОСТ,1225800006145,"442010, Пензенская обл, м.р-н Земетчинский, с.п. Матчерский сельсовет, с Матчерка, ул Центральная, влд. 15А", 53.433258, 42.710956,01.62,Предоставление услуг в области животноводства,https://spark-interfax.ru/penzenskaya-oblast-zemetchinski-raion/koop-ekorost-inn-5813000937-ogrn-1225800006145-e62b7b7c74ce0148e053259aa8c0f124
"ОБЩЕСТВО С ОГРАНИЧЕННОЙ ОТВЕТСТВЕННОСТЬЮ ""ГРАНИТ""",ООО ГРАНИТ,5827000888,"442152, Пензенская обл., Нижнеломовский район, с. Норовка, ул. Молодежная, д. 1Б", 53.535589, 43.636137,23.20.1,"Производство огнеупорных кирпичей, блоков, плиток",https://spark-interfax.ru/penzenskaya-oblast-nizhnelomovski-raion/ooo-granit-inn-5827000888-ogrn-1165835069058-104668f06af540b1829e3abcc6d7c253
"ОБЩЕСТВО С ОГРАНИЧЕННОЙ ОТВЕТСТВЕННОСТЬЮ ""КРЫМОПТТОРГ""",ООО КРЫМОПТТОРГ,9108124985,"298107, Крым Респ, г.о. Феодосия, г Феодосия, ул Геологическая, д. 20, офис 3", 45.064814, 35.388205,46.32,Торговля оптовая мясом и мясными продуктами,https://spark-interfax.ru/respublika-krym-feodosiya/ooo-krymopttorg-inn-9108124985-ogrn-1209100009436-ac6a0945b9d0230fe053189aa8c0c843
"МУНИЦИПАЛЬНОЕ БЮДЖЕТНОЕ ОБРАЗОВАТЕЛЬНОЕ УЧРЕЖДЕНИЕ ДОПОЛНИТЕЛЬНОГО ОБРАЗОВАНИЯ ""ЦЕНТР ДЕТСКОГО ТВОРЧЕСТВА ШЕМЫШЕЙСКОГО РАЙОНА ПЕНЗЕНСКОЙ ОБЛАСТИ""",МБОУ ДО ЦДТ ШЕМЫШЕЙСКОГО РАЙОНА,1025801087102,"442430, Пензенская обл., Шемышейский район, рабочий пос. Шемышейка, ул. Горького, д. 1А", 52.893004, 45.408205,85.41,Образование дополнительное детей и взрослых,https://spark-interfax.ru/penzenskaya-oblast-shemysheiski-raion/mbu-do-tsdt-shemysheiskogo-raiona-inn-5833000519-ogrn-1025801087102-6906d9917d4e226ae0531b9aa8c04bb6
"ОБЩЕСТВО С ОГРАНИЧЕННОЙ ОТВЕТСТВЕННОСТЬЮ ""ПРОМСЕРВИС""",ООО ПРОМСЕРВИС,5816004658,"442387, Пензенская обл, м.р-н Мокшанский, с.п. Широкоисский сельсовет, с Потьма, ул Ленина, д. 2, кв. 1", 53.511438, 44.095683,46.73.1,Торговля оптовая древесным сырьем и необработанными лесоматериалами,https://spark-interfax.ru/penzenskaya-oblast-mokshanski-raion/ooo-promservis-inn-5816004658-ogrn-1135803000585-25bedf92105d43519bd98b0cba13f9a9
"СЕЛЬСКОХОЗЯЙСТВЕННЫЙ ОБСЛУЖИВАЮЩИЙ СНАБЖЕНЧЕСКО-СБЫТОВОЙ ПЕРЕРАБАТЫВАЮЩИЙ ПОТРЕБИТЕЛЬСКИЙ КООПЕРАТИВ ""ЛИС""",СОССППК ЛИС,1225800010479,"442481, Пензенская обл, м.р-н Неверкинский, с.п. Бикмосеевский сельсовет, с Бикмосеевка, ул Центральная, двлд. 75", 52.809222, 46.819462,01.50,Смешанное сельское хозяйство,https://spark-interfax.ru/penzenskaya-oblast-neverkinski-raion/koop-lis-inn-5803032591-ogrn-1225800010479-f12c087419c71645e053249aa8c00170
"СНАБЖЕНЧЕСКО-СБЫТОВОЙ СЕЛЬСКОХОЗЯЙСТВЕННЫЙ ПОТРЕБИТЕЛЬСКИЙ КООПЕРАТИВ ""АЛИНА""",СССПК АЛИНА,5833004785,"442449, Пензенская обл., Шемышейский район, с. Усть-Уза, ул. Октябрьская, д. 20", 52.962427, 45.298728,01.13.1,Выращивание овощей,https://spark-interfax.ru/penzenskaya-oblast-shemysheiski-raion/koop-alina-inn-5833004785-ogrn-1095803000787-6906d9915a43226ae0531b9aa8c04bb6
"СЕЛЬСКОХОЗЯЙСТВЕННЫЙ ПЕРЕРАБАТЫВАЮЩИЙ ПОТРЕБИТЕЛЬСКИЙ КООПЕРАТИВ ""НЕВЕРКИНСКИЙ""",СППК НЕВЕРКИНСКИЙ,1165835057222,"442480, Пензенская обл., Неверкинский район, с. Неверкино, ул. Кирова, д. 96", 52.779690, 46.731046,10.51,Производство молока (кроме сырого) и молочной продукции,https://spark-interfax.ru/penzenskaya-oblast-neverkinski-raion/koop-neverkinski-inn-5825001974-ogrn-1165835057222-6906d991d5ab226ae0531b9aa8c04bb6
