Название,Название Кратко,ИНН,адрес,lat,lon,Код оквэд,Основной вид деятельности,Ссылка
"МУНИЦИПАЛЬНОЕ БЮДЖЕТНОЕ ДОШКОЛЬНОЕ ОБРАЗОВАТЕЛЬНОЕ УЧРЕЖДЕНИЕ ""ДЕТСКИЙ САД №129 ""ДУБРАВУШКА"" ГОРОДА ЧЕБОКСАРЫ ЧУВАШСКОЙ РЕСПУБЛИКИ",МБДОУ ДЕТСКИЙ САД №129 Г.ЧЕБОКСАРЫ,1022100975841,"428037, Чувашская Республика - Чувашия, г. Чебоксары, ул. Кадыкова, д. 15", 56.106394, 47.301236,85.11,Образование дошкольное,https://spark-interfax.ru/chuvashskaya-respublika-chuvashiya-cheboksary/mbu-detski-sad-n-g-cheboksary-inn-2127318052-ogrn-1022100975841-6906d9b1bb06226ae0531b9aa8c04bb6
"МУНИЦИПАЛЬНОЕ БЮДЖЕТНОЕ ДОШКОЛЬНОЕ ОБРАЗОВАТЕЛЬНОЕ УЧРЕЖДЕНИЕ ""ДЕТСКИЙ САД № 126 ""РАДУГА"" ГОРОДА ЧЕБОКСАРЫ ЧУВАШСКОЙ РЕСПУБЛИКИ",МБДОУ ДЕТСКИЙ САД № 126 Г.ЧЕБОКСАРЫ,1022100979680,"428037, Чувашская Республика - Чувашия, г. Чебоксары, ул. Пролетарская, д. 17", 56.102592, 47.301486,85.11,Образование дошкольное,https://spark-interfax.ru/chuvashskaya-respublika-chuvashiya-cheboksary/mbu-detski-sad-n-g-cheboksary-inn-2127308382-ogrn-1022100979680-6906d9b1c0f7226ae0531b9aa8c04bb6
"МУНИЦИПАЛЬНОЕ БЮДЖЕТНОЕ ДОШКОЛЬНОЕ ОБРАЗОВАТЕЛЬНОЕ УЧРЕЖДЕНИЕ ""ДЕТСКИЙ САД №160 ОБЩЕРАЗВИВАЮЩЕГО ВИДА С ПРИОРИТЕТНЫМ ОСУЩЕСТВЛЕНИЕМ ДЕЯТЕЛЬНОСТИ ПО ХУДОЖЕСТВЕННО-ЭСТЕТИЧЕСКОМУ РАЗВИТИЮ ДЕТЕЙ"" ГОРОДА ЧЕБОКСАРЫ ЧУВАШСКОЙ РЕСПУБЛИКИ",МБДОУ ДЕТСКИЙ САД № 160 Г.ЧЕБОКСАРЫ,1022101278935,"428038, Чувашская Республика - Чувашия, г. Чебоксары, бульвар Юго-Западный, д. 7", 56.117302, 47.186782,85.11,Образование дошкольное,https://spark-interfax.ru/chuvashskaya-respublika-chuvashiya-cheboksary/mbu-detski-sad-n-g-cheboksary-inn-2129033750-ogrn-1022101278935-6906d9b1c2f0226ae0531b9aa8c04bb6
"МУНИЦИПАЛЬНОЕ БЮДЖЕТНОЕ ДОШКОЛЬНОЕ ОБРАЗОВАТЕЛЬНОЕ УЧРЕЖДЕНИЕ ""ДЕТСКИЙ САД № 136"" ГОРОДА ЧЕБОКСАРЫ ЧУВАШСКОЙ РЕСПУБЛИКИ",МБДОУ ДЕТСКИЙ САД № 136 Г.ЧЕБОКСАРЫ,1022101277109,"428035, Чувашская Республика - Чувашия, г. Чебоксары, ул. 139 Стрелковой Дивизии, д. 3", 56.141171, 47.169650,85.11,Образование дошкольное,https://spark-interfax.ru/chuvashskaya-respublika-chuvashiya-cheboksary/mbu-detski-sad-n-g-cheboksary-inn-2129033800-ogrn-1022101277109-6906d9b1c465226ae0531b9aa8c04bb6
"МУНИЦИПАЛЬНОЕ БЮДЖЕТНОЕ ДОШКОЛЬНОЕ ОБРАЗОВАТЕЛЬНОЕ УЧРЕЖДЕНИЕ ""ДЕТСКИЙ САД № 162 ""АКВАРЕЛЬКА"" ОБЩЕРАЗВИВАЮЩЕГО ВИДА С ПРИОРИТЕТНЫМ ОСУЩЕСТВЛЕНИЕМ ДЕЯТЕЛЬНОСТИ ПО ХУДОЖЕСТВЕННО-ЭСТЕТИЧЕСКОМУ РАЗВИТИЮ ДЕТЕЙ"" ГОРОДА ЧЕБОКСАРЫ ЧУВАШСКОЙ РЕСПУБЛИКИ",МБДОУ ДЕТСКИЙ САД № 162 Г. ЧЕБОКСАРЫ,1022101139059,"428027, Чувашская Республика - Чувашия, г. Чебоксары, бульвар Эгерский, зд. 59А", 56.091748, 47.285168,85.11,Образование дошкольное,https://spark-interfax.ru/chuvashskaya-respublika-chuvashiya-cheboksary/mbu-detski-sad-n-g-cheboksary-inn-2128019672-ogrn-1022101139059-6906d9b1bff0226ae0531b9aa8c04bb6
"МУНИЦИПАЛЬНОЕ БЮДЖЕТНОЕ ДОШКОЛЬНОЕ ОБРАЗОВАТЕЛЬНОЕ УЧРЕЖДЕНИЕ ""ДЕТСКИЙ САД № 143"" ГОРОДА ЧЕБОКСАРЫ ЧУВАШСКОЙ РЕСПУБЛИКИ",МБДОУ ДЕТСКИЙ САД № 143 Г. ЧЕБОКСАРЫ,1022101279980,"428017, Чувашская Республика - Чувашия, г. Чебоксары, ул. Пирогова, д. 20 к. А", 56.138427, 47.204209,85.11,Образование дошкольное,https://spark-interfax.ru/chuvashskaya-respublika-chuvashiya-cheboksary/mbu-detski-sad-n-g-cheboksary-inn-2129035405-ogrn-1022101279980-6906d9b1c57b226ae0531b9aa8c04bb6
"МУНИЦИПАЛЬНОЕ БЮДЖЕТНОЕ ДОШКОЛЬНОЕ ОБРАЗОВАТЕЛЬНОЕ УЧРЕЖДЕНИЕ ""ДЕТСКИЙ САД № 169 ""СВЕТЛЯЧОК"" ОБЩЕРАЗВИВАЮЩЕГО ВИДА С ПРИОРИТЕТНЫМ ОСУЩЕСТВЛЕНИЕМ ДЕЯТЕЛЬНОСТИ ПО СОЦИАЛЬНО-ЛИЧНОСТНОМУ РАЗВИТИЮ ДЕТЕЙ"" ГОРОДА ЧЕБОКСАРЫ ЧУВАШСКОЙ РЕСПУБЛИКИ",МБДОУ ДЕТСКИЙ САД № 169 Г.ЧЕБОКСАРЫ,1022100981176,"428028, Чувашская Республика - Чувашия, г. Чебоксары, проспект Тракторостроителей, д. 65", 56.106776, 47.316980,85.11,Образование дошкольное,https://spark-interfax.ru/chuvashskaya-respublika-chuvashiya-cheboksary/mbu-detski-sad-n-g-cheboksary-inn-2127309636-ogrn-1022100981176-6906d9b1c0ff226ae0531b9aa8c04bb6
"МУНИЦИПАЛЬНОЕ БЮДЖЕТНОЕ ДОШКОЛЬНОЕ ОБРАЗОВАТЕЛЬНОЕ УЧРЕЖДЕНИЕ ""ДЕТСКИЙ САД № 172 ""ЛЬВЁНОК"" ГОРОДА ЧЕБОКСАРЫ ЧУВАШСКОЙ РЕСПУБЛИКИ",МБДОУ ДЕТСКИЙ САД № 172 Г. ЧЕБОКСАРЫ,1062130012240,"428028, Чувашская Республика - Чувашия, г. Чебоксары, проспект Тракторостроителей, д. 69", 56.107912, 47.320570,85.11,Образование дошкольное,https://spark-interfax.ru/chuvashskaya-respublika-chuvashiya-cheboksary/mbu-detski-sad-n-g-cheboksary-inn-2130007900-ogrn-1062130012240-6906d9b1d1ff226ae0531b9aa8c04bb6
"МУНИЦИПАЛЬНОЕ БЮДЖЕТНОЕ ДОШКОЛЬНОЕ ОБРАЗОВАТЕЛЬНОЕ УЧРЕЖДЕНИЕ ""ДЕТСКИЙ САД № 183"" ГОРОДА ЧЕБОКСАРЫ ЧУВАШСКОЙ РЕСПУБЛИКИ",МБДОУ ДЕТСКИЙ САД № 183 Г. ЧЕБОКСАРЫ,1102130004349,"428036, Чувашская Республика - Чувашия, г. Чебоксары, ул. Чернышевского, д. 28", 56.119576, 47.177050,85.11,Образование дошкольное,https://spark-interfax.ru/chuvashskaya-respublika-chuvashiya-cheboksary/mbu-detski-sad-n-g-cheboksary-inn-2130071648-ogrn-1102130004349-6906d9b1e4fa226ae0531b9aa8c04bb6
"МУНИЦИПАЛЬНОЕ БЮДЖЕТНОЕ ДОШКОЛЬНОЕ ОБРАЗОВАТЕЛЬНОЕ УЧРЕЖДЕНИЕ ""ДЕТСКИЙ САД № 114 ""АЛЕНЬКИЙ ЦВЕТОЧЕК"" ГОРОДА ЧЕБОКСАРЫ ЧУВАШСКОЙ РЕСПУБЛИКИ",МБДОУ ДЕТСКИЙ САД № 114 Г. ЧЕБОКСАРЫ,1022100980131,"428031, Чувашская Республика - Чувашия, г. Чебоксары, ул. 324 Стрелковой Дивизии, д. 11", 56.105850, 47.289568,85.11,Образование дошкольное,https://spark-interfax.ru/chuvashskaya-respublika-chuvashiya-cheboksary/mbu-detski-sad-n-g-cheboksary-inn-2127308833-ogrn-1022100980131-6906d9b1c0f5226ae0531b9aa8c04bb6
"МУНИЦИПАЛЬНОЕ БЮДЖЕТНОЕ ДОШКОЛЬНОЕ ОБРАЗОВАТЕЛЬНОЕ УЧРЕЖДЕНИЕ ""ДЕТСКИЙ САД № 96 ""АЛЕНУШКА"" ГОРОДА ЧЕБОКСАРЫ ЧУВАШСКОЙ РЕСПУБЛИКИ",МБДОУ ДЕТСКИЙ САД №96 Г. ЧЕБОКСАРЫ,1022101138432,"428024, Чувашская Республика - Чувашия, г. Чебоксары, проспект Мира, д. 19 к. А", 56.108733, 47.268580,85.11,Образование дошкольное,https://spark-interfax.ru/chuvashskaya-respublika-chuvashiya-cheboksary/mbu-detski-sad-n-g-cheboksary-inn-2128020519-ogrn-1022101138432-6906d9b1ca50226ae0531b9aa8c04bb6
"МУНИЦИПАЛЬНОЕ БЮДЖЕТНОЕ ДОШКОЛЬНОЕ ОБРАЗОВАТЕЛЬНОЕ УЧРЕЖДЕНИЕ ""ДЕТСКИЙ САД №116 ""РОДНИЧОК"" ОБЩЕРАЗВИВАЮЩЕГО ВИДА С ПРИОРИТЕТНЫМ ОСУЩЕСТВЛЕНИЕМ ДЕЯТЕЛЬНОСТИ ПО ФИЗИЧЕСКОМУ РАЗВИТИЮ ДЕТЕЙ"" ГОРОДА ЧЕБОКСАРЫ ЧУВАШСКОЙ РЕСПУБЛИКИ",МБДОУ ДЕТСКИЙ САД №116 Г. ЧЕБОКСАРЫ,1022101281674,"428035, Чувашская Республика - Чувашия, г. Чебоксары, ул. Ахазова, д. 5 стр. А", 56.145332, 47.172728,85.11,Образование дошкольное,https://spark-interfax.ru/chuvashskaya-respublika-chuvashiya-cheboksary/mbu-detski-sad-n-g-cheboksary-inn-2129045932-ogrn-1022101281674-6906d9b1be3f226ae0531b9aa8c04bb6
"МУНИЦИПАЛЬНОЕ БЮДЖЕТНОЕ УЧРЕЖДЕНИЕ ""УПРАВЛЕНИЕ ЖИЛИЩНЫМ ФОНДОМ ГОРОДА ЧЕБОКСАРЫ""",МБУ УПРАВЛЕНИЕ ЖИЛФОНДОМ Г. ЧЕБОКСАРЫ,1082130008905,"428022, Чувашская Республика - Чувашия, г. Чебоксары, ул. Гагарина Ю., д. 26", 56.127553, 47.269372,68.32.1,Управление эксплуатацией жилого фонда за вознаграждение или на договорной основе,https://spark-interfax.ru/chuvashskaya-respublika-chuvashiya-cheboksary/mbu-upravlenie-zhilfondom-g-cheboksary-inn-2130042069-ogrn-1082130008905-6906d9b1dac6226ae0531b9aa8c04bb6
"МУНИЦИПАЛЬНОЕ БЮДЖЕТНОЕ ДОШКОЛЬНОЕ ОБРАЗОВАТЕЛЬНОЕ УЧРЕЖДЕНИЕ ""ДЕТСКИЙ САД № 83 ""РУЧЕЁК"" ГОРОДА ЧЕБОКСАРЫ ЧУВАШСКОЙ РЕСПУБЛИКИ",МБДОУ ДЕТСКИЙ САД № 83 Г. ЧЕБОКСАРЫ,1022101138201,"428027, Чувашская Республика - Чувашия, г. Чебоксары, ул. Шумилова, д. 7 к. А", 56.102779, 47.276162,85.11,Образование дошкольное,https://spark-interfax.ru/chuvashskaya-respublika-chuvashiya-cheboksary/mbu-detski-sad-n-g-cheboksary-inn-2128019802-ogrn-1022101138201-6906d9b1bff3226ae0531b9aa8c04bb6
"ОБЩЕСТВО С ОГРАНИЧЕННОЙ ОТВЕТСТВЕННОСТЬЮ ""БИЗНЕС-ПАРТНЕР""",ООО БИЗНЕС-ПАРТНЕР,6317113798,"443106, Самарская обл, г.о. Самара, вн.р-н Кировский, г Самара, ул Алма-Атинская, д. 128, кв. 15", 53.252687, 50.264190,77.21,Прокат и аренда товаров для отдыха и спортивных товаров,https://spark-interfax.ru/samarskaya-oblast-samara/ooo-biznes-partner-inn-6317113798-ogrn-1166313113966-ba9ecacd7c2f4e8880551cd72304a355
"ОБЩЕСТВО С ОГРАНИЧЕННОЙ ОТВЕТСТВЕННОСТЬЮ ""ПРОЕКТНО-СТРОИТЕЛЬНАЯ КОМПАНИЯ ""ГРАД""",ООО ПСК ГРАД,6382092210,"445035, Самарская обл, г.о. Тольятти, г Тольятти, ул Базовая, влд. 24, стр. 7, офис 101", 53.519907, 49.474466,41.20,Строительство жилых и нежилых зданий,https://spark-interfax.ru/samarskaya-oblast-tolyatti/ooo-psk-grad-inn-6382092210-ogrn-1226300030318-e3f87320392a4b3de053259aa8c04510
"ОБЩЕСТВО С ОГРАНИЧЕННОЙ ОТВЕТСТВЕННОСТЬЮ ""РУБЕЖ-АГРО""",ООО РУБЕЖ-АГРО,6367057669,"443536, Самарская обл., Волжский район, с. Николаевка, д. 500МЕТРОВ ЮГО-ВОСТОЧНЕЕ ЧАСТИ ГОРОДА САМАРЫ", 53.090719, 50.314468,01.1,Выращивание однолетних культур,https://spark-interfax.ru/samarskaya-oblast-volzhski-raion/ooo-rubezh-agro-inn-6367057669-ogrn-1086367000499-a429f8417db74a78a0af74e77bbbb8ee
"СЕЛЬСКОХОЗЯЙСТВЕННЫЙ ПРОИЗВОДСТВЕННЫЙ КООПЕРАТИВ ""СЕВЕРНЫЙ""",СПК СЕВЕРНЫЙ,6368003095,"446880, Самарская обл., Елховский район, пос. Нижняя Кондурча, ул. Полевая, д. 13", 53.978154, 50.374821,01.11.1,Выращивание зерновых культур,https://spark-interfax.ru/samarskaya-oblast-elkhovski-raion/koop-severny-inn-6368003095-ogrn-1036302944127-5b88678defad440587ae4622c0771bd0
"ОБЩЕСТВО С ОГРАНИЧЕННОЙ ОТВЕТСТВЕННОСТЬЮ СЕЛЬСКОХОЗЯЙСТВЕННОЕ ПРЕДПРИЯТИЕ ""СМОЛЬКОВО""",ООО СЕЛЬСКОХОЗЯЙСТВЕННОЕ ПРЕДПРИЯТИЕ СМОЛЬКОВО,6381004098,"446582, Самарская обл., Исаклинский район, с. Смольково, ул. Юбилейная, д. 62", 54.117229, 51.330984,01.11,"Выращивание зерновых (кроме риса), зернобобовых культур и семян масличных культур",https://spark-interfax.ru/samarskaya-oblast-isaklinski-raion/ooo-smolkovo-inn-6381004098-ogrn-1156313043688-a83846b906874299a4cae4a4dec6e95d
"ФЕРМЕРСКОЕ ХОЗЯЙСТВО "" ПРОНИНО-1""",ФХ ПРОНИНО-1,1026303277857,"446442, Самарская обл, г.о. Кинель, пгт Усть-Кинельский, ул Невежий овраг, двлд. 12", 53.264983, 50.553670,01.11,"Выращивание зерновых (кроме риса), зернобобовых культур и семян масличных культур",https://spark-interfax.ru/samarskaya-oblast-kinel/kfkh-pronino-inn-6371005166-ogrn-1026303277857-e9789c0041bc63b7e053249aa8c0dd3e
"ОБЩЕСТВО С ОГРАНИЧЕННОЙ ОТВЕТСТВЕННОСТЬЮ ""КЛЯВЛИНСКИЙ КОМБИКОРМОВЫЙ ЗАВОД""",ООО ККЗ,6373000220,"446960, Самарская обл., Клявлинский район, ст. Клявлино, ул. Советская, д. 11", 54.257813, 52.017237,52.10,Деятельность по складированию и хранению,https://spark-interfax.ru/samarskaya-oblast-klyavlinski-raion/ooo-kkz-inn-6373000220-ogrn-1176313078920-591525d4d1495bb9e0531c9aa8c084ba
"АССОЦИАЦИЯ ""ПРОИЗВОДИТЕЛЕЙ СЕЛЬСКОХОЗЯЙСТВЕННОЙ ПРОДУКЦИИ ""БЕЗЕНЧУКСКАЯ""",АПСХП БЕЗЕНЧУКСКАЯ,6362010667,"446250, Самарская обл., Безенчукский район, с. Песочное, ул. Южная, д. 1", 52.923940, 49.432454,99999,99999,https://spark-interfax.ru/samarskaya-oblast-bezenchukski-raion/obedinenie-bezenchukskaya-inn-6362010667-ogrn-1036302063302-6906d9584a98226ae0531b9aa8c04bb6
"ОБЩЕСТВО С ОГРАНИЧЕННОЙ ОТВЕТСТВЕННОСТЬЮ ""СЕВЕРНОЕ""",ООО СЕВЕРНОЕ,6381018076,"446859, Самарская обл., Челно-Вершинский район, с. Чувашское Урметьево, ул. Центральная, зд. 40", 54.478531, 51.291175,01.61,Предоставление услуг в области растениеводства,https://spark-interfax.ru/samarskaya-oblast-chelno-vershinski-raion/ooo-severnoe-inn-6381018076-ogrn-1116381000548-9a9a1b12bfe741999633b1eda2f9fd7a
"ОБЩЕСТВО С ОГРАНИЧЕННОЙ ОТВЕТСТВЕННОСТЬЮ ""ВУД ЭНД ЛЭЗЕР ТЕХНОЛОДЖИС""",ООО ВЭЛТ,6317112868,"443001, Самарская обл, г.о. Самара, вн.р-н Ленинский, г Самара, ул Пушкина, д. 227А", 53.201715, 50.126449,16.29.1,Производство прочих деревянных изделий,https://spark-interfax.ru/samarskaya-oblast-samara/ooo-velt-inn-6317112868-ogrn-1166313090690-5ed04f4250fb4430b9b4dd0e67093d67
"ОБЩЕСТВО С ОГРАНИЧЕННОЙ ОТВЕТСТВЕННОСТЬЮ ""ГРАНУМ""",ООО ГРАНУМ,6318070160,"443058, Самарская обл, г.о. Самара, вн.р-н Советский, г Самара, ул Физкультурная, д. 90, офис 606", 53.210149, 50.246239,46.21,"Торговля оптовая зерном, необработанным табаком, семенами и кормами для сельскохозяйственных животных",https://spark-interfax.ru/samarskaya-oblast-samara/ooo-granum-inn-6318070160-ogrn-1226300042924-ebabdf75d75662b2e053249aa8c0c9e1
"РЕГИОНАЛЬНАЯ ОБЩЕСТВЕННАЯ ОРГАНИЗАЦИЯ ""МОЛОДЕЖНОЕ ИНФОРМАЦИОННОЕ АГЕНТСТВО САМАРСКОЙ ОБЛАСТИ""",РОО МОЛОДЕЖНОЕ ИНФОРМАЦИОННОЕ АГЕНТСТВО САМАРСКОЙ ОБЛАСТИ,1136300002310,"443110, Самарская обл, г.о. Самара, вн.р-н Октябрьский, г Самара, ул Лесная, д. 33, офис 8, помещ. 3", 53.215272, 50.133485,94.99,"Деятельность прочих общественных организаций и некоммерческих организаций, кроме религиозных и политических организаций",https://spark-interfax.ru/samarskaya-oblast-samara/oo-molodezhnoe-informatsionnoe-agentstvo-samarskoi-oblasti-inn-6311998368-ogrn-1136300002310-6906d9580b72226ae0531b9aa8c04bb6
"ОБЩЕСТВО С ОГРАНИЧЕННОЙ ОТВЕТСТВЕННОСТЬЮ ""ШКОЛА ИСКУССТВЕННОГО ИНТЕЛЛЕКТА""",ООО ШКОЛА ИИ,6320064452,"445028, Самарская обл, г.о. Тольятти, г Тольятти, б-р Королева, зд. 13, офис 19", 53.511323, 49.263872,85.41,Образование дополнительное детей и взрослых,https://spark-interfax.ru/samarskaya-oblast-tolyatti/ooo-shkola-ii-inn-6320064452-ogrn-1226300005084-d751acbcb0ad1b79e053259aa8c041b4
"ОБЩЕСТВО С ОГРАНИЧЕННОЙ ОТВЕТСТВЕННОСТЬЮ ""ИНФО""",ООО ИНФО,6318126983,"443069, Самарская обл., г. Самара, ул. Дзержинского, д. 6 этаж 2 ком. 3", 53.195314, 50.174929,55.10,Деятельность гостиниц и прочих мест для временного проживания,https://spark-interfax.ru/samarskaya-oblast-samara/ooo-info-inn-6318126983-ogrn-1026301506131-f8d6d36b95aa433d99491aa36b0dd045
"ОБЩЕСТВО С ОГРАНИЧЕННОЙ ОТВЕТСТВЕННОСТЬЮ ""ТРАНССТРОЙИНВЕСТ 2000""",ООО ТРАНССТРОЙИНВЕСТ 2000,7715231070,"443011, Самарская обл., г. Самара, ул. Ново-Садовая, д. 162В", 53.231331, 50.178638,68.20,Аренда и управление собственным или арендованным недвижимым имуществом,https://spark-interfax.ru/samarskaya-oblast-samara/ooo-transstroiinvest-inn-7715231070-ogrn-1027739791232-d211e460d3f74ad1acd324b90153f9f5
"АВТОНОМНАЯ НЕКОММЕРЧЕСКАЯ ОРГАНИЗАЦИЯ ""ЭКО КУЛЬТУРА И ТЕХНОЛОГИИ""",АНО ЭКИТ,1206300004591,"443110, Самарская обл., г. Самара, проспект Ленина, д. 10 офис 1", 53.207140, 50.133119,71.12.53,Деятельность по мониторингу загрязнения окружающей среды для физических и юридических лиц,https://spark-interfax.ru/samarskaya-oblast-samara/ano-ekit-inn-6316262691-ogrn-1206300004591-9e1cd22036883ec5e053179aa8c0801a
"ОБЩЕСТВО С ОГРАНИЧЕННОЙ ОТВЕТСТВЕННОСТЬЮ ""АРТ РЕЛИЗ""",ООО АРТ РЕЛИЗ,6319178783,"443022, Самарская обл., г. Самара, проспект Кирова, д. 26 офис 34", 53.196716, 50.288143,18.12,Прочие виды полиграфической деятельности,https://spark-interfax.ru/samarskaya-oblast-samara/ooo-art-reliz-inn-6319178783-ogrn-1146319000300-266779ba3ec5435ebf87ab17d88ed7df
"АКЦИОНЕРНОЕ ОБЩЕСТВО ""МЕТАЛЛИСТ-САМАРА""",АО МЕТАЛЛИСТ-САМАРА,6318105574,"443023, Самарская обл., г. Самара, ул. Промышленности, д. 278", 53.195638, 50.223211,30.30.41,Производство автоматических космических аппаратов,https://spark-interfax.ru/samarskaya-oblast-samara/ao-metallist-samara-inn-6318105574-ogrn-1026301520035-e2c5e420db7d466a9c7bed3b7fc33601
"ОБЩЕСТВО С ОГРАНИЧЕННОЙ ОТВЕТСТВЕННОСТЬЮ ""САМАРААВТОТРАНС-2000""",ООО САТ-2000,6367006706,"443101, Самарская обл., г. Самара, пер. Утевский, д. 23", 53.127800, 50.108946,49.41,Деятельность автомобильного грузового транспорта,https://spark-interfax.ru/samarskaya-oblast-samara/ooo-sat-inn-6367006706-ogrn-1036302395755-d53bf954f453452b8bbd8e503cdd5396
"АКЦИОНЕРНОЕ ОБЩЕСТВО ""ПРОМСИНТЕЗ""",АО ПРОМСИНТЕЗ,6335007320,"446100, Самарская обл., г. Чапаевск, ул. Куйбышева, д. 1", 52.976139, 49.715140,20.51,Производство взрывчатых веществ,https://spark-interfax.ru/samarskaya-oblast-chapaevsk/ao-promsintez-inn-6335007320-ogrn-1026303178428-963a0151443b45c999f561b51cd045e6
"ОБЩЕСТВО С ОГРАНИЧЕННОЙ ОТВЕТСТВЕННОСТЬЮ ""АГРОТОРГИНВЕСТ""",ООО АГРОТОРГИНВЕСТ,6312204642,"443034, Самарская обл, г.о. Самара, вн.р-н Кировский, г Самара, ул Енисейская, д. 37, офис 9", 53.231552, 50.266473,46.21,"Торговля оптовая зерном, необработанным табаком, семенами и кормами для сельскохозяйственных животных",https://spark-interfax.ru/samarskaya-oblast-samara/ooo-agrotorginvest-inn-6312204642-ogrn-1206300054730-afb6ee9e57d32ec6e053189aa8c0d775
КРЕСТЬЯНСКО-ФЕРМЕРСКОЕ ХОЗЯЙСТВО БАЙГАНОВА С.П.,КФХ БАЙГАНОВА С.П.,6374001836,"446806, Самарская обл., Кошкинский район, с. Нижняя Быковка, ул. Молодежная", 54.105614, 50.687576,01.11.1,Выращивание зерновых культур,https://spark-interfax.ru/samarskaya-oblast-koshkinski-raion/kfkh-baiganova-s-p-inn-6374001836-ogrn-1026303769260-6906d957b78d226ae0531b9aa8c04bb6
"АССОЦИАЦИЯ СПОРТИВНЫЙ КЛУБ ""СИЛА ВЕТРА""",АССОЦИАЦИЯ СИЛА ВЕТРА,1126300002400,"445091, Самарская обл., г. Тольятти, ул. Кольцова, д. 54", 53.469257, 49.639611,93.1,Деятельность в области спорта,https://spark-interfax.ru/samarskaya-oblast-tolyatti/obedinenie-sila-vetra-inn-6324997354-ogrn-1126300002400-6906d957fdb8226ae0531b9aa8c04bb6
"АКЦИОНЕРНОЕ ОБЩЕСТВО ""ТЕХНО-ПОЛИМЕР""",АО ТЕХНО-ПОЛИМЕР,6323066867,"445007, Самарская обл., г. Тольятти, ул. Новозаводская, д. 6", 53.556199, 49.450568,29.32,Производство прочих комплектующих и принадлежностей для автотранспортных средств,https://spark-interfax.ru/samarskaya-oblast-tolyatti/ao-tekhno-polimer-inn-6323066867-ogrn-1026301981166-4a71c42df9734738be9ca05431b6211d
"ОБЩЕСТВО С ОГРАНИЧЕННОЙ ОТВЕТСТВЕННОСТЬЮ ""ВОЛЖСКИЕ ТЕРМЫ""",ООО ВОЛЖСКИЕ ТЕРМЫ,6330080414,"446205, Самарская обл., г. Новокуйбышевск, ул. Суворова, д. 2", 53.109783, 49.946732,93.19,Деятельность в области спорта прочая,https://spark-interfax.ru/samarskaya-oblast-novokuibyshevsk/ooo-volzhskie-termy-inn-6330080414-ogrn-1186313000972-62b4f177cf171b6de0531b9aa8c09b40
"СЕЛЬСКОХОЗЯЙСТВЕННЫЙ ПОТРЕБИТЕЛЬСКИЙ ПЕРЕРАБАТЫВАЮЩИЙ КООПЕРАТИВ ""ЕЛИСЕЙ""",СППК ЕЛИСЕЙ,1196313051417,"446191, Самарская обл, м.р-н Большеглушицкий, с.п. Малая Глушица, с Малая Глушица, ул Гражданская, д. 24", 52.433609, 50.219292,10.51,Производство молока (кроме сырого) и молочной продукции,https://spark-interfax.ru/samarskaya-oblast-bolsheglushitski-raion/koop-elisei-inn-6375005054-ogrn-1196313051417-8b68958ba2bd19ffe0531c9aa8c030b8
"ОБЩЕСТВО С ОГРАНИЧЕННОЙ ОТВЕТСТВЕННОСТЬЮ ""ТОЛЬЯТТИНСКИЙ МЕХАНИЧЕСКИЙ ЗАВОД""",ООО ТМЗ,6322020958,"445015, Самарская обл, г.о. Тольятти, г Тольятти, ул Никонова, зд. 1А, стр. 5, помещ. 28", 53.466012, 49.525758,29.32,Производство прочих комплектующих и принадлежностей для автотранспортных средств,https://spark-interfax.ru/samarskaya-oblast-tolyatti/ooo-tmz-inn-6322020958-ogrn-1036300993618-63065285676e407cb9a2771491d21900
"ОБЩЕСТВО С ОГРАНИЧЕННОЙ ОТВЕТСТВЕННОСТЬЮ ""МАЛАМУТ ЛЕНД""",ООО МАЛАМУТ ЛЕНД,6313561005,"443902, Самарская обл, г.о. Самара, вн.р-н Красноглинский, г Самара, кв-л 137-й Задельнинского лесничества, зд. 18", 53.198627, 50.113987,93.29.1,Деятельность парков отдыха и пляжей,https://spark-interfax.ru/samarskaya-oblast-samara/ooo-malamut-lend-inn-6313561005-ogrn-1226300020022-de784a39b3e41a58e053259aa8c0c9ec
"СЕЛЬСКОХОЗЯЙСТВЕННЫЙ ПОТРЕБИТЕЛЬСКИЙ ПЕРЕРАБАТЫВАЮЩИЙ СБЫТОВОЙ СНАБЖЕНЧЕСКИЙ ОБСЛУЖИВАЮЩИЙ КООПЕРАТИВ ""МОЛОЧНАЯ ФЕРМА БОРЗОВЫХ""",СППССОК МОЛОЧНАЯ ФЕРМА БОРЗОВЫХ,1236300019449,"446611, Самарская обл, м.р-н Нефтегорский, с.п. Дмитриевка, с Дмитриевка, ул Крестьянская, двлд. 39", 52.772522, 50.657954,01.50,Смешанное сельское хозяйство,https://spark-interfax.ru/samarskaya-oblast-neftegorski-raion/koop-molochnaya-ferma-borzovykh-inn-6377017513-ogrn-1236300019449-0092e15259d05170e063259aa8c05377
"СЕЛЬСКОХОЗЯЙСТВЕННЫЙ ПОТРЕБИТЕЛЬСКИЙ СНАБЖЕНЧЕСКО-СБЫТОВОЙ КООПЕРАТИВ ""БОРСКИЙ""",СПССК БОРСКИЙ,1196313070788,"446684, Самарская обл., Борский район, с. Подсолнечное, ул. Центральная, д. 56", 53.151238, 52.019049,10.91,"Производство готовых кормов для животных, содержащихся на фермах",https://spark-interfax.ru/samarskaya-oblast-borski-raion/koop-borski-inn-6377006889-ogrn-1196313070788-9202de90282813bee0531b9aa8c007cb
"ОБЩЕСТВО С ОГРАНИЧЕННОЙ ОТВЕТСТВЕННОСТЬЮ ""ЭДА""",ООО ЭДА,6315648533,"443030, Самарская обл., г. Самара, ул. Чкалова, д. 100П офис 407", 53.197437, 50.128245,55.20,Деятельность по предоставлению мест для краткосрочного проживания,https://spark-interfax.ru/samarskaya-oblast-samara/ooo-eda-inn-6315648533-ogrn-1136315000656-6b366afe86b348f89ebd940160839233
"ОБЩЕСТВО С ОГРАНИЧЕННОЙ ОТВЕТСТВЕННОСТЬЮ ""БАЙКОМ-СЕРВИС""",ООО БАЙКОМ-СЕРВИС,6370001962,"446972, Самарская обл., Камышлинский район, с. Русский Байтуган, ул. Южная, д. 2", 54.089060, 52.262879,01.11.1,Выращивание зерновых культур,https://spark-interfax.ru/samarskaya-oblast-kamyshlinski-raion/ooo-baikom-servis-inn-6370001962-ogrn-1036302500057-09700c5307984ca9a241033bf6711ef0
"АКЦИОНЕРНОЕ ОБЩЕСТВО ""САМАРСКИЙ ЭЛЕКТРОМЕХАНИЧЕСКИЙ ЗАВОД""",АО СЭМЗ,6317088527,"443099, Самарская обл., г. Самара, ул. Степана Разина, д. 16", 53.178279, 50.079349,27.12,Производство электрической распределительной и регулирующей аппаратуры,https://spark-interfax.ru/samarskaya-oblast-samara/ao-semz-inn-6317088527-ogrn-1116317006299-e0b01e7beaaf4ceca3b3b03f2be06791
"СЕЛЬСКОХОЗЯЙСТВЕННЫЙ ПОТРЕБИТЕЛЬСКИЙ СНАБЖЕНЧЕСКО-СБЫТОВОЙ КООПЕРАТИВ ""КИНЕЛЬ-ЧЕРКАССКИЙ ТОМАТ""",СПССК КИНЕЛЬ-ЧЕРКАССКИЙ ТОМАТ,1176313075047,"446351, Самарская обл, м.р-н Кинель-Черкасский, с.п. Кинель-Черкассы, с Кинель-Черкассы, ул Октябрьская, д. 6А", 53.468279, 51.505470,46.31,Торговля оптовая фруктами и овощами,https://spark-interfax.ru/samarskaya-oblast-kinel-cherkasski-raion/koop-kinel-cherkasski-tomat-inn-6372024450-ogrn-1176313075047-6906d95a0b1d226ae0531b9aa8c04bb6
"АВТОНОМНАЯ НЕКОММЕРЧЕСКАЯ ОРГАНИЗАЦИЯ КУЛЬТУРНОГО И ДУХОВНОГО РАЗВИТИЯ ""У-РА""",АНО КДР У-РА,1036300464595,"443010, Самарская обл., г. Самара, ул. Фрунзе, д. 145 офис 1-А", 53.192514, 50.095080,93.2,Деятельность в области отдыха и развлечений,https://spark-interfax.ru/samarskaya-oblast-samara/ano-u-ra-inn-6315909658-ogrn-1036300464595-6906d9587b97226ae0531b9aa8c04bb6
"ОБЩЕСТВО С ОГРАНИЧЕННОЙ ОТВЕТСТВЕННОСТЬЮ ""АВС ИНЖИНИРИНГ""",ООО АВС ИНЖИНИРИНГ,6319194418,"443125, Самарская обл., г. Самара, ул. Губанова, д. 20А пом. Н14", 53.251031, 50.210409,55.10,Деятельность гостиниц и прочих мест для временного проживания,https://spark-interfax.ru/samarskaya-oblast-samara/ooo-avs-inzhiniring-inn-6319194418-ogrn-1156313016012-eaa40fc3b0b24dde9df7ca577b621f31
"ОБЩЕСТВО С ОГРАНИЧЕННОЙ ОТВЕТСТВЕННОСТЬЮ ""ЭЛИТ МАСТЕР""",ООО ЭЛИТ МАСТЕР,6319175535,"443029, Самарская обл., г. Самара, ул. Шверника, д. 19А офис 59", 53.244540, 50.192946,79.90,Услуги по бронированию прочие и сопутствующая деятельность,https://spark-interfax.ru/samarskaya-oblast-samara/ooo-elit-master-inn-6319175535-ogrn-1136319009595-166ce6b94efc4c05bffac953cff944f6
"МУНИЦИПАЛЬНОЕ УНИТАРНОЕ ПРЕДПРИЯТИЕ ""ТЕПЛО""",МУП ТЕПЛО,6377011293,"446660, Самарская обл., Борский район, с. Борское, ул. Первомайская, д. 111 офис 3", 53.024849, 51.701461,35.30.3,Распределение пара и горячей воды (тепловой энергии),https://spark-interfax.ru/samarskaya-oblast-borski-raion/mup-teplo-inn-6377011293-ogrn-1096377000587-6906d9578e79226ae0531b9aa8c04bb6
"ОБЩЕСТВО С ОГРАНИЧЕННОЙ ОТВЕТСТВЕННОСТЬЮ ""ТВИНСКРИН""",ООО ТВИНСКРИН,6314048967,"386150, Ингушетия Респ, м.р-н Назрановский, с.п. Экажево, с Экажево, ул Ингушская, д. 88", 43.214006, 44.820035,73.11,Деятельность рекламных агентств,https://spark-interfax.ru/ingushetiya-respublika-nazranovski-raion/ooo-tvinskrin-inn-6314048967-ogrn-1226300027821-e2ded158872068d5e053259aa8c0cecf
"МУНИЦИПАЛЬНОЕ УНИТАРНОЕ ПРЕДПРИЯТИЕ МУНИЦИПАЛЬНОГО РАЙОНА ЕЛХОВСКИЙ САМАРСКОЙ ОБЛАСТИ ""ЖИЛКОМХОЗ""",МУП ЖИЛКОМХОЗ,6376020626,"446870, Самарская обл., Елховский район, с. Елховка, ул. Матвея Заводского, зд. 41", 53.872896, 50.279770,36.00.1,Забор и очистка воды для питьевых и промышленных нужд,https://spark-interfax.ru/samarskaya-oblast-elkhovski-raion/mup-zhilkomkhoz-inn-6376020626-ogrn-1106376002182-6906d95928f3226ae0531b9aa8c04bb6
"ОБЩЕСТВО С ОГРАНИЧЕННОЙ ОТВЕТСТВЕННОСТЬЮ ""БОЛЬШЕЧЕРНИГОВСКИЙ КОМБИКОРМОВЫЙ ЗАВОД""",ООО БОЛЬШЕЧЕРНИГОВСКИЙ КОМБИКОРМОВЫЙ ЗАВОД,6365000297,"446281, Самарская обл., Большечерниговский район, с. Августовка, ул. Заводская, д. 9", 52.260053, 50.742829,10.9,Производство готовых кормов для животных,https://spark-interfax.ru/samarskaya-oblast-bolshechernigovski-raion/ooo-bolshechernigovski-kombikormovy-zavod-inn-6365000297-ogrn-1036302280013-607283f0a7264fa2b03446465a5a8c83
"ОБЩЕСТВО С ОГРАНИЧЕННОЙ ОТВЕТСТВЕННОСТЬЮ СЕЛЬСКОХОЗЯЙСТВЕННОЕ ПРЕДПРИЯТИЕ ""ЛУКА САМАРСКАЯ""",ООО СХП ЛУКА САМАРСКАЯ,6382055899,"445166, Самарская обл., Ставропольский район, с. Севрюкаево, ул. Ленина, д. 33А", 53.175501, 49.500916,01.11,"Выращивание зерновых (кроме риса), зернобобовых культур и семян масличных культур",https://spark-interfax.ru/samarskaya-oblast-stavropolski-raion/ooo-luka-samarskaya-inn-6382055899-ogrn-1086382003014-7736bf5a3abe475883364774fcb0279a
"МУНИЦИПАЛЬНОЕ КАЗЕННОЕ УЧРЕЖДЕНИЕ ""УПРАВЛЕНИЕ СЕЛЬСКОГО ХОЗЯЙСТВА"" МУНИЦИПАЛЬНОГО РАЙОНА СЕРГИЕВСКИЙ САМАРСКОЙ ОБЛАСТИ",МКУ УСХ М.Р. СЕРГИЕВСКИЙ,1176313023402,"446540, Самарская обл, м.р-н Сергиевский, с.п. Сергиевск, с Сергиевск, ул Гагарина, зд. 2А", 53.940962, 51.180060,84.11.31,Деятельность органов местного самоуправления сельских поселений,https://spark-interfax.ru/samarskaya-oblast-sergievski-raion/mku-uskh-m-r-sergievski-inn-6381019993-ogrn-1176313023402-6906d959f7cf226ae0531b9aa8c04bb6
"АВТОНОМНАЯ НЕКОММЕРЧЕСКАЯ ОРГАНИЗАЦИЯ ""ЦЕНТР ПОИСКА ПРОПАВШИХ ЛЮДЕЙ САМАРСКОЙ ОБЛАСТИ""",АНО ЦЕНТР ПОИСКА ПРОПАВШИХ ЛЮДЕЙ САМАРСКОЙ ОБЛАСТИ,1186313020882,"443066, Самарская обл., г. Самара, ул. Запорожская, д. 26 ком. 516", 53.208533, 50.220095,88.99,"Предоставление прочих социальных услуг без обеспечения проживания, не включенных в другие группировки",https://spark-interfax.ru/samarskaya-oblast-samara/ano-tsentr-poiska-propavshikh-lyudei-samarskoi-oblasti-inn-6318033665-ogrn-1186313020882-6906d95a21d9226ae0531b9aa8c04bb6
"ОБЩЕСТВО С ОГРАНИЧЕННОЙ ОТВЕТСТВЕННОСТЬЮ ""АГРОС""",ООО АГРОС,6376029202,"443052, Самарская обл, г.о. Самара, вн.р-н Советский, г Самара, ул Калинина, д. 1, ком. 5", 53.211188, 50.260337,01.11,"Выращивание зерновых (кроме риса), зернобобовых культур и семян масличных культур",https://spark-interfax.ru/samarskaya-oblast-samara/ooo-agros-inn-6376029202-ogrn-1206300026316-a429cbef2a7466d9e053189aa8c06f13
"ОБЩЕСТВО С ОГРАНИЧЕННОЙ ОТВЕТСТВЕННОСТЬЮ "" КАМЕШКИРСКИЙ КОМБИКОРМОВЫЙ ЗАВОД""",ООО КАМЕШКИРСКИЙ КОМБИКОРМОВЫЙ ЗАВОД,5816000357,"442450, Пензенская обл., Камешкирский район, с. Русский Камешкир, ул. Автодорожная, зд. 21", 52.861433, 46.106448,01.11.1,Выращивание зерновых культур,https://spark-interfax.ru/penzenskaya-oblast-kameshkirski-raion/ooo-kameshkirski-kombikormovy-zavod-inn-5816000357-ogrn-1025801088642-e138fad34ade4e379438c67afed0b262
"КРЕСТЬЯНСКОЕ ХОЗЯЙСТВО ""ГРОМОВСКОЕ""",КХ ГРОМОВСКОЕ,1035800801816,"442040, Пензенская обл., Башмаковский район, с. Соседка, ул. Станционная, д. 33", 53.228680, 42.665722,01.11.1,Выращивание зерновых культур,https://spark-interfax.ru/penzenskaya-oblast-bashmakovski-raion/kfkh-gromovskoe-inn-5806000809-ogrn-1035800801816-6906d9917c13226ae0531b9aa8c04bb6
"ОБЩЕСТВО С ОГРАНИЧЕННОЙ ОТВЕТСТВЕННОСТЬЮ ""ТРАСТАГРО-НИВА 1""",ООО ТРАСТАГРО-НИВА 1,5836693131,"440000, Пензенская обл., г. Пенза, ул. Революционная, зд. 71 этаж / пом. 2/3", 53.192786, 45.006763,01.11,"Выращивание зерновых (кроме риса), зернобобовых культур и семян масличных культур",https://spark-interfax.ru/penzenskaya-oblast-penza/ooo-trastagro-niva-inn-5836693131-ogrn-1205800003155-a169b77e17cf262fe053189aa8c073b4
"ОБЩЕСТВО С ОГРАНИЧЕННОЙ ОТВЕТСТВЕННОСТЬЮ ""АГРО58""",ООО АГРО58,5833006704,"442436, Пензенская обл., Шемышейский район, с. Колдаис, ул. Советская, д. 1", 53.077763, 45.545322,01.11.1,Выращивание зерновых культур,https://spark-interfax.ru/penzenskaya-oblast-shemysheiski-raion/ooo-agro-inn-5833006704-ogrn-1175835007292-6f300533997b427883783d83877f5e9f
"ОБЩЕСТВО С ОГРАНИЧЕННОЙ ОТВЕТСТВЕННОСТЬЮ ""ПЕНЗОВОЩПРОМ""",ООО ПЕНЗОВОЩПРОМ,5820004428,"442550, Пензенская обл., Лопатинский район, с. Лопатино, ул. Юбилейная, д. 43", 52.615832, 45.809135,01.13.1,Выращивание овощей,https://spark-interfax.ru/penzenskaya-oblast-lopatinski-raion/ooo-penzovoshchprom-inn-5820004428-ogrn-1115803000202-26df529c811b401690a380d8e5db099c
"ОБЩЕСТВО С ОГРАНИЧЕННОЙ ОТВЕТСТВЕННОСТЬЮ ""РЕУХ""",ООО РЕУХ,5803007556,"442539, Пензенская обл., г. Кузнецк, ул. Белинского, д. 2-А", 53.121207, 46.548130,99999,99999,https://spark-interfax.ru/penzenskaya-oblast-kuznetsk/ooo-reukh-inn-5803007556-ogrn-1025800549103-6178899212937e1ce0531b9aa8c027ab
"ОБЩЕСТВО С ОГРАНИЧЕННОЙ ОТВЕТСТВЕННОСТЬЮ ""ПОБЕДА""",ООО ПОБЕДА,5831012220,"442571, Пензенская обл, м.р-н Сосновоборский, г.п. рабочий поселок Сосновоборск, рп Сосновоборск, ул Калинина, д. 216, помещ. 216", 53.303635, 46.246942,01.11,"Выращивание зерновых (кроме риса), зернобобовых культур и семян масличных культур",https://spark-interfax.ru/penzenskaya-oblast-sosnovoborski-raion/ooo-pobeda-inn-5831012220-ogrn-1185835013396-75f5804348652d5fe0531b9aa8c06ccd
"ОБЩЕСТВО С ОГРАНИЧЕННОЙ ОТВЕТСТВЕННОСТЬЮ ""ВАНЮШКИНЫ СЛАДОСТИ""",ООО ВАНСЛАД,5829901197,"440513, Пензенская обл., Пензенский район, с. Засечное, ул. Механизаторов, д. 23", 53.108936, 45.066478,10.72,"Производство сухарей, печенья и прочих сухарных хлебобулочных изделий, производство мучных кондитерских изделий, тортов, пирожных, пирогов и бисквитов, предназначенных для длительного хранения",https://spark-interfax.ru/penzenskaya-oblast-penzenski-raion/ooo-vanslad-inn-5829901197-ogrn-1125809000437-5c0d14f3b1774a6aa6b91d1ab9f70c67
"ОБЩЕСТВО С ОГРАНИЧЕННОЙ ОТВЕТСТВЕННОСТЬЮ ""ТРАСТАГРО-НИВА 2""",ООО ТРАСТАГРО-НИВА 2,5836693117,"440000, Пензенская обл., г. Пенза, ул. Революционная, зд. 71 этаж / пом. 2/4", 53.192786, 45.006763,01.11,"Выращивание зерновых (кроме риса), зернобобовых культур и семян масличных культур",https://spark-interfax.ru/penzenskaya-oblast-penza/ooo-trastagro-niva-inn-5836693117-ogrn-1205800003133-a169b77e17cd262fe053189aa8c073b4
"СЕЛЬСКОХОЗЯЙСТВЕННЫЙ ПОТРЕБИТЕЛЬСКИЙ ПЕРЕРАБАТЫВАЮЩИЙ КООПЕРАТИВ ""ЗНАМЯ""",СППКЗНАМЯ,1195835007411,"442060, Пензенская обл., Башмаковский район, с. Кандиевка, ул. Школьная, д. 46", 53.198577, 42.895938,10.51,Производство молока (кроме сырого) и молочной продукции,https://spark-interfax.ru/penzenskaya-oblast-bashmakovski-raion/koop-znamya-inn-5806000407-ogrn-1195835007411-85e8eb0a625a1dd3e0531b9aa8c0bed0
"ОБЩЕСТВО С ОГРАНИЧЕННОЙ ОТВЕТСТВЕННОСТЬЮ ""ИСКРА-АГРО""",ООО ИСКРА-АГРО,5831012117,"442585, Пензенская обл., Сосновоборский район, с. Индерка, ул. Нагорная, д. 44А", 53.248728, 46.271423,01.50,Смешанное сельское хозяйство,https://spark-interfax.ru/penzenskaya-oblast-sosnovoborski-raion/ooo-iskra-agro-inn-5831012117-ogrn-1165835050578-563e15264a6143938a4721c0e2dfc18d
"ПЕРВИЧНАЯ ПРОФСОЮЗНАЯ ОРГАНИЗАЦИЯ ОБЩЕСТВА С ОГРАНИЧЕННОЙ ОТВЕТСТВЕННОСТЬЮ ""ЛУГОВОЕ""",ПЕРВИЧНАЯ ПРОФСОЮЗНАЯ ОРГАНИЗАЦИЯ ОБЩЕСТВА С ОГРАНИЧЕННОЙ ОТВЕТСТВЕННОСТЬЮ ЛУГОВОЕ,1025800006495,"Пензенская обл., пгт. Мокшан, ул. Строителей, д. 3", 53.435632, 44.600215,99999,99999,https://spark-interfax.ru/penzenskaya-oblast-mokshanski-raion/ppo-lugovoe-inn-5823005966-ogrn-1025800006495-6906d9918371226ae0531b9aa8c04bb6
"ТОВАРИЩЕСТВО НА ВЕРЕ ""ВИРГА""",ТНВ ВИРГА,5827008397,"442146, Пензенская обл., Нижнеломовский район, с. Вирга, ул. Центральная", 53.453752, 44.028466,01.41,"Разведение молочного крупного рогатого скота, производство сырого молока",https://spark-interfax.ru/penzenskaya-oblast-nizhnelomovski-raion/tv-virga-inn-5827008397-ogrn-1025800974627-2eaa2aac9a604a4c9cea8c362ee09b01
АДМИНИСТРАЦИЯ СЕЛЬСКОГО ПОСЕЛЕНИЯ ГОЛИЦЫНСКИЙ СЕЛЬСОВЕТ МУНИЦИПАЛЬНОГО РАЙОНА НИЖНЕЛОМОВСКИЙ РАЙОН ПЕНЗЕНСКОЙ ОБЛАСТИ,АДМИНИСТРАЦИЯ ГОЛИЦЫНСКОГО СЕЛЬСОВЕТА НИЖНЕЛОМОВСКОГО РАЙОНА ПЕНЗЕНСКОЙ ОБЛАСТИ,1115827001124,"442144, Пензенская обл., Нижнеломовский район, с. Голицыно, ул. Московская, д. 2А", 53.625857, 44.128960,84.11.35,Деятельность органов местного самоуправления городских округов,https://spark-interfax.ru/penzenskaya-oblast-nizhnelomovski-raion/mku-administratsiya-golitsynskogo-selsoveta-nizhnelomovskogo-raiona-penzenskoi-oblasti-inn-5827901145-ogrn-1115827001124-6906d991b577226ae0531b9aa8c04bb6
"ОБЩЕСТВО С ОГРАНИЧЕННОЙ ОТВЕТСТВЕННОСТЬЮ ""ОРГАНИК""",ООО ОРГАНИК,5803032175,"442440, Пензенская обл, м.р-н Шемышейский, с.п. Руссконоркинский сельсовет, с Русская Норка, ул Колхозная, зд. 23", 52.804368, 45.376123,01.41,"Разведение молочного крупного рогатого скота, производство сырого молока",https://spark-interfax.ru/penzenskaya-oblast-shemysheiski-raion/ooo-organik-inn-5803032175-ogrn-1225800004528-e1c52f85e8316872e053259aa8c0766c
"ОБЩЕСТВО С ОГРАНИЧЕННОЙ ОТВЕТСТВЕННОСТЬЮ ""АПК-РОДИНА""",ООО АПК-РОДИНА,5813004723,"442009, Пензенская обл., Земетчинский район, с. Оторма, ул. Новая, д. 20", 53.536041, 42.497772,01.5,Смешанное сельское хозяйство,https://spark-interfax.ru/penzenskaya-oblast-zemetchinski-raion/ooo-apk-rodina-inn-5813004723-ogrn-1085827000522-ae8f1e0397d34a87a631bbe22edf31b6
"КРЕСТЬЯНСКОЕ ( ФЕРМЕРСКОЕ ) ХОЗЯЙСТВО "" НИВА """,КХ НИВА,1025800974430,"442144, Пензенская обл., Нижнеломовский район, с. Голицыно, ул. Пролетарская, д. 4", 53.631992, 44.117650,01.1,Выращивание однолетних культур,https://spark-interfax.ru/penzenskaya-oblast-nizhnelomovski-raion/niva-inn-5827006449-ogrn-1025800974430-61788992118d7e1ce0531b9aa8c027ab
"ОБЩЕСТВО С ОГРАНИЧЕННОЙ ОТВЕТСТВЕННОСТЬЮ АГРОФИРМА ""РАССВЕТ""",ООО АГРОФИРМА РАССВЕТ,5810006056,"442254, Пензенская обл., Белинский район, с. Камынино, ул. Центральная, д. 46", 52.930720, 43.438418,01.11,"Выращивание зерновых (кроме риса), зернобобовых культур и семян масличных культур",https://spark-interfax.ru/penzenskaya-oblast-belinski-raion/ooo-rassvet-inn-5810006056-ogrn-1055801800075-030b19e6361b40d290d7a67e470d30b5
"ОБЩЕСТВО С ОГРАНИЧЕННОЙ ОТВЕТСТВЕННОСТЬЮ ""ПРЕОБРАЖЕНИЕ""",ООО ПРЕОБРАЖЕНИЕ,5806003648,"442082, Пензенская обл., Башмаковский район, с. Марат, ул. Мира, д. 13", 53.088654, 42.956636,01.11,"Выращивание зерновых (кроме риса), зернобобовых культур и семян масличных культур",https://spark-interfax.ru/penzenskaya-oblast-bashmakovski-raion/ooo-preobrazhenie-inn-5806003648-ogrn-1025800641833-4dcf647500dd47d8a206f0e94cc4472d
"ОБЩЕСТВО С ОГРАНИЧЕННОЙ ОТВЕТСТВЕННОСТЬЮ ""СТРОЙАГРОГРУПП""",ООО СТРОЙАГРОГРУПП,5836688942,"440052, Пензенская обл, г.о. город Пенза, г Пенза, ул Тамбовская, двлд. 35Б", 53.173634, 45.005908,01.11,"Выращивание зерновых (кроме риса), зернобобовых культур и семян масличных культур",https://spark-interfax.ru/penzenskaya-oblast-penza/ooo-stroiagrogrupp-inn-5836688942-ogrn-1195835000184-7fdbf1197856126de0531b9aa8c0362b
КРЕСТЬЯНСКОЕ ( ФЕРМЕРСКОЕ) ХОЗЯЙСТВО УСТИМЕНКОВА ВЛАДИМИРА СТЕПАНОВИЧА,КРЕСТЬЯНСКОЕ ( ФЕРМЕРСКОЕ) ХОЗЯЙСТВО УСТИМЕНКОВА ВЛАДИМИРА СТЕПАНОВИЧА,1025800508700,"442233, Пензенская обл., Каменский район, с. Казанская Арчада, ул. Садовая, д. 23", 53.017751, 44.232087,01.11.1,Выращивание зерновых культур,https://spark-interfax.ru/penzenskaya-oblast-kamenski-raion/krestyanskoe-fermerskoe-khozyaistvo-ustimenkova-vladimira-stepanovicha-inn-5815000410-ogrn-1025800508700-61788992062a7e1ce0531b9aa8c027ab
"АКЦИОНЕРНОЕ ОБЩЕСТВО ""ВАСИЛЬЕВСКАЯ ПТИЦЕФАБРИКА""",АО ВАСИЛЬЕВСКАЯ ПТИЦЕФАБРИКА,5809022198,"442762, Пензенская обл., Бессоновский район, д. Васильевка, ул. Центральная, д. 70", 53.280236, 45.285565,01.47,Разведение сельскохозяйственной птицы,https://spark-interfax.ru/penzenskaya-oblast-bessonovski-raion/ao-vasilevskaya-ptitsefabrika-inn-5809022198-ogrn-1025800678771-e78541cada6443c68b573c55d057e028
"ОБЩЕСТВО С ОГРАНИЧЕННОЙ ОТВЕТСТВЕННОСТЬЮ ""АНДРОС+""",ООО АНДРОС+,5805014076,"442894, Пензенская обл., Сердобский район, г. Сердобск, ул. Ленина, д. ЗД 234Г", 52.464401, 44.253677,86.22,Специальная врачебная практика,https://spark-interfax.ru/penzenskaya-oblast-serdobski-raion/ooo-andros-inn-5805014076-ogrn-1195835018708-9a427c991fb60530e053179aa8c0ad54
"ОБЩЕСТВО С ОГРАНИЧЕННОЙ ОТВЕТСТВЕННОСТЬЮ ""АЛТЕРРА""",ООО АЛТЕРРА,5817004481,"442833, Пензенская обл., Колышлейский район, д. Пановка, ул. Чапаева, д. 14", 52.687759, 44.339503,01.11.1,Выращивание зерновых культур,https://spark-interfax.ru/penzenskaya-oblast-kolyshleiski-raion/ooo-alterra-inn-5817004481-ogrn-1065805000051-b3d5cc1fc0fd412b9a04485038b9e314
"АКЦИОНЕРНОЕ ОБЩЕСТВО ""ПТИЦЕФАБРИКА""КОЛЫШЛЕЙСКАЯ""",АО ПФК,5817004347,"442830, Пензенская обл., Колышлейский район, рабочий пос. Колышлей, ул. Титова, д. 5", 52.708706, 44.540945,01.47,Разведение сельскохозяйственной птицы,https://spark-interfax.ru/penzenskaya-oblast-kolyshleiski-raion/ao-pfk-inn-5817004347-ogrn-1055801200718-625e8a574e7d48108e5dee298459b641
"ОБЩЕСТВО С ОГРАНИЧЕННОЙ ОТВЕТСТВЕННОСТЬЮ ""РОСТОК""",ООО РОСТОК,5817005340,"442830, Пензенская обл., Колышлейский район, д. Названовка, ул. Пензенская, д. 16 к. 0 офис 0", 52.665654, 44.500690,01.5,Смешанное сельское хозяйство,https://spark-interfax.ru/penzenskaya-oblast-kolyshleiski-raion/ooo-rostok-inn-5817005340-ogrn-1095805000268-c25879ef118842e09cc6a71a43586ff0
"КРЕСТЬЯНСКОЕ ХОЗЯЙСТВО "" ЕРМОЛАЕВА Н.Е. """,КХ ЕРМОЛАЕВА Н.Е.,5827005318,"442151, Пензенская обл, м.р-н Нижнеломовский, г.п. город Нижний Ломов, г Нижний Ломов, ул Дачная, д. 15Б", 53.504842, 43.668646,01.11,"Выращивание зерновых (кроме риса), зернобобовых культур и семян масличных культур",https://spark-interfax.ru/penzenskaya-oblast-nizhnelomovski-raion/kfkh-ermolaeva-n-e-inn-5827005318-ogrn-1025800977300-6906d9917b9e226ae0531b9aa8c04bb6
"АКЦИОНЕРНОЕ ОБЩЕСТВО ""АГРОСЕРВИС""",АО АГРОСЕРВИС,5820000046,"442550, Пензенская обл., Лопатинский район, с. Лопатино, ул. Юбилейная, д. 43", 52.615832, 45.809135,01.50,Смешанное сельское хозяйство,https://spark-interfax.ru/penzenskaya-oblast-lopatinski-raion/ao-agroservis-inn-5820000046-ogrn-1025801086926-e46a24f3cb7b45e9988f2507bd5f9cf5
"АКЦИОНЕРНОЕ ОБЩЕСТВО ""ЗЕМЕТЧИНСКИЙ САХАРНЫЙ ЗАВОД""",АО ЗЕМЕТЧИНСКИЙ САХАРНЫЙ ЗАВОД,5813003663,"442000, Пензенская обл., Земетчинский район, рабочий пос. Земетчино, проезд Заводской, д. 1", 53.491519, 42.590720,10.81,Производство сахара,https://spark-interfax.ru/penzenskaya-oblast-zemetchinski-raion/ao-zemetchinski-sakharny-zavod-inn-5813003663-ogrn-1025800765011-c10e83365b9141a4b2933f97888585f9
"СЕЛЬСКОХОЗЯЙСТВЕННЫЙ ПЕРЕРАБАТЫВАЮЩЕ-СБЫТОВОЙ ПОТРЕБИТЕЛЬСКИЙ КООПЕРАТИВ ""УДАЧА""",СПСПК УДАЧА,5805010650,"442873, Пензенская обл., Сердобский район, с. Кирово, ул. Новая, д. 8", 52.787270, 44.002266,01.11.1,Выращивание зерновых культур,https://spark-interfax.ru/penzenskaya-oblast-serdobski-raion/pk-udacha-inn-5805010650-ogrn-1095805002116-6906d991a662226ae0531b9aa8c04bb6
"ФЕДЕРАЛЬНОЕ ГОСУДАРСТВЕННОЕ БЮДЖЕТНОЕ УЧРЕЖДЕНИЕ ""СУДЕБНО-ЭКСПЕРТНОЕ УЧРЕЖДЕНИЕ ФЕДЕРАЛЬНОЙ ПРОТИВОПОЖАРНОЙ СЛУЖБЫ ""ИСПЫТАТЕЛЬНАЯ ПОЖАРНАЯ ЛАБОРАТОРИЯ"" ПО ПЕНЗЕНСКОЙ ОБЛАСТИ""",ФГБУ СЭУ ФПС ИПЛ ПО ПЕНЗЕНСКОЙ ОБЛАСТИ,1065834023474,"440014, Пензенская обл., г. Пенза, ул. Ботаническая, стр. 17А", 53.166901, 45.102620,84.25.1,Деятельность по обеспечению пожарной безопасности,https://spark-interfax.ru/penzenskaya-oblast-penza/fgbu-fgbu-seu-fps-ipl-po-penzenskoi-oblasti-inn-5834034550-ogrn-1065834023474-6906d9919185226ae0531b9aa8c04bb6
НОВОСАМАРСКОЕ ХУТОРСКОЕ КАЗАЧЬЕ ОБЩЕСТВО,НХКО,1036301405370,"446208, Самарская обл., г. Новокуйбышевск, ул. Миронова, д. 31А офис 67", 53.084438, 49.953258,84.24,Деятельность по обеспечению общественного порядка и безопасности,https://spark-interfax.ru/samarskaya-oblast-novokuibyshevsk/kaz-ob-vo-nkhko-inn-6330016017-ogrn-1036301405370-6906d958aa1e226ae0531b9aa8c04bb6
"ОБЩЕСТВО С ОГРАНИЧЕННОЙ ОТВЕТСТВЕННОСТЬЮ ""ШИГОНСКИЙ АГРОПРОМЫШЛЕННЫЙ ЖИВОТНОВОДЧЕСКИЙ КОМПЛЕКС ""ЧИСТЫЙ ПРОДУКТ""",ООО ШАЖК ЧИСТЫЙ ПРОДУКТ,6325997100,"446700, Самарская обл., Шигонский район, пос. Береговой, ул. Садовая, д. 1А офис 1", 53.589921, 48.493642,01.42,"Разведение прочих пород крупного рогатого скота и буйволов, производство спермы",https://spark-interfax.ru/samarskaya-oblast-shigonski-raion/ooo-shazhk-chisty-produkt-inn-6325997100-ogrn-1116325001341-3910f42415e94503bf0512ac5286e958
"ОБЩЕСТВО С ОГРАНИЧЕННОЙ ОТВЕТСТВЕННОСТЬЮ ""КРУПНАЯ КОМПАНИЯ""",ООО КРУПНАЯ КОМПАНИЯ,6318038303,"443022, Самарская обл, г.о. Самара, вн.р-н Советский, г Самара, ш Заводское, д. 9, офис 5", 53.197910, 50.260631,10.61,Производство продуктов мукомольной и крупяной промышленности,https://spark-interfax.ru/samarskaya-oblast-samara/ooo-krupnaya-kompaniya-inn-6318038303-ogrn-1186313076938-7568ac6b68777649e0531b9aa8c0d387
"ОБЩЕСТВО С ОГРАНИЧЕННОЙ ОТВЕТСТВЕННОСТЬЮ ""ДЕМЕТРА""",ООО ДЕМЕТРА,6377016100,"446652, Самарская обл., Алексеевский район, с. Калашиновка, ул. Ленинская, д. 36", 52.473670, 51.086301,01.11.1,Выращивание зерновых культур,https://spark-interfax.ru/samarskaya-oblast-alekseevski-raion/ooo-demetra-inn-6377016100-ogrn-1136377000088-8d279debfdb74c80af3c31d2a181db27
"ОБЩЕСТВО С ОГРАНИЧЕННОЙ ОТВЕТСТВЕННОСТЬЮ ""АВАНГАРД""",ООО АВАНГАРД,6377010902,"446643, Самарская обл., Алексеевский район, пос. Авангард, ул. Придорожная, д. 11", 52.617347, 51.278201,01.1,Выращивание однолетних культур,https://spark-interfax.ru/samarskaya-oblast-alekseevski-raion/ooo-avangard-inn-6377010902-ogrn-1096377000191-6f544e99ad7549ae8b77d5574045a881
"МУНИЦИПАЛЬНОЕ КАЗЁННОЕ УЧРЕЖДЕНИЕ МУНИЦИПАЛЬНОГО РАЙОНА БЕЗЕНЧУКСКИЙ САМАРСКОЙ ОБЛАСТИ ""УПРАВЛЕНИЕ СЕЛЬСКОГО ХОЗЯЙСТВА""",МКУ УСХ,1096362000437,"446250, Самарская обл., Безенчукский район, пгт. Безенчук, ул. Советская, д. 54", 52.984494, 49.435990,84.11.3,Деятельность органов местного самоуправления по управлению вопросами общего характера,https://spark-interfax.ru/samarskaya-oblast-bezenchukski-raion/mku-uskh-inn-6362015182-ogrn-1096362000437-6906d958fa5a226ae0531b9aa8c04bb6
АДМИНИСТРАЦИЯ СЕЛЬСКОГО ПОСЕЛЕНИЯ КУПИНО МУНИЦИПАЛЬНОГО РАЙОНА БЕЗЕНЧУКСКИЙ САМАРСКОЙ ОБЛАСТИ,АДМИНИСТРАЦИЯ СЕЛЬСКОГО ПОСЕЛЕНИЯ КУПИНО,1056362024817,"446247, Самарская обл., Безенчукский район, с. Купино, ул. Купинская, зд. 10", 52.992826, 49.564075,84.11.35,Деятельность органов местного самоуправления городских округов,https://spark-interfax.ru/samarskaya-oblast-bezenchukski-raion/mku-administratsiya-selskogo-poseleniya-kupino-inn-6362012505-ogrn-1056362024817-6906d9589dc1226ae0531b9aa8c04bb6
"СЕЛЬСКОХОЗЯЙСТВЕННЫЙ ПОТРЕБИТЕЛЬСКИЙ СНАБЖЕНЧЕСКО-СБЫТОВОЙ КООПЕРАТИВ ""ИМКЕТ""",СПССК ИМКЕТ,1056362010650,"445590, Самарская обл., Хворостянский район, с. Хворостянка, ул. Степная, д. 1", 52.597237, 48.960671,46.61,"Торговля оптовая машинами, оборудованием и инструментами для сельского хозяйства",https://spark-interfax.ru/samarskaya-oblast-khvorostyanski-raion/koop-imket-inn-6362011621-ogrn-1056362010650-6906d95893ec226ae0531b9aa8c04bb6
"АВТОНОМНАЯ НЕКОММЕРЧЕСКАЯ ОБЩЕОБРАЗОВАТЕЛЬНАЯ ОРГАНИЗАЦИЯ ""КОМПЛЕКСНЫЙ ОБЩЕОБРАЗОВАТЕЛЬНЫЙ ЦЕНТР ДЛЯ ДЕТЕЙ С НАРУШЕНИЯМИ РАЗВИТИЯ ""СОЛНЕЧНЫЙ КРУГ""""",АНОО СОЛНЕЧНЫЙ КРУГ,1146300000571,"445040, Самарская обл., г. Тольятти, бульвар Туполева, зд. 6", 53.524345, 49.300627,85.11,Образование дошкольное,https://spark-interfax.ru/samarskaya-oblast-tolyatti/ano-solnechny-krug-inn-6382997402-ogrn-1146300000571-6906d95998a2226ae0531b9aa8c04bb6
"АКЦИОНЕРНОЕ ОБЩЕСТВО ""АВТОВАЗ""",АО АВТОВАЗ,6320002223,"445024, Самарская обл., г. Тольятти, шоссе Южное, д. 36", 53.555751, 49.264824,29.10.2,Производство легковых автомобилей,https://spark-interfax.ru/samarskaya-oblast-tolyatti/ao-avtovaz-inn-6320002223-ogrn-1026301983113-5702c408623649dab13311d9a8f6cb52
"ОБЩЕСТВО С ОГРАНИЧЕННОЙ ОТВЕТСТВЕННОСТЬЮ ""ДУСЛЫК"" И К",ООО ДУСЛЫК И К,6357981092,"446474, Самарская обл., Похвистневский район, с. Новое Мансуркино, ул. Ленина, д. 91А", 53.881432, 51.852955,01.11,"Выращивание зерновых (кроме риса), зернобобовых культур и семян масличных культур",https://spark-interfax.ru/samarskaya-oblast-pokhvistnevski-raion/ooo-duslyk-i-k-inn-6357981092-ogrn-1096357000255-75de0e2796794fd5ae95b63b0e6557a3
"ОБЩЕСТВО С ОГРАНИЧЕННОЙ ОТВЕТСТВЕННОСТЬЮ ""ОВОЩЕВОД""",ООО ОВОЩЕВОД,6314036390,"443047, Самарская обл., г. Самара, ул. Ровная, д. 58 ком. 3", 53.138263, 50.101416,01.13.1,Выращивание овощей,https://spark-interfax.ru/samarskaya-oblast-samara/ooo-ovoshchevod-inn-6314036390-ogrn-1126317002206-28dfe42640c7485c96644231ecb12156
"КРЕСТЬЯНСКОЕ (ФЕРМЕРСКОЕ) ХОЗЯЙСТВО ""АВДОЯН РУСЛАН АРМЕНОВИЧ""",КФХ АВДОЯН Р.А.,1226300011596,"446070, Самарская обл, м.р-н Сызранский, с.п. Заборовка, с Заборовка, ул Октябрьская, д. 73", 53.220642, 48.248080,01.42.1,"Разведение мясного и прочего крупного рогатого скота, включая буйволов, яков и др.",https://spark-interfax.ru/samarskaya-oblast-syzranski-raion/kfkh-avdoyan-r-a-inn-6325077670-ogrn-1226300011596-da9e8c7a711253a5e053259aa8c0d7ff
"ОБЩЕСТВО С ОГРАНИЧЕННОЙ ОТВЕТСТВЕННОСТЬЮ ""АГРОПОРТ""",ООО АГРОПОРТ,6319239066,"443067, Самарская обл, г.о. Самара, вн.р-н Советский, г Самара, ул Карбышева, д. 61В, офис 503", 53.207242, 50.203444,46.33.3,Торговля оптовая пищевыми маслами и жирами,https://spark-interfax.ru/samarskaya-oblast-samara/ooo-agroport-inn-6319239066-ogrn-1196313036974-87028cd51d3e1c27e0531b9aa8c070af
"ОБЩЕСТВО С ОГРАНИЧЕННОЙ ОТВЕТСТВЕННОСТЬЮ ""РУССКАЯ ТРОЙКА""",ООО РУССКАЯ ТРОЙКА,6340005984,"446304, Самарская обл., г. Отрадный, ул. Ленина, д. 22", 53.369421, 51.346438,47.29,Торговля розничная прочими пищевыми продуктами в специализированных магазинах,https://spark-interfax.ru/samarskaya-oblast-otradny/ooo-russkaya-troika-inn-6340005984-ogrn-1036301620156-811b35cd2426425d80b6eb20e5f49aff
"ОБЩЕСТВО С ОГРАНИЧЕННОЙ ОТВЕТСТВЕННОСТЬЮ ""КОНДРА""",ООО КОНДРА,6330082965,"443526, Самарская обл., Волжский район, пос. Просвет, пер. Зеленый, зд. 3 офис 1", 53.014152, 50.484322,01.11,"Выращивание зерновых (кроме риса), зернобобовых культур и семян масличных культур",https://spark-interfax.ru/samarskaya-oblast-volzhski-raion/ooo-kondra-inn-6330082965-ogrn-1186313065278-721bc6dbb1630d97e0531b9aa8c0c1d3
"ОБЩЕСТВО С ОГРАНИЧЕННОЙ ОТВЕТСТВЕННОСТЬЮ ""МЕДИЦИНСКИЙ ЦЕНТР ""ЦЕНТР ЗДОРОВЬЯ ""РАЗУМ ТЕЛА""",ООО МЕДИЦИНСКИЙ ЦЕНТР ЦЕНТР ЗДОРОВЬЯ РАЗУМ ТЕЛА,3664230293,"394030, Воронежская обл., г. Воронеж, ул. 40 Лет Октября, д. 12 офис 4", 51.670131, 39.181443,96.04,Деятельность физкультурно-оздоровительная,https://spark-interfax.ru/voronezhskaya-oblast-voronezh/ooo-meditsinski-tsentr-tsentr-zdorovya-razum-tela-inn-3664230293-ogrn-1173668043009-591525cdb75f5bb9e0531c9aa8c084ba
"СЕЛЬСКОХОЗЯЙСТВЕННЫЙ ПОТРЕБИТЕЛЬСКИЙ СБЫТОВОЙ КООПЕРАТИВ ""ФЕРМЕР 36""",СПСК ФЕРМЕР 36,1243600000423,"396336, Воронежская обл, м.р-н Новоусманский, с.п. Отрадненское, п Отрадное, пер Демократов, д. 15", 51.666011, 39.334352,46.31,Торговля оптовая фруктами и овощами,https://spark-interfax.ru/voronezhskaya-oblast-novousmanski-raion/koop-fermer-inn-3663166038-ogrn-1243600000423-0f6ce96022c96a96e063259aa8c000d9
"СЕЛЬСКОХОЗЯЙСТВЕННЫЙ ПОТРЕБИТЕЛЬСКИЙ ПЕРЕРАБАТЫВАЮЩИЙ КООПЕРАТИВ ""МАСЛОСЫРОДЕЛЬНЫЙ""",СППК МАСЛОСЫРОДЕЛЬНЫЙ,1213600010348,"396684, Воронежская обл, м.р-н Ольховатский, с.п. Марьевское, сл Марченковка, ул Ленина, д. 3", 50.268555, 39.215359,10.51,Производство молока (кроме сырого) и молочной продукции,https://spark-interfax.ru/voronezhskaya-oblast-olkhovatski-raion/koop-maslosyrodelny-inn-3618005600-ogrn-1213600010348-be0425bd864a10a2e053219aa8c0be3d
"ОБЩЕСТВО С ОГРАНИЧЕННОЙ ОТВЕТСТВЕННОСТЬЮ ""БИЗНЕС-ПРЕСС""",ООО БИЗНЕС-ПРЕСС,3662150300,"394026, Воронежская обл., г. Воронеж, проспект Московский, д. 26", 51.687694, 39.185542,58.13,Издание газет,https://spark-interfax.ru/voronezhskaya-oblast-voronezh/ooo-biznes-press-inn-3662150300-ogrn-1103668001975-30a4103f6ec5488ca459acf10735c3db
"ОБЩЕСТВО С ОГРАНИЧЕННОЙ ОТВЕТСТВЕННОСТЬЮ ""АГРОАЛЬЯНС""",ООО АГРОАЛЬЯНС,3664139069,"396333, Воронежская обл., Новоусманский район, пос. 1-Го Отделения Совхоза ""Масловский"", ул. Ленина, д. СООР. 154 пом. 4", 51.531648, 39.310489,01.11,"Выращивание зерновых (кроме риса), зернобобовых культур и семян масличных культур",https://spark-interfax.ru/voronezhskaya-oblast-novousmanski-raion/ooo-agroalyans-inn-3664139069-ogrn-1143668055255-bb4848e9544b49bb837aa7a7c32ae587
"ОБЩЕСТВО С ОГРАНИЧЕННОЙ ОТВЕТСТВЕННОСТЬЮ ""АГРОКУЛЬТУРА ВОРОНЕЖ""",ООО АК ВОРОНЕЖ,3608004452,"394016, Воронежская обл., г. Воронеж, проспект Московский, д. 19Б офис 418", 51.693547, 39.182307,01.11,"Выращивание зерновых (кроме риса), зернобобовых культур и семян масличных культур",https://spark-interfax.ru/voronezhskaya-oblast-voronezh/ooo-ak-voronezh-inn-3608004452-ogrn-1073610000650-4d83fed7eff941ecba607db393be2d6d
"ОБЩЕСТВО С ОГРАНИЧЕННОЙ ОТВЕТСТВЕННОСТЬЮ ""СЕЛЬСКОХОЗЯЙСТВЕННОЕ ПРЕДПРИЯТИЕ ""СТЕПЬ""",ООО СХП СТЕПЬ,3623006020,"397317, Воронежская обл., Поворинский район, с. Вихляевка, ул. Пролетарская, д. 1", 51.266678, 42.861692,01.11,"Выращивание зерновых (кроме риса), зернобобовых культур и семян масличных культур",https://spark-interfax.ru/voronezhskaya-oblast-povorinski-raion/ooo-step-inn-3623006020-ogrn-1023600611484-e4c4c791f6f34c929f567e525c643810
"ОБЩЕСТВО С ОГРАНИЧЕННОЙ ОТВЕТСТВЕННОСТЬЮ ""АГРОТЕХ-ГАРАНТ"" НАЩЕКИНО",ООО АГРОТЕХ-ГАРАНТ НАЩЕКИНО,3601008842,"396213, Воронежская обл., Аннинский район, с. Нащекино, ул. Дорожная, д. 6", 51.402811, 40.136348,01.11.1,Выращивание зерновых культур,https://spark-interfax.ru/voronezhskaya-oblast-anninski-raion/ooo-agrotekh-garant-nashchekino-inn-3601008842-ogrn-1053668530046-601ff1020f25489da21516bd8dcc9499
ГАРАНТИЙНЫЙ ФОНД ВОРОНЕЖСКОЙ ОБЛАСТИ,ГФВО,1113600000326,"394018, Воронежская обл., г. Воронеж, ул. Свободы, д. 21 пом. 1/9", 51.657739, 39.199548,66.19,"Деятельность вспомогательная прочая в сфере финансовых услуг, кроме страхования и пенсионного обеспечения",https://spark-interfax.ru/voronezhskaya-oblast-voronezh/fond-gfvo-inn-3666144152-ogrn-1113600000326-6906d94bb6fa226ae0531b9aa8c04bb6
"БЮДЖЕТНОЕ УЧРЕЖДЕНИЕ ЗДРАВООХРАНЕНИЯ ВОРОНЕЖСКОЙ ОБЛАСТИ ""ВОРОНЕЖСКАЯ ОБЛАСТНАЯ КЛИНИЧЕСКАЯ ОФТАЛЬМОЛОГИЧЕСКАЯ БОЛЬНИЦА""",БУЗ ВО ВОКОБ,1033600044356,"394030, Воронежская обл., г. Воронеж, ул. Революции 1905 Года, д. 22", 51.672940, 39.195158,86.10,Деятельность больничных организаций,https://spark-interfax.ru/voronezhskaya-oblast-voronezh/gbu-buz-vo-vokob-inn-3666018060-ogrn-1033600044356-6906d94c06f6226ae0531b9aa8c04bb6
"ОБЩЕСТВО С ОГРАНИЧЕННОЙ ОТВЕТСТВЕННОСТЬЮ ""РОДИНА""",ООО РОДИНА,3652902960,"396755, Воронежская обл, м.р-н Богучарский, с.п. Луговское, с Данцевка, ул Новая, д. 11", 49.908260, 40.251965,01.11.1,Выращивание зерновых культур,https://spark-interfax.ru/voronezhskaya-oblast-bogucharski-raion/ooo-rodina-inn-3652902960-ogrn-1243600000060-9ae8129d312943a9919dae0ac67e5404
"СЕЛЬСКОХОЗЯЙСТВЕННЫЙ ПОТРЕБИТЕЛЬСКИЙ СБЫТОВОЙ КООПЕРАТИВ ""БИОТОРИЯ""",СПСК БИОТОРИЯ,1193668025682,"397924, Воронежская обл., Лискинский район, с. Петропавловка, ул. Советская, д. 37", 50.857004, 39.844520,46.11,"Деятельность агентов по оптовой торговле сельскохозяйственным сырьем, живыми животными, текстильным сырьем и полуфабрикатами",https://spark-interfax.ru/voronezhskaya-oblast-liskinski-raion/koop-biotoriya-inn-3614010398-ogrn-1193668025682-8d0f8693995a8e79e0531c9aa8c00b5f
"ОБЩЕСТВО С ОГРАНИЧЕННОЙ ОТВЕТСТВЕННОСТЬЮ ""ЕДИНСТВО""",ООО ЕДИНСТВО,3603009070,"396762, Воронежская обл, м.р-н Богучарский, с.п. Липчанское, х Марьевка, ул Степная, зд. 17А", 49.736561, 40.362659,01.11.1,Выращивание зерновых культур,https://spark-interfax.ru/voronezhskaya-oblast-bogucharski-raion/ooo-edinstvo-inn-3603009070-ogrn-1223600002196-02e62eec87c74058871b14a8d7a9b4b9
"ОБЩЕСТВО С ОГРАНИЧЕННОЙ ОТВЕТСТВЕННОСТЬЮ ""СТАНДАРТ-АГРО""",ООО СТАНДАРТ-АГРО,3627023700,"396655, Воронежская обл, м.р-н Россошанский, г.п. город Россошь, г Россошь, ул Пролетарская, д. 98, помещ. 48", 50.194720, 39.569493,01.61,Предоставление услуг в области растениеводства,https://spark-interfax.ru/voronezhskaya-oblast-rossoshanski-raion/ooo-standart-agro-inn-3627023700-ogrn-1073627002415-6a7e973492544f469991980ab9b80556
"КРЕСТЬЯНСКОЕ ХОЗЯЙСТВО ""КАСЬЯНОВ""",КХ КАСЬЯНОВ,1033664502662,"396624, Воронежская обл., Россошанский район, с. Александровка, ул. Ленина, д. 269", 49.997359, 39.380737,01.11.1,Выращивание зерновых культур,https://spark-interfax.ru/voronezhskaya-oblast-rossoshanski-raion/kasyanov-inn-3627006310-ogrn-1033664502662-61788954767c7e1ce0531b9aa8c027ab
"ОБЩЕСТВО С ОГРАНИЧЕННОЙ ОТВЕТСТВЕННОСТЬЮ ""АГРОТЕХНОЛОГИЯ""",ООО АГРОТЕХНОЛОГИЯ,3607006224,"397026, Воронежская обл., Эртильский район, с. Вязковка, ул. Тихая, зд. 27 офис 1", 51.927808, 40.518636,01.11,"Выращивание зерновых (кроме риса), зернобобовых культур и семян масличных культур",https://spark-interfax.ru/voronezhskaya-oblast-ertilski-raion/ooo-agrotekhnologiya-inn-3607006224-ogrn-1083668034647-b412577f12e1444483f4b87a3b925c1a
"ОБЩЕСТВО С ОГРАНИЧЕННОЙ ОТВЕТСТВЕННОСТЬЮ ""АКЦЕНТ""",ООО АКЦЕНТ,3666179324,"394000, Воронежская обл., г. Воронеж, ул. Кольцовская, д. 5 неж. пом. 1", 51.679215, 39.208955,82.99,"Деятельность по предоставлению прочих вспомогательных услуг для бизнеса, не включенная в другие группировки",https://spark-interfax.ru/voronezhskaya-oblast-voronezh/ooo-aktsent-inn-3666179324-ogrn-1123668029187-61788954da747e1ce0531b9aa8c027ab
"ОБЩЕСТВО С ОГРАНИЧЕННОЙ ОТВЕТСТВЕННОСТЬЮ ""ГРУЗАВТО-36""",ООО ГРУЗАВТО-36,3663080341,"396335, Воронежская обл, м.р-н Новоусманский, с.п. Отрадненское, п Отрадное, ул Автодорожная, зд. 7, помещ. 701-713, ОФИС 707", 51.670265, 39.345295,45.31.1,"Торговля оптовая автомобильными деталями, узлами и принадлежностями, кроме деятельности агентов",https://spark-interfax.ru/voronezhskaya-oblast-novousmanski-raion/ooo-gruzavto-inn-3663080341-ogrn-1093668052763-fdeac56d43084b12a07688f30b45202c
"ОБЩЕСТВО С ОГРАНИЧЕННОЙ ОТВЕТСТВЕННОСТЬЮ ""ОСТРОГОЖСКАЯ МАШИННО-ТЕХНОЛОГИЧЕСКАЯ СТАНЦИЯ-АГРОХИМ""",ООО ОСТРОГОЖСКАЯ МТС-АГРОХИМ,3619009283,"397837, Воронежская обл., Острогожский район, пос. Элеваторный, ул. Рабочая, д. 6", 50.831479, 39.093504,01.1,Выращивание однолетних культур,https://spark-interfax.ru/voronezhskaya-oblast-ostrogozhski-raion/ooo-ostrogozhskaya-mts-agrokhim-inn-3619009283-ogrn-1063619008254-c18692bb600c495781169b97562cf7f2
"ОБЩЕСТВО С ОГРАНИЧЕННОЙ ОТВЕТСТВЕННОСТЬЮ ""ТИХИЙ ДОН""",ООО ТИХИЙ ДОН,3619008868,"397816, Воронежская обл., Острогожский район, с. Урыв-Покровка, ул. Центральная, д. 95", 51.112884, 39.158359,01.50,Смешанное сельское хозяйство,https://spark-interfax.ru/voronezhskaya-oblast-ostrogozhski-raion/ooo-tikhi-don-inn-3619008868-ogrn-1053683012503-19fbdd54a6cf4fa396b572e8adfbd0ff
"ОБЩЕСТВО С ОГРАНИЧЕННОЙ ОТВЕТСТВЕННОСТЬЮ ""СЕЛЕКЦИОННО-СЕМЕНОВОДЧЕСКИЙ ЦЕНТР САМЕН""",ООО ССЦ САМЕН,3652904526,"396391, Воронежская обл, м.р-н Репьёвский, с.п. Скорицкое, с Усть-Муравлянка, пер Механический, зд. 3Д, офис 4", 51.045528, 38.847557,01.11,"Выращивание зерновых (кроме риса), зернобобовых культур и семян масличных культур",https://spark-interfax.ru/voronezhskaya-oblast-repevski-raion/ooo-samen-inn-3652904526-ogrn-1243600021026-2a60e4e4a4847048e063269aa8c099c9
"ОБЩЕСТВО С ОГРАНИЧЕННОЙ ОТВЕТСТВЕННОСТЬЮ ""АГЕНТСТВО РАЗРАБОТКИ И ВНЕДРЕНИЯ ИНФОРМАЦИОННЫХ ТЕХНОЛОГИЙ""",ООО АРВИТ,3662303926,"394016, Воронежская обл, г.о. город Воронеж, г Воронеж, ул 45 стрелковой дивизии, д. 230А, офис 39", 51.693778, 39.137237,63.11,"Деятельность по обработке данных, предоставление услуг по размещению информации и связанная с этим деятельность",https://spark-interfax.ru/voronezhskaya-oblast-voronezh/ooo-arvit-inn-3662303926-ogrn-1233600003625-f5928f7f59de52e1e053249aa8c082f3
"АКЦИОНЕРНОЕ ОБЩЕСТВО ""КОНСТРУКТОРСКОЕ БЮРО ХИМАВТОМАТИКИ""",АО КБХА,3665046177,"394006, Воронежская обл., г. Воронеж, ул. Ворошилова, д. 20", 51.653023, 39.170414,72.19,Научные исследования и разработки в области естественных и технических наук прочие,https://spark-interfax.ru/voronezhskaya-oblast-voronezh/ao-kbkha-inn-3665046177-ogrn-1043600062725-6febbd977a7648fda3c72ad5ee926c51
"СЕЛЬСКОХОЗЯЙСТВЕННЫЙ ПОТРЕБИТЕЛЬСКИЙ СБЫТОВОЙ КООПЕРАТИВ ""БИОТОРИЯ М""",СПСК БИОТОРИЯ М,1233600015472,"397924, Воронежская обл, м.р-н Лискинский, с.п. Петропавловское, с Петропавловка, ул Советская, д. 37", 50.857004, 39.844520,47.11,"Торговля розничная преимущественно пищевыми продуктами, включая напитки, и табачными изделиями в неспециализированных магазинах",https://spark-interfax.ru/voronezhskaya-oblast-liskinski-raion/koop-biotoriya-m-inn-3652902670-ogrn-1233600015472-04f9687b60ab24c9e063259aa8c00a95
"СЕЛЬСКОХОЗЯЙСТВЕННЫЙ ПОТРЕБИТЕЛЬСКИЙ ПЕРЕРАБАТЫВАЮЩИЙ КООПЕРАТИВ ""ПРОГРЕСС-М""",СППК ПРОГРЕСС-М,1233600016165,"397620, Воронежская обл, м.р-н Калачеевский, с.п. Меловатское, с Новомеловатка, ул Ленина, д. 66, офис 3", 50.442404, 40.779314,10.11,Переработка и консервирование мяса,https://spark-interfax.ru/voronezhskaya-oblast-kalacheevski-raion/koop-progress-m-inn-3604084129-ogrn-1233600016165-0586395ef2e42ad8e063259aa8c02954
"СЕЛЬСКОХОЗЯЙСТВЕННЫЙ ПОТРЕБИТЕЛЬСКИЙ ПЕРЕРАБАТЫВАЮЩИЙ КООПЕРАТИВ ""ВЕСЕЛЫЙ ЕЖ""",СППК ВЕСЕЛЫЙ ЕЖ,1243600008761,"396830, Воронежская обл, м.р-н Хохольский, г.п. Хохольское, с Хохол, ул Красная Слобода, д. 73", 51.554720, 38.745982,10.51,Производство молока (кроме сырого) и молочной продукции,https://spark-interfax.ru/voronezhskaya-oblast-khokholski-raion/koop-vesely-ezh-inn-3666271136-ogrn-1243600008761-1a6d3b1f9652629ee063259aa8c0276a
"СЕЛЬСКОХОЗЯЙСТВЕННЫЙ ПОТРЕБИТЕЛЬСКИЙ СБЫТОВОЙ КООПЕРАТИВ ""ЛИСКИ ЯГОДА""",СПСК ЛИСКИ ЯГОДА,1193668020590,"397956, Воронежская обл., Лискинский район, с. Нижнемарьино, ул. Заводская, д. 2Г", 51.219870, 39.488002,46.11,"Деятельность агентов по оптовой торговле сельскохозяйственным сырьем, живыми животными, текстильным сырьем и полуфабрикатами",https://spark-interfax.ru/voronezhskaya-oblast-liskinski-raion/koop-liski-yagoda-inn-3614010359-ogrn-1193668020590-89c2a141647d631be0531b9aa8c0a44f
"ОБЩЕСТВО С ОГРАНИЧЕННОЙ ОТВЕТСТВЕННОСТЬЮ ""КАЛАЧ-АГРО-КОМПЛЕКС""",ООО КАЛАЧ-АГРО-КОМПЛЕКС,3610010100,"397622, Воронежская обл., Калачеевский район, с. Хрещатое, ул. Красная Площадь, зд. 1", 50.359447, 40.708432,01.61,Предоставление услуг в области растениеводства,https://spark-interfax.ru/voronezhskaya-oblast-kalacheevski-raion/ooo-kalach-agro-kompleks-inn-3610010100-ogrn-1063610006327-a2afd352eb22463a8ad6cf7e4177d2de
"МЕСТНАЯ РЕЛИГИОЗНАЯ ОРГАНИЗАЦИЯ ПРАВОСЛАВНЫЙ ПРИХОД ХРАМА ВО ИМЯ СВТ.МИТРОФАНИЯ , ЕПИСКОПА ВОРОНЕЖСКОГО СЛ.КАРАЯШНИК ОЛЬХОВАТСКОГО РАЙОНА ВОРОНЕЖСКОЙ ОБЛАСТИ РЕЛИГИОЗНОЙ ОРГАНИЗАЦИИ ""РОССОШАНСКАЯ ЕПАРХИЯ РУССКОЙ ПРАВОСЛАВНОЙ ЦЕРКВИ (МОСКОВСКИЙ ПАТРИАРХАТ)""","МЕСТНАЯ РЕЛИГИОЗНАЯ ОРГАНИЗАЦИЯ ПРАВОСЛАВНЫЙ ПРИХОД ХРАМА ВО ИМЯ СВТ.МИТРОФАНИЯ , ЕПИСКОПА ВОРОНЕЖСКОГО СЛ.КАРАЯШНИК ОЛЬХОВАТСКОГО РАЙОНА ВОРОНЕЖСКОЙ ОБЛАСТИ РЕЛИГИОЗНОЙ ОРГАНИЗАЦИИ РОССОШАНСКАЯ ЕПАРХИЯ РУССКОЙ ПРАВОСЛАВНОЙ ЦЕРКВИ (МОСКОВСКИЙ ПАТРИАРХАТ)",1123600001744,"396673, Воронежская обл., Ольховатский район, с. Караяшник, ул. Тенистая, д. 1А", 50.422928, 39.206612,94.91,Деятельность религиозных организаций,https://spark-interfax.ru/voronezhskaya-oblast-olkhovatski-raion/ro-rossoshanskaya-eparkhiya-russkoi-pravoslavnoi-tserkvi-moskovski-patriarkhat-inn-3618999013-ogrn-1123600001744-6906d94c8e99226ae0531b9aa8c04bb6
"ОБЩЕСТВО С ОГРАНИЧЕННОЙ ОТВЕТСТВЕННОСТЬЮ ""СТИМУЛ""",ООО СТИМУЛ,3665001232,"397855, Воронежская обл., Острогожский район, г. Острогожск, ул. Карла Маркса, зд. 44Г", 50.868569, 39.076046,26.11.3,Производство интегральных электронных схем,https://spark-interfax.ru/voronezhskaya-oblast-ostrogozhski-raion/ooo-stimul-inn-3665001232-ogrn-1023601542470-8fdc404ba9d94f93ba426f02d1924b48
"АКЦИОНЕРНОЕ ОБЩЕСТВО ""РИФ""",АО РИФ,3665009866,"397855, Воронежская обл., Острогожский район, г. Острогожск, ул. Карла Маркса, зд. 44Г офис 2", 50.868569, 39.076046,26.11.3,Производство интегральных электронных схем,https://spark-interfax.ru/voronezhskaya-oblast-ostrogozhski-raion/ao-rif-inn-3665009866-ogrn-1023601542546-93e596e5ae1948b3a784a47abf866eb4
ФЕДЕРАЛЬНОЕ БЮДЖЕТНОЕ УЧРЕЖДЕНИЕ ВОРОНЕЖСКИЙ РЕГИОНАЛЬНЫЙ ЦЕНТР СУДЕБНОЙ ЭКСПЕРТИЗЫ МИНИСТЕРСТВА ЮСТИЦИИ РОССИЙСКОЙ ФЕДЕРАЦИИ,ФБУ ВОРОНЕЖСКИЙ РЦСЭ МИНЮСТА РОССИИ,1033600047535,"364006, Воронежская обл., г. Воронеж, ул. Краснознаменная, д. 2", 51.654235, 39.186618,71.20.2,Судебно-экспертная деятельность,https://spark-interfax.ru/voronezhskaya-oblast-voronezh/fgbu-voronezhski-rtsse-minyusta-rossii-inn-3664011894-ogrn-1033600047535-6906d94c0816226ae0531b9aa8c04bb6
"ОБЩЕСТВО С ОГРАНИЧЕННОЙ ОТВЕТСТВЕННОСТЬЮ ""АГРОТЕХНИКА""",ООО АГРОТЕХНИКА,3610002861,"397431, Воронежская обл, м.р-н Новохопёрский, г.п. Елань-Коленовское, рп Елань-Коленовский, пер Садовый, зд. 7", 51.175386, 41.149923,01.30,Выращивание рассады,https://spark-interfax.ru/voronezhskaya-oblast-novokhoperski-raion/ooo-agrotekhnika-inn-3610002861-ogrn-1213600018752-c3844e8e2fae1253e053219aa8c023f0
"КРЕСТЬЯНСКОЕ (ФЕРМЕРСКОЕ) ХОЗЯЙСТВО ""АВАНГАРД""",КФХ АВАНГАРД,1023601079028,"396772, Воронежская обл., Богучарский район, с. Монастырщина", 49.834952, 40.921630,01.11,"Выращивание зерновых (кроме риса), зернобобовых культур и семян масличных культур",https://spark-interfax.ru/voronezhskaya-oblast-bogucharski-raion/avangard-inn-3603001641-ogrn-1023601079028-617889546b727e1ce0531b9aa8c027ab
"ПУБЛИЧНОЕ АКЦИОНЕРНОЕ ОБЩЕСТВО ""АВИАЦИОННЫЙ КОМПЛЕКС ИМ. С.В. ИЛЬЮШИНА""",ПАО ИЛ,7714027882,"125190, г. Москва, проспект Ленинградский, д. 45Г", 55.796735, 37.528489,72.19,Научные исследования и разработки в области естественных и технических наук прочие,https://spark-interfax.ru/moskva-khoroshevski/pao-il-inn-7714027882-ogrn-1027739118659-e375ac6c32b543859052a26679d3c8d9
"ФЕДЕРАЛЬНОЕ ГОСУДАРСТВЕННОЕ БЮДЖЕТНОЕ ОБРАЗОВАТЕЛЬНОЕ УЧРЕЖДЕНИЕ ВЫСШЕГО ОБРАЗОВАНИЯ ""ВОРОНЕЖСКИЙ ГОСУДАРСТВЕННЫЙ МЕДИЦИНСКИЙ УНИВЕРСИТЕТ ИМЕНИ Н. Н. БУРДЕНКО"" МИНИСТЕРСТВА ЗДРАВООХРАНЕНИЯ РОССИЙСКОЙ ФЕДЕРАЦИИ",ФГБОУ ВО ВГМУ ИМ. Н. Н. БУРДЕНКО МИНЗДРАВА РОССИИ,1033600044070,"394036, Воронежская обл., г. Воронеж, ул. Студенческая, д. 10", 51.677412, 39.204612,85.22,Образование высшее,https://spark-interfax.ru/voronezhskaya-oblast-voronezh/fgbu-fgbou-vo-vgmu-im-n-n-burdenko-minzdrava-rossii-inn-3666027794-ogrn-1033600044070-6906d94bfb13226ae0531b9aa8c04bb6
"СЕЛЬСКОХОЗЯЙСТВЕННЫЙ ПОТРЕБИТЕЛЬСКИЙ СБЫТОВОЙ КООПЕРАТИВ ""ЛИСКИ ЯГОДА""",СПСК ЛИСКИ ЯГОДА,1193668020590,"397956, Воронежская обл., Лискинский район, с. Нижнемарьино, ул. Заводская, д. 2Г", 51.219870, 39.488002,46.11,"Деятельность агентов по оптовой торговле сельскохозяйственным сырьем, живыми животными, текстильным сырьем и полуфабрикатами",https://spark-interfax.ru/voronezhskaya-oblast-liskinski-raion/koop-liski-yagoda-inn-3614010359-ogrn-1193668020590-89c2a141647d631be0531b9aa8c0a44f
"ОБЩЕСТВЕННАЯ ОРГАНИЗАЦИЯ ТЕРРИТОРИАЛЬНОЕ ОБЩЕСТВЕННОЕ САМОУПРАВЛЕНИЕ ""НАРОДНЫЙ"" Р.П. ПАВЛОВКА МУНИЦИПАЛЬНОГО ОБРАЗОВАНИЯ ПАВЛОВСКОЕ ГОРОДСКОЕ ПОСЕЛЕНИЕ ПАВЛОВСКОГО РАЙОНА УЛЬЯНОВСКОЙ ОБЛАСТИ",ТОС НАРОДНЫЙ,1237300002697,"433970, Ульяновская обл, м.р-н Павловский, г.п. Павловское, рп Павловка, ул Красноармейская, двлд. 21А", 52.682881, 47.134156,94.99,"Деятельность прочих общественных организаций и некоммерческих организаций, кроме религиозных и политических организаций",https://spark-interfax.ru/ulyanovskaya-oblast-pavlovski-raion/tos-narodny-inn-7300016406-ogrn-1237300002697-f61f607186a44739e053249aa8c0ea74
"АКЦИОНЕРНОЕ ОБЩЕСТВО ""ПРОМТЕХ-УЛЬЯНОВСК""",АО ПРОМТЕХ-УЛЬЯНОВСК,7329009137,"433405, Ульяновская обл, м.р-н Чердаклинский, с.п. Мирновское, тер. Портовая особая экономическая зона, пр-д Первых резидентов, зд. 9", 54.360061, 48.848998,30.30.5,Производство частей и принадлежностей летательных и космических аппаратов,https://spark-interfax.ru/ulyanovskaya-oblast-cherdaklinski-raion/ao-promtekh-ulyanovsk-inn-7329009137-ogrn-1137329000060-de0ad3e1545e40caa96863d9f54c7467
"ТОВАРИЩЕСТВО СОБСТВЕННИКОВ ЖИЛЬЯ ""МИР-4""",ТСЖ МИР-4,1106318005342,"443011, Самарская обл, г.о. Самара, вн.р-н Октябрьский, г Самара, пер Парковый, д. 5, офис 1", 53.224234, 50.175510,68.32.1,Управление эксплуатацией жилого фонда за вознаграждение или на договорной основе,https://spark-interfax.ru/samarskaya-oblast-samara/tszh-mir-inn-6318188210-ogrn-1106318005342-6906d9580bfb226ae0531b9aa8c04bb6
"ОБЩЕСТВО С ОГРАНИЧЕННОЙ ОТВЕТСТВЕННОСТЬЮ ""ГИТ СЕРВИС""",ООО ГИТ СЕРВИС,7325162991,"432055, Ульяновская обл, г.о. город Ульяновск, г Ульяновск, ш Сельдинское, д. 12, помещ. 3", 54.346620, 48.313336,45.32,"Торговля розничная автомобильными деталями, узлами и принадлежностями",https://spark-interfax.ru/ulyanovskaya-oblast-ulyanovsk/ooo-git-servis-inn-7325162991-ogrn-1187325019200-7a5c1925b0498b27e0531f9aa8c05424
"СЕЛЬСКОХОЗЯЙСТВЕННЫЙ ПОТРЕБИТЕЛЬСКИЙ РАСТЕНИЕВОДЧЕСКИЙ КООПЕРАТИВ ""САДЫ ПОВОЛЖЬЯ""",СПОК САДЫ ПОВОЛЖЬЯ,1227300016778,"433524, Ульяновская обл, м.р-н Мелекесский, с.п. Старосахчинское, с Старая Сахча, ул Комсомольская, зд. 53, помещ. 7", 54.421934, 49.948698,01.25.1,Выращивание прочих плодовых и ягодных культур,https://spark-interfax.ru/ulyanovskaya-oblast-melekesski-raion/koop-sady-povolzhya-inn-7300013042-ogrn-1227300016778-f012669fad070400e053249aa8c02c4a
"ОБЩЕСТВО С ОГРАНИЧЕННОЙ ОТВЕТСТВЕННОСТЬЮ ""СЕТЕВАЯ КОМПАНИЯ ""БАЗИС""",ООО СК БАЗИС,7329019311,"433513, Ульяновская обл., г. Димитровград, ул. Мостовая, д. 16А ком. 31", 54.212256, 49.612687,93.21,Деятельность парков культуры и отдыха и тематических парков,https://spark-interfax.ru/ulyanovskaya-oblast-dimitrovgrad/ooo-sk-bazis-inn-7329019311-ogrn-1157329002445-917193ba7701419f8a81b903de88e421
"АВТОНОМНАЯ НЕКОММЕРЧЕСКАЯ ОРГАНИЗАЦИЯ ""КУЛЬТУРНО-СПОРТИВНЫЙ СОЦИОЦЕНТР ""МЫ""",АНОКССЦ МЫ,1247300002454,"433310, Ульяновская обл, м.р-н Ульяновский, г.п. Ишеевское, рп Ишеевка, ул Дачная, зд. 5", 54.421262, 48.270213,90.04,Деятельность учреждений культуры и искусства,https://spark-interfax.ru/ulyanovskaya-oblast-ulyanovski-raion/ano-kssts-my-inn-7300030471-ogrn-1247300002454-13d3707b899c7d0fe063259aa8c07db4
"АВТОНОМНАЯ НЕКОММЕРЧЕСКАЯ ОРГАНИЗАЦИЯ ""ЦЕНТР ЭКСПЕРТИЗЫ И СЕРТИФИКАЦИИ ""ДОСТУПНЫЙ МИР""",АНО ЦЭС ДОСТУПНЫЙ МИР,1177325001083,"432063, Ульяновская обл., г. Ульяновск, ул. Гончарова, д. 13.4/24", 54.315357, 48.395117,71.20,"Технические испытания, исследования, анализ и сертификация",https://spark-interfax.ru/ulyanovskaya-oblast-ulyanovsk/ano-tses-dostupny-mir-inn-7327081628-ogrn-1177325001083-6906d9a31f51226ae0531b9aa8c04bb6
"АВТОНОМНАЯ НЕКОММЕРЧЕСКАЯ ОРГАНИЗАЦИЯ ПО ПОДДЕРЖКЕ, РАЗРАБОТКЕ И РЕАЛИЗАЦИ СОЦИАЛЬНО-КУЛЬТУРНЫХ ИНИЦИАТИВ ""НОЧЬ""",АНО НОЧЬ,1247300000463,"432066, Ульяновская обл, г.о. город Ульяновск, г Ульяновск, ул Ефремова, д. 151, кв. 215", 54.268847, 48.272452,94.99,"Деятельность прочих общественных организаций и некоммерческих организаций, кроме религиозных и политических организаций",https://spark-interfax.ru/ulyanovskaya-oblast-ulyanovsk/ano-noch-inn-7300028480-ogrn-1247300000463-0ff9ba2d8d2f6cbbe063259aa8c00352
"ОБЩЕСТВО С ОГРАНИЧЕННОЙ ОТВЕТСТВЕННОСТЬЮ ""АРТ-ПРОФИ""",ООО АРТ-ПРОФИ,7325114564,"432071, Ульяновская обл., г. Ульяновск, пер. Буинский, д. 5 офис 1", 54.336846, 48.389914,73.11,Деятельность рекламных агентств,https://spark-interfax.ru/ulyanovskaya-oblast-ulyanovsk/ooo-art-profi-inn-7325114564-ogrn-1127325004575-babb3c0c2c8145b09315f06968262d96
"АВТОНОМНАЯ НЕКОММЕРЧЕСКАЯ ОРГАНИЗАЦИЯ ПО ПРЕДОСТАВЛЕНИЮ УСЛУГ В СФЕРЕ КУЛЬТУРЫ И ИСКУССТВА ""КЛАСТЕР ТВОРЧЕСКИХ ИНДУСТРИЙ""",АНО КЛАСТЕР ТВОРЧЕСКИХ ИНДУСТРИЙ,1167325067469,"432000, Ульяновская обл, г.о. город Ульяновск, г Ульяновск, ул Гончарова, д. 13/91А", 54.316177, 48.394979,82.30,Деятельность по организации конференций и выставок,https://spark-interfax.ru/ulyanovskaya-oblast-ulyanovsk/ano-klaster-tvorcheskikh-industri-inn-7327079604-ogrn-1167325067469-6906d9a31b85226ae0531b9aa8c04bb6
КУЛЬТУРНЫЙ ФОНД ИМЕНИ И.А.ГОНЧАРОВА,КУЛЬТУРНЫЙ ФОНД ИМЕНИ И.А.ГОНЧАРОВА,1057325055787,"432000, Ульяновская обл., г. Ульяновск, бульвар Новый Венец, д. 3/4", 54.315364, 48.405456,91.0,"Деятельность библиотек, архивов, музеев и прочих объектов культуры",https://spark-interfax.ru/ulyanovskaya-oblast-ulyanovsk/fond-kulturny-fond-imeni-i-a-goncharova-inn-7325055534-ogrn-1057325055787-6906d9a2d81c226ae0531b9aa8c04bb6
"ОБЩЕСТВЕННАЯ ОРГАНИЗАЦИЯ ТЕРРИТОРИАЛЬНОЕ ОБЩЕСТВЕННОЕ САМОУПРАВЛЕНИЕ ""ВЕРХНЕ-МАЗИНСКИЙ"" СЕЛА ВЕРХНЯЯ МАЗА МУНИЦИПАЛЬНОГО ОБРАЗОВАНИЯ ОКТЯБРЬСКОЕ СЕЛЬСКОЕ ПОСЕЛЕНИЕ РАДИЩЕВСКОГО РАЙОНА УЛЬЯНОВСКОЙ ОБЛАСТИ",ТОС ВЕРХНЕ-МАЗИНСКИЙ,1197325016921,"433921, Ульяновская обл., Радищевский район, с. Верхняя Маза, ул. Мелиораторов, д. 13", 52.964579, 47.933198,94.99,"Деятельность прочих общественных организаций и некоммерческих организаций, кроме религиозных и политических организаций",https://spark-interfax.ru/ulyanovskaya-oblast-radishchevski-raion/tos-verkhne-mazinski-inn-7313013603-ogrn-1197325016921-95dc94d226b73962e0531b9aa8c08d66
"ОБЩЕСТВО С ОГРАНИЧЕННОЙ ОТВЕТСТВЕННОСТЬЮ ""ИНФОРМАЦИОННЫЕ СИСТЕМЫ""",ООО ИНФОРМАЦИОННЫЕ СИСТЕМЫ,7328063325,"432001, Ульяновская обл, г.о. город Ульяновск, г Ульяновск, ул Шевченко, д. 100, офис 1", 54.315414, 48.382836,73.11,Деятельность рекламных агентств,https://spark-interfax.ru/ulyanovskaya-oblast-ulyanovsk/ooo-informatsionnye-sistemy-inn-7328063325-ogrn-1117328000932-15fc45b6b5e64e6293e0bab6942db821
"ОБЩЕСТВО С ОГРАНИЧЕННОЙ ОТВЕТСТВЕННОСТЬЮ ""СТАЧКА""",ООО СТАЧКА,7328081691,"432000, Ульяновская обл, г.о. город Ульяновск, г Ульяновск, ул Ленина, д. 101, кв. 3", 54.315293, 48.399215,82.30,Деятельность по организации конференций и выставок,https://spark-interfax.ru/ulyanovskaya-oblast-ulyanovsk/ooo-stachka-inn-7328081691-ogrn-1147328005846-5ad9fcb4f1ca46b5acfc3a1e7067bbbb
"ОБЩЕСТВО С ОГРАНИЧЕННОЙ ОТВЕТСТВЕННОСТЬЮ ""ДИМИТРОВГРАДСКИЙ ЗАВОД ПОРОШКОВОЙ МЕТАЛЛУРГИИ""",ООО ДЗПМ,7302018254,"433513, Ульяновская обл., г. Димитровград, проспект Автостроителей, д. 78", 54.208533, 49.587108,29.32,Производство прочих комплектующих и принадлежностей для автотранспортных средств,https://spark-interfax.ru/ulyanovskaya-oblast-dimitrovgrad/ooo-dzpm-inn-7302018254-ogrn-1027300533622-41995f23d3b94ebd94a56f22acca449a
"АКЦИОНЕРНОЕ ОБЩЕСТВО ""НАУЧНО-ПРОИЗВОДСТВЕННОЕ ПРЕДПРИЯТИЕ ""ЗАВОД ИСКРА""",АО НПП ЗАВОД ИСКРА,7325081527,"432030, Ульяновская обл., г. Ульяновск, проспект Нариманова, д. 75", 54.352731, 48.359175,26.11.2,"Производство диодов, транзисторов и прочих полупроводниковых приборов, включая светоизлучающие диоды, пьезоэлектрические приборы и их части",https://spark-interfax.ru/ulyanovskaya-oblast-ulyanovsk/ao-npp-zavod-iskra-inn-7325081527-ogrn-1087325005756-134f89e2f07140f2a8236d1121fb3219
"ОБЩЕСТВО С ОГРАНИЧЕННОЙ ОТВЕТСТВЕННОСТЬЮ СПЕЦИАЛИЗИРОВАННЫЙ ЗАСТРОЙЩИК ""СТРОЙАЛЬЯНС""",ООО СЗ СТРОЙАЛЬЯНС,1324003395,"431441, Мордовия респ., г. Рузаевка, ул. Мира, д. 21 стр. 2 офис 404", 54.055147, 44.909544,41.20,Строительство жилых и нежилых зданий,https://spark-interfax.ru/mordoviya-respublika-ruzaevka/ooo-stroialyans-inn-1324003395-ogrn-1201300001242-a169b77e1b7b262fe053189aa8c073b4
"ОБЛАСТНОЕ ГОСУДАРСТВЕННОЕ АВТОНОМНОЕ УЧРЕЖДЕНИЕ ""УПРАВЛЕНИЕ СПОРТИВНЫМИ СООРУЖЕНИЯМИ""",ОГАУ УСС,1117325006765,"432000, Ульяновская обл, г.о. город Ульяновск, г Ульяновск, ул Андрея Блаженного, зд. 23, стр. 1", 54.316133, 48.391832,93.1,Деятельность в области спорта,https://spark-interfax.ru/ulyanovskaya-oblast-ulyanovsk/gau-uss-inn-7325107528-ogrn-1117325006765-6906d9a2fd3f226ae0531b9aa8c04bb6
"ОБЩЕСТВО С ОГРАНИЧЕННОЙ ОТВЕТСТВЕННОСТЬЮ ""НС-ОЙЛ""",ООО НС-ОЙЛ,7313005345,"433870, Ульяновская обл., Новоспасский район, рабочий пос. Новоспасское, ул. Заводская, д. 6А", 53.153235, 47.724821,19.20,Производство нефтепродуктов,https://spark-interfax.ru/ulyanovskaya-oblast-novospasski-raion/ooo-ns-oil-inn-7313005345-ogrn-1077313000500-482a0c64744f4398978cc6fdbf2f4a6f
"ОБЩЕСТВО С ОГРАНИЧЕННОЙ ОТВЕТСТВЕННОСТЬЮ ""УЛЬЯНОВСКИЙ АВТОМОБИЛЬНЫЙ ЗАВОД""",ООО УАЗ,7327077188,"432034, Ульяновская обл., г. Ульяновск, шоссе Московское, д. 92", 54.309293, 48.331566,29.10,Производство автотранспортных средств,https://spark-interfax.ru/ulyanovskaya-oblast-ulyanovsk/ooo-uaz-inn-7327077188-ogrn-1167325054082-8dd58d77155344a28292b45892da4831
"ОБЩЕСТВО С ОГРАНИЧЕННОЙ ОТВЕТСТВЕННОСТЬЮ ""ПРЕДПРИЯТИЕ ПО ПРОИЗВОДСТВУ СРЕДСТВ ЗАЩИТЫ""",ООО ППСЗ,7323007207,"433405, Ульяновская обл, м.р-н Чердаклинский, с.п. Мирновское, тер. Портовая особая экономическая зона, пр-д Индустриальный, зд. 2, стр. 1", 54.360061, 48.848998,32.99.9,"Производство прочих изделий, не включенных в другие группировки",https://spark-interfax.ru/ulyanovskaya-oblast-cherdaklinski-raion/ooo-ppsz-inn-7323007207-ogrn-1047300900206-16de6761b7d44720b1f8de5fefcf74cf
"АКЦИОНЕРНОЕ ОБЩЕСТВО ""ГОСУДАРСТВЕННЫЙ НАУЧНЫЙ ЦЕНТР - НАУЧНО-ИССЛЕДОВАТЕЛЬСКИЙ ИНСТИТУТ АТОМНЫХ РЕАКТОРОВ""",АО ГНЦ НИИАР,7302040242,"433510, Ульяновская обл., г. Димитровград, шоссе Западное, д. 9", 54.211794, 49.539065,72.19,Научные исследования и разработки в области естественных и технических наук прочие,https://spark-interfax.ru/ulyanovskaya-oblast-dimitrovgrad/ao-gnts-niiar-inn-7302040242-ogrn-1087302001797-69d86705c3ef42078845dea40cb29bc5
"ОБЛАСТНОЕ ГОСУДАРСТВЕННОЕ БЮДЖЕТНОЕ ПРОФЕССИОНАЛЬНОЕ ОБРАЗОВАТЕЛЬНОЕ УЧРЕЖДЕНИЕ ""ДИМИТРОВГРАДСКИЙ ТЕХНИЧЕСКИЙ КОЛЛЕДЖ""",ОГБПОУ ДТК,1027300541927,"433513, Ульяновская обл., г. Димитровград, проспект Автостроителей, д. 63", 54.209857, 49.591889,85.21,Образование профессиональное среднее,https://spark-interfax.ru/ulyanovskaya-oblast-dimitrovgrad/gbu-ogbpou-dtk-inn-7302009820-ogrn-1027300541927-6906d9a2c142226ae0531b9aa8c04bb6
"ОБЩЕСТВО С ОГРАНИЧЕННОЙ ОТВЕТСТВЕННОСТЬЮ ""РУССКИЙ БЕРЕГ""",ООО РУССКИЙ БЕРЕГ,7325073727,"433463, Ульяновская обл, м.р-н Старомайнский, с.п. Жедяевское, с Успенское, ул Цареградская, зд. 1, офис 1", 54.622848, 48.963295,55.90,Деятельность по предоставлению прочих мест для временного проживания,https://spark-interfax.ru/ulyanovskaya-oblast-staromainski-raion/ooo-russki-bereg-inn-7325073727-ogrn-1077325009948-824b07d914a44be693528f1ffd10b2cf
"ОБЩЕСТВО С ОГРАНИЧЕННОЙ ОТВЕТСТВЕННОСТЬЮ ""АКАДЕМИЯ ДЕТСТВА""",ООО АКАДЕМИЯ ДЕТСТВА,7325156518,"432025, Ульяновская обл., г. Ульяновск, пер. Буинский, д. 1 пом. 39", 54.335255, 48.390711,88.91,Предоставление услуг по дневному уходу за детьми,https://spark-interfax.ru/ulyanovskaya-oblast-ulyanovsk/ooo-akademiya-detstva-inn-7325156518-ogrn-1177325017550-59c49d1c50927957e0531c9aa8c049b6
"ОБЩЕСТВЕННАЯ ОРГАНИЗАЦИЯ ТЕРРИТОРИАЛЬНОГО ОБЩЕСТВЕННОГО САМОУПРАВЛЕНИЯ ""ПОСЕЛКИ"" МУНИЦИПАЛЬНОГО ОБРАЗОВАНИЯ БОЛЬШЕПОСЕЛКОВСКОЕ СЕЛЬСКОЕ ПОСЕЛЕНИЕ КАРСУНСКОГО РАЙОНА УЛЬЯНОВСКОЙ ОБЛАСТИ",ТОС ПОСЕЛКИ,1187325019342,"433230, Ульяновская обл., Карсунский район, с. Большие Поселки, ул. Центральная, владение 271", 54.260816, 46.976490,94.99,"Деятельность прочих общественных организаций и некоммерческих организаций, кроме религиозных и политических организаций",https://spark-interfax.ru/ulyanovskaya-oblast-karsunski-raion/oo-poselki-inn-7309007607-ogrn-1187325019342-7a5c1925b0568b27e0531f9aa8c05424
"ОБЩЕСТВЕННАЯ ОРГАНИЗАЦИЯ ТЕРРИТОРИАЛЬНОЕ ОБЩЕСТВЕННОЕ САМОУПРАВЛЕНИЕ ""НАДЕЖДА"" МУНИЦИПАЛЬНОГО ОБРАЗОВАНИЯ КОРОМЫСЛОВСКОЕ СЕЛЬСКОЕ ПОСЕЛЕНИЕ КУЗОВАТОВСКОГО РАЙОНА УЛЬЯНОВСКОЙ ОБЛАСТИ",ТОС НАДЕЖДА,1177325018530,"433772, Ульяновская обл., Кузоватовский район, с. Смышляевка, ул. Центральная, д. 62", 53.751411, 47.736079,94.99,"Деятельность прочих общественных организаций и некоммерческих организаций, кроме религиозных и политических организаций",https://spark-interfax.ru/ulyanovskaya-oblast-kuzovatovski-raion/tos-nadezhda-inn-7313011596-ogrn-1177325018530-6906d9a325ea226ae0531b9aa8c04bb6
"ОБЩЕСТВО С ОГРАНИЧЕННОЙ ОТВЕТСТВЕННОСТЬЮ ""ДИМИТРОВГРАДСКИЙ ЛИТЕЙНЫЙ ЗАВОД""",ООО ДЛЗ,7329033404,"433513, Ульяновская обл., г. Димитровград, проспект Автостроителей, д. 78 каб. 1228", 54.208533, 49.587108,24.53,Литье легких металлов,https://spark-interfax.ru/ulyanovskaya-oblast-dimitrovgrad/ooo-dlz-inn-7329033404-ogrn-1207300004999-a39cfb0bb8212503e053189aa8c02dcb
"ОБЩЕСТВЕННАЯ ОРГАНИЗАЦИЯ ТЕРРИТОРИАЛЬНОЕ ОБЩЕСТВЕННОЕ САМОУПРАВЛЕНИЕ ""СЕРЕБРИСТЫЙ ЛАНДЫШ"" СЕЛА СТАРЫЕ МАКЛАУШИ МУНИЦИПАЛЬНОГО ОБРАЗОВАНИЯ ""СТАРОМАКЛАУШИНСКОЕ СЕЛЬСКОЕ ПОСЕЛЕНИЕ"" МАЙНСКОГО РАЙОНА УЛЬЯНОВСКОЙ ОБЛАСТИ",ТОС СЕРЕБРИСТЫЙ ЛАНДЫШ,1207300012655,"433141, Ульяновская обл., Майнский район, с. Старые Маклауши, ул. Молодежная, д. 14", 54.461152, 47.451202,94.99,"Деятельность прочих общественных организаций и некоммерческих организаций, кроме религиозных и политических организаций",https://spark-interfax.ru/ulyanovskaya-oblast-mainski-raion/tos-serebristy-landysh-inn-7309008819-ogrn-1207300012655-b1ea322d1ed26cd2e053219aa8c0c229
"ОБЩЕСТВО С ОГРАНИЧЕННОЙ ОТВЕТСТВЕННОСТЬЮ ""МЕРИДИАН АНК""",ООО МЕРИДИАН АНК,7328067129,"432072, Ульяновская обл, г.о. город Ульяновск, г Ульяновск, пр-кт Ленинского Комсомола, д. 38, офис 313", 54.374471, 48.578463,45.31.1,"Торговля оптовая автомобильными деталями, узлами и принадлежностями, кроме деятельности агентов",https://spark-interfax.ru/ulyanovskaya-oblast-ulyanovsk/ooo-meridian-ank-inn-7328067129-ogrn-1127328000689-3c59b6b49e3d4ceca999c32093b5215c
"АКЦИОНЕРНОЕ ОБЩЕСТВО ""СИМБИРСКИЕ КУРОРТЫ""",АО СИМБИРСКИЕ КУРОРТЫ,7325035721,"433341, Ульяновская обл, м.р-н Ульяновский, с.п. Ундоровское, с Ундоры, ул Санаторий им В.И.Ленина, стр. 1, помещ. 305", 54.606441, 48.389443,86.90.4,Деятельность санаторно-курортных организаций,https://spark-interfax.ru/ulyanovskaya-oblast-ulyanovski-raion/ao-simbirskie-kurorty-inn-7325035721-ogrn-1027301174130-cda7f54743b449ca9ec01f9548b7f5c7
"ОБЩЕСТВО С ОГРАНИЧЕННОЙ ОТВЕТСТВЕННОСТЬЮ ""ЭКОФЕРМАРУС""",ООО ЭКОФЕРМАРУС,7329023276,"433560, Ульяновская обл., Новомалыклинский район, с. Новая Малыкла, ул. Садовая 1, пом. 15 д", 54.205066, 49.930843,01.47,Разведение сельскохозяйственной птицы,https://spark-interfax.ru/ulyanovskaya-oblast-novomalyklinski-raion/ooo-ekofermarus-inn-7329023276-ogrn-1167325076016-e473126c882f4b789095f732253221bd
"ОБЩЕСТВЕННАЯ ОРГАНИЗАЦИЯ ТЕРРИТОРИАЛЬНОЕ ОБЩЕСТВЕННОЕ САМОУПРАВЛЕНИЕ ""НАДЕЖДА"" ПОСЁЛКА ЛЕСНАЯ ПОЛЯНА МУНИЦИПАЛЬНОГО ОБРАЗОВАНИЯ ""КАНДАЛИНСКОЕ СЕЛЬСКОЕ ПОСЕЛЕНИЕ"" СТАРОМАЙНСКОГО РАЙОНА УЛЬЯНОВСКОЙ ОБЛАСТИ",ТОС НАДЕЖДА,1197325019077,"433451, Ульяновская обл., Старомайнский район, пос. Лесная Поляна, ул. Парковая, д. 10", 54.569860, 49.270242,94.99,"Деятельность прочих общественных организаций и некоммерческих организаций, кроме религиозных и политических организаций",https://spark-interfax.ru/ulyanovskaya-oblast-staromainski-raion/tos-nadezhda-inn-7329032383-ogrn-1197325019077-99297a2445d018bde053179aa8c0afda
"ОБЩЕСТВО С ОГРАНИЧЕННОЙ ОТВЕТСТВЕННОСТЬЮ ""ИМПЕРИЯ""",ООО ИМПЕРИЯ,7315905447,"433908, Ульяновская обл., Радищевский район, пос. Кубра", 52.977686, 48.283690,47.30,Торговля розничная моторным топливом в специализированных магазинах,https://spark-interfax.ru/ulyanovskaya-oblast-radishchevski-raion/ooo-imperiya-inn-7315905447-ogrn-1077313000390-0dbc7827fc784cfebb9974fa822983f8
"АВТОНОМНАЯ НЕКОММЕРЧЕСКАЯ ОРГАНИЗАЦИЯ - ОРГАНИЗАЦИЯ ДОПОЛНИТЕЛЬНОГО ПРОФЕССИОНАЛЬНОГО ОБРАЗОВАНИЯ ""ПРОФИ-ЦЕНТР""",АНО ПРОФИ-ЦЕНТР,1167300050103,"432071, Ульяновская обл., г. Ульяновск, пер. Молочный, д. 12А", 54.321494, 48.394384,85.41.9,"Образование дополнительное детей и взрослых, не включенное в другие группировки",https://spark-interfax.ru/ulyanovskaya-oblast-ulyanovsk/ano-profi-tsentr-inn-7326051910-ogrn-1167300050103-6906d9a31856226ae0531b9aa8c04bb6
"ОБЩЕСТВО С ОГРАНИЧЕННОЙ ОТВЕТСТВЕННОСТЬЮ ""АК БАРС УЛЬЯНОВСК""",ООО АК БАРС УЛЬЯНОВСК,7329021159,"433590, Ульяновская обл., Новомалыклинский район, с. Эчкаюн, ул. Центральная, домовладение 74", 54.173427, 50.154347,69.10,Деятельность в области права,https://spark-interfax.ru/ulyanovskaya-oblast-novomalyklinski-raion/ooo-ak-bars-ulyanovsk-inn-7329021159-ogrn-1167325055996-bff15be58f104db9bfb7c40adb307728
"ОБЩЕСТВЕННАЯ ОРГАНИЗАЦИЯ ТЕРРИТОРИАЛЬНОЕ ОБЩЕСТВЕННОЕ САМОУПРАВЛЕНИЕ С. ЛАВА СУРСКОГО РАЙОНА УЛЬЯНОВСКОЙ ОБЛАСТИ ""ЛАВИНСКИЕ ПРОСТОРЫ""",ТОС С. ЛАВА ЛАВИНСКИЕ ПРОСТОРЫ,1187325001159,"433248, Ульяновская обл., Сурский район, с. Лава, ул. Хазова, д. 1", 54.478599, 46.904120,94.99,"Деятельность прочих общественных организаций и некоммерческих организаций, кроме религиозных и политических организаций",https://spark-interfax.ru/ulyanovskaya-oblast-surski-raion/tos-lavinskie-prostory-inn-7309007163-ogrn-1187325001159-6906d9a3283c226ae0531b9aa8c04bb6
"ОБЩЕСТВЕННАЯ ОРГАНИЗАЦИЯ ТЕРРИТОРИАЛЬНОЕ ОБЩЕСТВЕННОЕ САМОУПРАВЛЕНИЕ "" ЖДАМИРОВО"" С.ЖДАМИРОВО СУРСКОГО РАЙОНА УЛЬЯНОВСКОЙ ОБЛАСТИ",ТОС ЖДАМИРОВО,1197325000157,"433253, Ульяновская обл., Сурский район, с. Ждамирово, ул. Красная Площадь, д. 4", 54.696826, 46.533497,94.99,"Деятельность прочих общественных организаций и некоммерческих организаций, кроме религиозных и политических организаций",https://spark-interfax.ru/ulyanovskaya-oblast-surski-raion/tos-zhdamirovo-inn-7309007780-ogrn-1197325000157-7f4f20471e2d8b76e0531b9aa8c01fe2
"ОБЩЕСТВО С ОГРАНИЧЕННОЙ ОТВЕТСТВЕННОСТЬЮ ""ЭЛЬБРУС""",ООО ЭЛЬБРУС,7326055784,"432044, Ульяновская обл., г. Ульяновск, ул. Кольцевая, д. 2 офис 1", 54.262077, 48.336589,56.10,Деятельность ресторанов и услуги по доставке продуктов питания,https://spark-interfax.ru/ulyanovskaya-oblast-ulyanovsk/ooo-elbrus-inn-7326055784-ogrn-1177325011786-89da0f57cb9242f7b35987948c7ab4dc
"ОБЩЕСТВЕННАЯ ОРГАНИЗАЦИЯ ТЕРРИТОРИАЛЬНОЕ ОБЩЕСТВЕННОЕ САМОУПРАВЛЕНИЕ ГОРОДА УЛЬЯНОВСКА ""ДАЧНЫЙ""",ТОС ДАЧНЫЙ,1197325019462,"432043, Ульяновская обл., г. Ульяновск, ул. Степная, д. 34", 54.315327, 48.281289,94.99,"Деятельность прочих общественных организаций и некоммерческих организаций, кроме религиозных и политических организаций",https://spark-interfax.ru/ulyanovskaya-oblast-ulyanovsk/oo-dachny-inn-7327093422-ogrn-1197325019462-99b64b09fa760ddae053179aa8c066ec
"ОБЩЕСТВО С ОГРАНИЧЕННОЙ ОТВЕТСТВЕННОСТЬЮ ""АСП ""РОСТОК""",ООО АСП РОСТОК,6317153744,"443042, Самарская обл, г.о. Самара, вн.р-н Куйбышевский, г Самара, ул Белорусская, д. 85, кв. 9", 53.141191, 50.046029,47.79,Торговля розничная бывшими в употреблении товарами в магазинах,https://spark-interfax.ru/samarskaya-oblast-samara/ooo-asp-rostok-inn-6317153744-ogrn-1216300030968-c64463139baf05a9e053219aa8c04ede
"ОБЩЕСТВО С ОГРАНИЧЕННОЙ ОТВЕТСТВЕННОСТЬЮ ""ЛИЛ БАЛЛЕРИН ПОЛЯНА""",ООО ЛИЛ БАЛЛЕРИН ПОЛЯНА,6319245422,"443125, Самарская обл., г. Самара, ул. Ново-Садовая, д. 349А пом. 3", 53.253748, 50.210379,85.41,Образование дополнительное детей и взрослых,https://spark-interfax.ru/samarskaya-oblast-samara/ooo-lil-ballerin-polyana-inn-6319245422-ogrn-1206300014744-9fc344d200b00e87e053189aa8c0446c
"ОБЩЕСТВО С ОГРАНИЧЕННОЙ ОТВЕТСТВЕННОСТЬЮ ""ВОЛГА ИНДУСТРИЯ""",ООО ВОЛГА ИНДУСТРИЯ,6319222464,"443022, Самарская обл., г. Самара, шоссе Заводское, д. 20 офис 133", 53.201164, 50.259739,10.51,Производство молока (кроме сырого) и молочной продукции,https://spark-interfax.ru/samarskaya-oblast-samara/ooo-volga-industriya-inn-6319222464-ogrn-1176313093758-5ca7eba0aca33153e0531c9aa8c0887c
"ОБЩЕСТВО С ОГРАНИЧЕННОЙ ОТВЕТСТВЕННОСТЬЮ МАСЛОЗАВОД ""ПЕСТРАВСКИЙ""",ООО МАСЛОЗАВОД ПЕСТРАВСКИЙ,6375000296,"446160, Самарская обл., Пестравский район, с. Пестравка, ул. Степная, домовладение 7", 52.400160, 49.944164,10.51.1,Производство питьевого молока и питьевых сливок,https://spark-interfax.ru/samarskaya-oblast-pestravski-raion/ooo-pestravski-inn-6375000296-ogrn-1116375000532-29d801b23c52495298bc62a7197f5f02
"ОБЩЕСТВО С ОГРАНИЧЕННОЙ ОТВЕТСТВЕННОСТЬЮ ""СЫРПАК""",ООО СЫРПАК,6318008820,"443052, Самарская обл., г. Самара, ул. Калинина, д. 1 пом. 202", 53.211188, 50.260337,82.92,Деятельность по упаковыванию товаров,https://spark-interfax.ru/samarskaya-oblast-samara/ooo-syrpak-inn-6318008820-ogrn-1156313067657-84ed03d0a26043cca3c7ee2c73c7e696
"ОБЩЕСТВО С ОГРАНИЧЕННОЙ ОТВЕТСТВЕННОСТЬЮ ""ЭКОПЛАСТ""",ООО ЭКОПЛАСТ,6321295646,"445036, Самарская обл., г. Тольятти, ул. Дзержинского, д. 58 офис 311", 53.536800, 49.298304,29.32,Производство прочих комплектующих и принадлежностей для автотранспортных средств,https://spark-interfax.ru/samarskaya-oblast-tolyatti/ooo-ekoplast-inn-6321295646-ogrn-1126320013082-3fbb3942e7a4482b89778022a3765080
"ОБЩЕСТВО С ОГРАНИЧЕННОЙ ОТВЕТСТВЕННОСТЬЮ ""ЛУКОЙЛ-АЭРО-ЗАПАД""",ООО ЛУКОЙЛ-АЭРО-ЗАПАД,6313538285,"443901, Самарская обл, г.о. Самара, вн.р-н Красноглинский, г Самара, тер. Аэропорт Самара, зд. 30", 53.198627, 50.113987,46.71,"Торговля оптовая твердым, жидким и газообразным топливом и подобными продуктами",https://spark-interfax.ru/samarskaya-oblast-samara/ooo-lukoil-aero-zapad-inn-6313538285-ogrn-1116313000484-50ccd7d22d7242ed9bbc07ed92a2718e
"ОБЩЕСТВО С ОГРАНИЧЕННОЙ ОТВЕТСТВЕННОСТЬЮ ""МОЛОЧНЫЙ КОМБИНАТ ПЕРЕЯСЛАВСКИЙ""",ООО МК ПЕРЕЯСЛАВСКИЙ,6319212096,"443022, Самарская обл., г. Самара, шоссе Заводское, д. 20 офис 103", 53.201164, 50.259739,10.51,Производство молока (кроме сырого) и молочной продукции,https://spark-interfax.ru/samarskaya-oblast-samara/ooo-mk-pereyaslavski-inn-6319212096-ogrn-1166313147197-13792d949064494e93fb9228ea26cd7a
"ОБЩЕСТВО С ОГРАНИЧЕННОЙ ОТВЕТСТВЕННОСТЬЮ ""ЗАВОД ПРИБОРНЫХ ПОДШИПНИКОВ""",ООО ЗПП,6367032625,"443072, Самарская обл., г. Самара, тер. 18 Км Московского Шоссе, д. литера 67 ком. 5", 53.198627, 50.113987,28.15.1,Производство шариковых и роликовых подшипников,https://spark-interfax.ru/samarskaya-oblast-samara/ooo-zpp-inn-6367032625-ogrn-1026300769417-5b9879876b334c0c876125611e3f4455
"САДОВОДЧЕСКОЕ НЕКОММЕРЧЕСКОЕ ТОВАРИЩЕСТВО ""БЕРЕЗКА""",СНТ БЕРЕЗКА,1086382002190,"445351, Самарская обл., г. Жигулевск, ул. Оборонная, д. 4 кв. 39", 53.410828, 49.473365,68.32.2,Управление эксплуатацией нежилого фонда за вознаграждение или на договорной основе,https://spark-interfax.ru/samarskaya-oblast-zhigulevsk/berezka-inn-6345018218-ogrn-1086382002190-6906d958e343226ae0531b9aa8c04bb6
"ФОНД ""РЕГИОНАЛЬНЫЙ ЦЕНТР РАЗВИТИЯ ПРЕДПРИНИМАТЕЛЬСТВА САМАРСКОЙ ОБЛАСТИ""",ФОНД ЦЕНТР РАЗВИТИЯ ПРЕДПРИНИМАТЕЛЬСТВА,1116300004061,"443100, Самарская обл, г.о. Самара, вн.р-н Ленинский, г Самара, ул Молодогвардейская, д. 211, этаж 1,2", 53.205257, 50.118826,94.1,Деятельность предпринимательских и профессиональных членских некоммерческих организаций,https://spark-interfax.ru/samarskaya-oblast-samara/fond-tsentr-razvitiya-predprinimatelstva-inn-6315990105-ogrn-1116300004061-6906d95942a6226ae0531b9aa8c04bb6
"ЗАКРЫТОЕ АКЦИОНЕРНОЕ ОБЩЕСТВО ""ХИМСИНТЕЗ""",ЗАО ХИМСИНТЕЗ,6378003182,"446100, Самарская обл., г. Чапаевск, ул. Производственная, зд. 4", 52.976478, 49.716738,20.16,Производство пластмасс и синтетических смол в первичных формах,https://spark-interfax.ru/samarskaya-oblast-chapaevsk/ao-khimsintez-inn-6378003182-ogrn-1026303177108-1a5e3b0ddfe24a808d36bd63836a4861
"АКЦИОНЕРНОЕ ОБЩЕСТВО ""ТОРГОВЫЙ ДОМ АКОМ""",АО ТД АКОМ,6321194140,"445043, Самарская обл, г.о. Тольятти, г Тольятти, ул Коммунальная, д. 16, офис 310", 53.558709, 49.330209,45.31.1,"Торговля оптовая автомобильными деталями, узлами и принадлежностями, кроме деятельности агентов",https://spark-interfax.ru/samarskaya-oblast-tolyatti/ao-td-akom-inn-6321194140-ogrn-1076320021381-ceb38bf437c148a1a66ed023b4ddd4f0
"ОБЩЕСТВО С ОГРАНИЧЕННОЙ ОТВЕТСТВЕННОСТЬЮ ""АВТОТРАНСФОРМАТОР""",ООО АВТОТРАНСФОРМАТОР,6321373742,"445043, Самарская обл., г. Тольятти, ул. Коммунальная, д. 16 офис 118", 53.558709, 49.330209,26.51.5,Производство приборов для контроля прочих физических величин,https://spark-interfax.ru/samarskaya-oblast-tolyatti/ooo-avtotransformator-inn-6321373742-ogrn-1146320035278-8ecd011ddbec49438280b0b1e0590840
"ОБЩЕСТВО С ОГРАНИЧЕННОЙ ОТВЕТСТВЕННОСТЬЮ ""МЕДИА-ЦЕНТР""",ООО МЕДИА-ЦЕНТР,6316089648,"443086, Самарская обл., г. Самара, ул. Ерошевского, д. 3 литера С3 офис 510", 53.216703, 50.158122,58.13,Издание газет,https://spark-interfax.ru/samarskaya-oblast-samara/ooo-media-tsentr-inn-6316089648-ogrn-1046300551934-d968f139494145ac98f77423a199f299
"ОБЩЕСТВО С ОГРАНИЧЕННОЙ ОТВЕТСТВЕННОСТЬЮ ""РЕКЛАМНО-ИНФОРМАЦИОННЫЙ ЦЕНТР""",ООО РЕКЛАМНО-ИНФОРМАЦИОННЫЙ ЦЕНТР,6316081504,"443086, Самарская обл., г. Самара, ул. Ерошевского, д. 3 литера С3 офис 509", 53.216703, 50.158122,58.13,Издание газет,https://spark-interfax.ru/samarskaya-oblast-samara/ooo-reklamno-informatsionny-tsentr-inn-6316081504-ogrn-1036300553255-7af40209cac343a5ab9a1001ade0bdf8
"ОБЩЕСТВО С ОГРАНИЧЕННОЙ ОТВЕТСТВЕННОСТЬЮ ""ЛАДУГА""",ООО ЛАДУГА,6321369143,"445043, Самарская обл, г.о. Тольятти, г Тольятти, ш Южное, д. 161, ком. 89", 53.556631, 49.216714,72.19,Научные исследования и разработки в области естественных и технических наук прочие,https://spark-interfax.ru/samarskaya-oblast-tolyatti/ooo-laduga-inn-6321369143-ogrn-1146320022551-365e897a87264b4ea94776b1b059f88d
"ОБЩЕСТВО С ОГРАНИЧЕННОЙ ОТВЕТСТВЕННОСТЬЮ ""ИНФОРМАЦИОННЫЕ ТЕХНОЛОГИИ""",ООО ИНФОРМАЦОННЫЕ ТЕХНОЛОГИИ,6372022767,"446303, Самарская обл., г. Отрадный, ул. Гагарина, д. 4", 53.373489, 51.326287,62.01,Разработка компьютерного программного обеспечения,https://spark-interfax.ru/samarskaya-oblast-otradny/ooo-informatsonnye-tekhnologii-inn-6372022767-ogrn-1156313007828-a11e438c6a4c400c80238b9b69429807
"ОБЩЕСТВО С ОГРАНИЧЕННОЙ ОТВЕТСТВЕННОСТЬЮ ""СОВРЕМЕННЫЕ СИСТЕМЫ РЕАБИЛИТАЦИИ""",ООО СОВРЕМЕННЫЕ СИСТЕМЫ РЕАБИЛИТАЦИИ,6316171349,"443100, Самарская обл, г.о. Самара, вн.р-н Октябрьский, г Самара, ул Невская, д. 3, офис 204", 53.210432, 50.125708,46.46,Торговля оптовая фармацевтической продукцией,https://spark-interfax.ru/samarskaya-oblast-samara/ooo-sovremennye-sistemy-reabilitatsii-inn-6316171349-ogrn-1126316000546-ab5c042bb2e0401e90a6885e211da964
"ОБЩЕСТВО С ОГРАНИЧЕННОЙ ОТВЕТСТВЕННОСТЬЮ ""ЦЕНТР ИНТЕЛЛЕКТУАЛЬНОГО РАЗВИТИЯ И КОНСУЛЬТИРОВАНИЯ""",ООО ЦИРКОН,6317088855,"443099, Самарская обл., г. Самара, ул. Степана Разина, д. 98 стр. 1 ком. 5", 53.187894, 50.086302,85.42,Образование профессиональное дополнительное,https://spark-interfax.ru/samarskaya-oblast-samara/ooo-tsirkon-inn-6317088855-ogrn-1116317006871-8eb5683d58da4db791907029051c8cdd
"ОБЩЕСТВО С ОГРАНИЧЕННОЙ ОТВЕТСТВЕННОСТЬЮ ""СВЕТОФОР""",ООО СВЕТОФОР,6321269460,"445056, Самарская обл., г. Тольятти, ул. 40 Лет Победы, д. 61Б кв. 37", 53.524073, 49.335017,46.90,Торговля оптовая неспециализированная,https://spark-interfax.ru/samarskaya-oblast-tolyatti/ooo-svetofor-inn-6321269460-ogrn-1116320008749-a9b87f0217d04a6693f82e19039066ea
"ОБЩЕСТВО С ОГРАНИЧЕННОЙ ОТВЕТСТВЕННОСТЬЮ ""СПЕЦПОШИВ""",ООО СПЕЦПОШИВ,6387004457,"446723, Самарская обл., Шигонский район, с. Новодевичье, ул. Колхозная, д. 50В", 53.607329, 48.844037,13.99,"Производство прочих текстильных изделий, не включенных в другие группировки",https://spark-interfax.ru/samarskaya-oblast-shigonski-raion/ooo-spetsposhiv-inn-6387004457-ogrn-1026303063225-26dadb5ab8ad46a18ec0a6b9e36ba72e
"ОБЩЕСТВО С ОГРАНИЧЕННОЙ ОТВЕТСТВЕННОСТЬЮ ""ВР ПОВОЛЖЬЕ""",ООО ВР ПОВОЛЖЬЕ,6316280299,"443011, Самарская обл, г.о. Самара, вн.р-н Октябрьский, г Самара, ул Ново-Садовая, д. 215Б, помещ. Н2", 53.225297, 50.173842,93.29.9,"Деятельность зрелищно-развлекательная прочая, не включенная в другие группировки",https://spark-interfax.ru/samarskaya-oblast-samara/ooo-vr-povolzhe-inn-6316280299-ogrn-1226300031649-e4854403bb7e2222e053259aa8c027ea
"ОБЩЕСТВО С ОГРАНИЧЕННОЙ ОТВЕТСТВЕННОСТЬЮ ""НОВОЕ ПОКОЛЕНИЕ""",ООО НОВОЕ ПОКОЛЕНИЕ,6324087796,"445030, Самарская обл., г. Тольятти, бульвар Цветной, д. 19 кв. 84", 53.536162, 49.338770,85.42,Образование профессиональное дополнительное,https://spark-interfax.ru/samarskaya-oblast-tolyatti/ooo-novoe-pokolenie-inn-6324087796-ogrn-1176313111468-610e7370a0d78bfee0531b9aa8c0cfad
"САМАРСКАЯ РЕГИОНАЛЬНАЯ ОБЩЕСТВЕННАЯ ОРГАНИЗАЦИЯ ПОДДЕРЖКИ И РАЗВИТИЯ ОБЩЕСТВА В СОЦИАЛЬНОЙ СФЕРЕ ""МЕГАНТЕКА""",СРОО МЕГАНТЕКА,1156300000570,"446031, Самарская обл., г. Сызрань, ул. Звездная, д. 28 кв. 13", 53.116632, 48.399074,94.99,"Деятельность прочих общественных организаций и некоммерческих организаций, кроме религиозных и политических организаций",https://spark-interfax.ru/samarskaya-oblast-syzran/oo-meganteka-inn-6325065650-ogrn-1156300000570-6906d959b83d226ae0531b9aa8c04bb6
"МЕСТНАЯ ОБЩЕСТВЕННАЯ ОРГАНИЗАЦИЯ ""ФЕДЕРАЦИЯ КИКБОКСИНГА ГОРОДСКОГО ОКРУГА КИНЕЛЬ""",МОО ФЕДЕРАЦИЯ КИКБОКСИНГА ГОРОДСКОГО ОКРУГА КИНЕЛЬ,1216300044146,"446430, Самарская обл, г.о. Кинель, г Кинель, ул Фестивальная, д. 2Б, кв. 296", 53.212161, 50.644199,94.99,"Деятельность прочих общественных организаций и некоммерческих организаций, кроме религиозных и политических организаций",https://spark-interfax.ru/samarskaya-oblast-kinel/oo-federatsiya-kikboksinga-gorodskogo-okruga-kinel-inn-6350028719-ogrn-1216300044146-ccde2dc1fefd2b86e053219aa8c0914f
"ГОСУДАРСТВЕННОЕ БЮДЖЕТНОЕ ОБЩЕОБРАЗОВАТЕЛЬНОЕ УЧРЕЖДЕНИЕ САМАРСКОЙ ОБЛАСТИ СРЕДНЯЯ ОБЩЕОБРАЗОВАТЕЛЬНАЯ ШКОЛА ""ОБРАЗОВАТЕЛЬНЫЙ ЦЕНТР"" ИМЕНИ ЗОЛОТАРЕВА ПЕТРА ИВАНОВИЧА С. ЛЕТНИКОВО МУНИЦИПАЛЬНОГО РАЙОНА АЛЕКСЕЕВСКИЙ САМАРСКОЙ ОБЛАСТИ",ГБОУ СОШ С. ЛЕТНИКОВО,1116377000486,"446650, Самарская обл., Алексеевский район, с. Летниково, ул. Захара Вобликова, д. 150", 52.540701, 50.991784,85.14,Образование среднее общее,https://spark-interfax.ru/samarskaya-oblast-alekseevski-raion/gbu-gbou-sosh-s-letnikovo-inn-6377015121-ogrn-1116377000486-6906d9594c9d226ae0531b9aa8c04bb6
"ОБЩЕСТВО С ОГРАНИЧЕННОЙ ОТВЕТСТВЕННОСТЬЮ ""САД""",ООО САД,6380000020,"445556, Самарская обл., Приволжский район, пос. Садовый, ул. Вишневая, д. 7", 52.906964, 48.606201,01.25.1,Выращивание прочих плодовых и ягодных культур,https://spark-interfax.ru/samarskaya-oblast-privolzhski-raion/ooo-sad-inn-6380000020-ogrn-1026303886839-26ebddeb07b840c5baf9403f77ebcc2a
"КРЕСТЬЯНСКОЕ (ФЕРМЕРСКОЕ) ХОЗЯЙСТВО ""ЯГОДКА""",КФХ ЯГОДКА,1236300011078,"445145, Самарская обл, м.р-н Ставропольский, с.п. Луначарский, п Луначарский, ул Злобина, д. 20А", 53.666590, 49.069249,01.25.1,Выращивание прочих плодовых и ягодных культур,https://spark-interfax.ru/samarskaya-oblast-stavropolski-raion/kfkh-yagodka-inn-6382096285-ogrn-1236300011078-fa85e794354b60aae053259aa8c0afc5
"ОБЩЕСТВО С ОГРАНИЧЕННОЙ ОТВЕТСТВЕННОСТЬЮ ""СЕМЕННАЯ ТЕХНОЛОГИЧЕСКАЯ КОМПАНИЯ 21""",ООО СТК 21,2110001593,"429040, Чувашская Республика - Чувашия, Красночетайский район, с. Красные Четаи, ул. Придорожная, д. 2 пом. 6", 55.697149, 46.165559,01.11,"Выращивание зерновых (кроме риса), зернобобовых культур и семян масличных культур",https://spark-interfax.ru/chuvashskaya-respublika-chuvashiya-krasnochetaiski-raion/ooo-stk-inn-2110001593-ogrn-1172130000228-a1b5510aebd641c285aa9825c48f3506
"ОБЩЕСТВО С ОГРАНИЧЕННОЙ ОТВЕТСТВЕННОСТЬЮ ""ВЕНТИЛЯЦИОННЫЙ ЗАВОД ""РОТАДО""",ООО ВЕНТИЛЯЦИОННЫЙ ЗАВОД РОТАДО,2130177034,"428003, Чувашская Республика - Чувашия, г.о. город Чебоксары, г Чебоксары, пр-кт Московский, д. 38, к. 1, кв. 68", 56.146869, 47.216698,25.11,"Производство строительных металлических конструкций, изделий и их частей",https://spark-interfax.ru/chuvashskaya-respublika-chuvashiya-cheboksary/ooo-ventilyatsionny-zavod-rotado-inn-2130177034-ogrn-1162130064030-60c4d7af81f64e1a8c875693bdd3990a
"ОБЩЕСТВО С ОГРАНИЧЕННОЙ ОТВЕТСТВЕННОСТЬЮ ""АГРОФИРМА ""АТЛАШЕВСКАЯ""",ООО АГРОФИРМА АТЛАШЕВСКАЯ,2116498068,"429509, Чувашская Республика - Чувашия, м.о. Чебоксарский, п Новое Атлашево, ул Промышленная, д. 3, помещ. 2", 56.014123, 47.558910,56.29,Деятельность предприятий общественного питания по прочим видам организации питания,https://spark-interfax.ru/chuvashskaya-respublika-chuvashiya-cheboksarski-raion/ooo-agrofirma-atlashevskaya-inn-2116498068-ogrn-1082135000276-f01a7a005bc244b2b71fdb85f0f359d0
"ОБЩЕСТВО С ОГРАНИЧЕННОЙ ОТВЕТСТВЕННОСТЬЮ ""АЛИКОВСКИЙ ПЛОДОКОМБИНАТ АЛИКОВСКОГО РАЙОННОГО ПОТРЕБИТЕЛЬСКОГО ОБЩЕСТВА """,ООО АЛИКОВСКИЙ ПЛОДОКОМБИНАТ АЛИКОВСКОГО РАЙПО,2102000300,"429250, Чувашская Республика - Чувашия, Аликовский район, с. Аликово, ул. Пушкина, д. 18", 55.739376, 46.746534,10.61.3,Производство крупы и гранул из зерновых культур,https://spark-interfax.ru/chuvashskaya-respublika-chuvashiya-alikovski-raion/ooo-alikovski-plodokombinat-alikovskogo-raipo-inn-2102000300-ogrn-1022102028552-b5bae060757f4af38ef0e950bcc26c31
"ОБЩЕСТВО С ОГРАНИЧЕННОЙ ОТВЕТСТВЕННОСТЬЮ ""ВЕРДИ""",ООО ВЕРДИ,2130140845,"428034, Чувашская Республика - Чувашия, г.о. город Чебоксары, г Чебоксары, ул Т.Кривова, д. 12А, кв. 17", 56.147202, 47.192695,47.53.2,"Торговля розничная портьерами, тюлевыми занавесями в специализированных магазинах",https://spark-interfax.ru/chuvashskaya-respublika-chuvashiya-cheboksary/ooo-verdi-inn-2130140845-ogrn-1142130010010-b97af8f01f5e42a6a19874bff34160e4
"ОБЩЕСТВО С ОГРАНИЧЕННОЙ ОТВЕТСТВЕННОСТЬЮ ""ПРАЙМ ЛОГИСТИК""",ООО ПРАЙМ ЛОГИСТИК,2100008631,"428034, Чувашская Республика - Чувашия, г.о. город Чебоксары, г Чебоксары, ул Васильковая, д. 18", 56.141760, 47.155352,49.41,Деятельность автомобильного грузового транспорта,https://spark-interfax.ru/chuvashskaya-respublika-chuvashiya-cheboksary/ooo-praim-logistik-inn-2100008631-ogrn-1232100005147-011fb235c8381d07e063259aa8c0e2b9
"АКЦИОНЕРНОЕ ОБЩЕСТВО ""МОРГАУШСКИЙ КИРПИЧНЫЙ ЗАВОД""",АО МКЗ,2112000997,"429530, Чувашская Республика - Чувашия, Моргаушский район, с. Моргауши, ул. Восточная, д. 1", 55.979060, 46.799727,23.32,"Производство кирпича, черепицы и прочих строительных изделий из обожженной глины",https://spark-interfax.ru/chuvashskaya-respublika-chuvashiya-morgaushski-raion/ao-mkz-inn-2112000997-ogrn-1022102629680-ea1953b4d96746a0b5a30cb6f18afa07
"ОБЩЕСТВО С ОГРАНИЧЕННОЙ ОТВЕТСТВЕННОСТЬЮ ""ЭЛМЕХПРО""",ООО ЭЛМЕХПРО,2130203478,"428000, Чувашская Республика - Чувашия, г.о. город Чебоксары, г Чебоксары, пр-д Машиностроителей, зд. 1, стр. 15", 56.125105, 47.309336,27.12,Производство электрической распределительной и регулирующей аппаратуры,https://spark-interfax.ru/chuvashskaya-respublika-chuvashiya-cheboksary/ooo-elmekhpro-inn-2130203478-ogrn-1182130008620-7335214717e00975e0531b9aa8c06631
"ОБЩЕСТВО С ОГРАНИЧЕННОЙ ОТВЕТСТВЕННОСТЬЮ ""НАУЧНО-ПРОИЗВОДСТВЕННАЯ ФИРМА ""МЕТАЛЛИКА""",ООО НПФ МЕТАЛЛИКА,2130005437,"428003, Чувашская Республика - Чувашия, г.о. город Чебоксары, г Чебоксары, ул Пристанционная, д. 7, помещ. 3, к. 6", 56.099184, 47.252779,25.62,Обработка металлических изделий механическая,https://spark-interfax.ru/chuvashskaya-respublika-chuvashiya-cheboksary/ooo-npf-metallika-inn-2130005437-ogrn-1062130008368-3f939762fa1f4509b92245760536cd7e
"ЗАКРЫТОЕ АКЦИОНЕРНОЕ ОБЩЕСТВО ""ПРОГРЕСС"" ЧЕБОКСАРСКОГО РАЙОНА",ЗАО ПРОГРЕСС ЧЕБОКСАРСКОГО РАЙОНА,2116480014,"429523, Чувашская Республика - Чувашия, Чебоксарский район, д. Яныши, ул. Центральная, д. 14", 55.924110, 46.960546,01.46,Разведение свиней,https://spark-interfax.ru/chuvashskaya-respublika-chuvashiya-cheboksarski-raion/ao-progress-cheboksarskogo-raiona-inn-2116480014-ogrn-1022102430723-3dbffb598f864ba0acbf00548b4b7bac
"ОБЩЕСТВО С ОГРАНИЧЕННОЙ ОТВЕТСТВЕННОСТЬЮ ""АГРОФИРМА""ЗАРЯ""",ООО АГРОФИРМАЗАРЯ,2105006010,"429721, Чувашская Республика - Чувашия, Ибресинский район, пос. Малиновка, ул. Лесная, д. 26", 55.119184, 47.141655,01.41,"Разведение молочного крупного рогатого скота, производство сырого молока",https://spark-interfax.ru/chuvashskaya-respublika-chuvashiya-ibresinski-raion/ooo-agrofirmazarya-inn-2105006010-ogrn-1162130054558-5b7cee0daee245a788afbed4c3a58a7b
"ОБЩЕСТВО С ОГРАНИЧЕННОЙ ОТВЕТСТВЕННОСТЬЮ ""ТРАНСЭН""",ООО ТРАНСЭН,2130114517,"429045, Чувашская Республика - Чувашия, м.о. Красночетайский, д Питишево, ул Заречная, двлд. 29", 55.753551, 46.056595,01.41,"Разведение молочного крупного рогатого скота, производство сырого молока",https://spark-interfax.ru/chuvashskaya-respublika-chuvashiya-krasnochetaiski-raion/ooo-transen-inn-2130114517-ogrn-1132130001211-4b5dd0735717425191164731d527397f
"ОБЩЕСТВО С ОГРАНИЧЕННОЙ ОТВЕТСТВЕННОСТЬЮ ""АГРО-ДЕЛО""",ООО АГРО-ДЕЛО,7313007487,"433871, Ульяновская обл., Новоспасский район, рабочий пос. Новоспасское, пос. Сельхозтехники, д. 3", 53.134044, 47.782239,01.11,"Выращивание зерновых (кроме риса), зернобобовых культур и семян масличных культур",https://spark-interfax.ru/ulyanovskaya-oblast-novospasski-raion/ooo-agro-delo-inn-7313007487-ogrn-1127313000165-e1fa2f425f9c496195e133d8ee96e966
АДМИНИСТРАЦИЯ СЕМЕНОВСКОГО СЕЛЬСКОГО ПОСЕЛЕНИЯ,АДМИНИСТРАЦИЯ СЕМЕНОВСКОГО СЕЛЬСКОГО ПОСЕЛЕНИЯ,1052138008075,"429024, Чувашская Республика - Чувашия, Порецкий район, с. Семеновское, ул. Азина, д. 6", 55.198945, 46.326184,84.11.35,Деятельность органов местного самоуправления городских округов,https://spark-interfax.ru/chuvashskaya-respublika-chuvashiya-poretski-raion/mku-administratsiya-semenovskogo-selskogo-poseleniya-inn-2113003422-ogrn-1052138008075-6906d9b1ba6a226ae0531b9aa8c04bb6
"ОБЩЕСТВО С ОГРАНИЧЕННОЙ ОТВЕТСТВЕННОСТЬЮ ""ГЕЯ""",ООО ГЕЯ,2112390433,"429530, Чувашская Республика - Чувашия, Моргаушский район, с. Моргауши, ул. Гагарина, зд. 2 офис 6", 55.969086, 46.772121,01.1,Выращивание однолетних культур,https://spark-interfax.ru/chuvashskaya-respublika-chuvashiya-morgaushski-raion/ooo-geya-inn-2112390433-ogrn-1082136000165-547bdd7d98cf403c8c0b4f217d6517b7
СОБРАНИЕ ДЕПУТАТОВ ШАЙМУРЗИНСКОГО СЕЛЬСКОГО ПОСЕЛЕНИЯ БАТЫРЕВСКОГО РАЙОНА ЧУВАШСКОЙ РЕСПУБЛИКИ,СОБРАНИЕ ДЕПУТАТОВ ШАЙМУРЗИНСКОГО СЕЛЬСКОГО ПОСЕЛЕНИЯ БАТЫРЕВСКОГО РАЙОНА ЧУВАШСКОЙ РЕСПУБЛИКИ,1052132012833,"429367, Чувашская Республика - Чувашия, Батыревский район, д. Шаймурзино, ул. Николаева, д. 2", 55.024419, 47.374215,84.11.35,Деятельность органов местного самоуправления городских округов,https://spark-interfax.ru/chuvashskaya-respublika-chuvashiya-batyrevski-raion/mku-sobranie-deputatov-shaimurzinskogo-selskogo-poseleniya-batyrevskogo-raiona-chuvashskoi-respubliki-inn-21039-6906d9b1cd34226ae0531b9aa8c04bb6
