Название,Название Кратко,ИНН,адрес,lat,lon,Код оквэд,Основной вид деятельности,Ссылка
"ГОСУДАРСТВЕННОЕ БЮДЖЕТНОЕ ПРОФЕССИОНАЛЬНОЕ ОБРАЗОВАТЕЛЬНОЕ УЧРЕЖДЕНИЕ РЕСПУБЛИКИ МОРДОВИЯ ""ТОРБЕЕВСКИЙ КОЛЛЕДЖ МЯСНОЙ И МОЛОЧНОЙ ПРОМЫШЛЕННОСТИ ИМ. Ю.В. ТУТУКОВА""",ГБПОУ РМ ТОРБЕЕВСКИЙ КОЛЛЕДЖ МЯСНОЙ И МОЛОЧНОЙ ПРОМЫШЛЕННОСТИ ИМ. Ю.В. ТУТУКОВА,1021300659841,"431030, Мордовия респ., Торбеевский район, рабочий пос. Торбеево, ул. Студенческая, д. 45", 54.077646, 43.241006,85.21,Образование профессиональное среднее,https://spark-interfax.ru/mordoviya-respublika-torbeevski-raion/gbu-torbeevski-kolledzh-myasnoi-i-molochnoi-promyshlennosti-im-yu-v-tutukova-inn-1321016597-ogrn-1021300659841-6906d9ac9b9b226ae0531b9aa8c04bb6
"ОБЩЕСТВО С ОГРАНИЧЕННОЙ ОТВЕТСТВЕННОСТЬЮ ""ПАРУШ""",ООО ПАРУШ,1328003710,"430904, Мордовия респ., г. Саранск, рабочий пос. Ялга, ул. Пионерская, д. 12", 54.118279, 45.117669,33.12,Ремонт машин и оборудования,https://spark-interfax.ru/mordoviya-respublika-saransk/ooo-parush-inn-1328003710-ogrn-1111328000629-8a601da193b54f1187c0f5fa633d4a5f
"ОБЩЕСТВО С ОГРАНИЧЕННОЙ ОТВЕТСТВЕННОСТЬЮ ""ОРБИТА СТРОЙПРОЕКТ""",ООО ОРБИТА СТРОЙПРОЕКТ,1328010033,"430904, Мордовия респ., г. Саранск, рабочий пос. Ялга, ул. Пионерская, д. 12", 54.118279, 45.117669,25.11,"Производство строительных металлических конструкций, изделий и их частей",https://spark-interfax.ru/mordoviya-respublika-saransk/ooo-orbita-stroiproekt-inn-1328010033-ogrn-1141328001814-28e4b1b8bfdc45b585d11a6468c8e866
"ОБЩЕСТВО С ОГРАНИЧЕННОЙ ОТВЕТСТВЕННОСТЬЮ ""АС ЛИДЕР-ПРОФМОНТАЖ""",ООО АС ЛИДЕР-ПРОФМОНТАЖ,1327011002,"430005, Мордовия респ., г. Саранск, ул. Советская, д. 105 ""А"" ПКГО ""БОТЕВГРАД"" блок А", 54.181982, 45.168480,43.2,"Производство электромонтажных, санитарно-технических и прочих строительно-монтажных работ",https://spark-interfax.ru/mordoviya-respublika-saransk/ooo-as-lider-profmontazh-inn-1327011002-ogrn-1101327001302-5d0c2e45d96745aca4bad98113ec3bfe
"ОБЩЕСТВО С ОГРАНИЧЕННОЙ ОТВЕТСТВЕННОСТЬЮ ""САТЕЛЛИТ""",ООО САТЕЛЛИТ,1307000250,"431370, Мордовия респ., Ельниковский район, с. Ельники, пл. 1 Мая, д. 2", 54.620832, 43.867099,47.11,"Торговля розничная преимущественно пищевыми продуктами, включая напитки, и табачными изделиями в неспециализированных магазинах",https://spark-interfax.ru/mordoviya-respublika-elnikovski-raion/ooo-satellit-inn-1307000250-ogrn-1061314009030-735ffbfa594d44719fdbc101e8de8d74
"ОБЩЕСТВО С ОГРАНИЧЕННОЙ ОТВЕТСТВЕННОСТЬЮ ""ХЛЕБОЗАВОД""",ООО ХЛЕБОЗАВОД,1307077774,"431370, Мордовия Респ, м.р-н Ельниковский, с.п. Ельниковское, с Ельники, ул Толстого, д. 4", 54.625758, 43.874476,10.71,"Производство хлеба и мучных кондитерских изделий, тортов и пирожных недлительного хранения",https://spark-interfax.ru/mordoviya-respublika-elnikovski-raion/ooo-khlebozavod-inn-1307077774-ogrn-1041308003043-c903b9d56ebf4f1abd9a1214eeda4869
"ОБЩЕСТВО С ОГРАНИЧЕННОЙ ОТВЕТСТВЕННОСТЬЮ ""ЛЕСОПРОИЗВОДСТВЕННАЯ БАЗА""",ООО ЛЕСОПРОИЗВОДСТВЕННАЯ БАЗА,1300001582,"431658, Мордовия Респ, м.р-н Ичалковский, с.п. Рождественно-Баевское, с Рождествено, ул Победы, д. 12", 54.682263, 45.285889,16.10,Распиловка и строгание древесины,https://spark-interfax.ru/mordoviya-respublika-ichalkovski-raion/ooo-lesoproizvodstvennaya-baza-inn-1300001582-ogrn-1221300003000-e6b88794d46c2735e053259aa8c0e7f2
"СЕЛЬСКОХОЗЯЙСТВЕННЫЙ СНАБЖЕНЧЕСКИЙ СБЫТОВОЙ ПЕРЕРАБАТЫВАЮЩИЙ ПОТРЕБИТЕЛЬСКИЙ КООПЕРАТИВ ""ГРАД-АТЕРЬ""",СССППК ГРАД-АТЕРЬ,1221300002330,"431050, Мордовия Респ, м.р-н Атюрьевский, с.п. Атюрьевское, с Атюрьево, ул Московская, д. 49", 54.309941, 43.323747,10.12,Производство и консервирование мяса птицы,https://spark-interfax.ru/mordoviya-respublika-atyurevski-raion/koop-grad-ater-inn-1300000910-ogrn-1221300002330-e2ded158850068d5e053259aa8c0cecf
"СЕЛЬСКОХОЗЯЙСТВЕННЫЙ ПРОИЗВОДСТВЕННЫЙ КООПЕРАТИВ ""НУР""",СПК НУР,1316198285,"431613, Мордовия респ., Ромодановский район, с. Алтары, ул. Октябрьская, д. 40", 54.374683, 45.341881,01.41,"Разведение молочного крупного рогатого скота, производство сырого молока",https://spark-interfax.ru/mordoviya-respublika-romodanovski-raion/koop-nur-inn-1316198285-ogrn-1101310000142-617889a8489a7e1ce0531b9aa8c027ab
"ОБЩЕСТВО С ОГРАНИЧЕННОЙ ОТВЕТСТВЕННОСТЬЮ ""ГАЛИНА""",ООО ГАЛИНА,1304070499,"431730, Мордовия респ., Большеберезниковский район, с. Судосево, ул. Советская, д. 1А", 54.154184, 45.816928,47.11,"Торговля розничная преимущественно пищевыми продуктами, включая напитки, и табачными изделиями в неспециализированных магазинах",https://spark-interfax.ru/mordoviya-respublika-bolshebereznikovski-raion/ooo-galina-inn-1304070499-ogrn-1061322024136-449b2268396a41e9a39f96c9fd309f67
"ОБЩЕСТВО С ОГРАНИЧЕННОЙ ОТВЕТСТВЕННОСТЬЮ ""ЦЕНТР ЭКСПЕРТИЗЫ И ОЦЕНКИ""",ООО ЦЭО,5258115260,"603076, Нижегородская обл., г. Нижний Новгород, проспект Ленина, д. 36 офис 101", 56.284839, 43.929671,68.31.5,Предоставление посреднических услуг при оценке недвижимого имущества за вознаграждение или на договорной основе,https://spark-interfax.ru/nizhegorodskaya-oblast-nizhni-novgorod/ooo-tseo-inn-5258115260-ogrn-1145258002911-7fcb402289414f78b7a01bd18ae38a06
"ОБЩЕСТВО С ОГРАНИЧЕННОЙ ОТВЕТСТВЕННОСТЬЮ ""АВТО-ГРУЗ""",ООО АВТО-ГРУЗ,5047261913,"141701, Московская обл, г.о. Долгопрудный, г Долгопрудный, проезд Лихачевский, д. 6, этаж 1", 55.921697, 37.514007,49.41,Деятельность автомобильного грузового транспорта,https://spark-interfax.ru/moskovskaya-oblast-dolgoprudny/ooo-avto-gruz-inn-5047261913-ogrn-1225000026569-db2b64e253736340e053259aa8c0b7ff
"ОБЩЕСТВО С ОГРАНИЧЕННОЙ ОТВЕТСТВЕННОСТЬЮ ""СТРОЙКОМПЛЕКС""",ООО СТРОЙКОМПЛЕКС,1311088842,"431900, Мордовия респ., рабочий пос. Кадошкино, проезд Железнодорожный, д. 7", 54.025089, 44.433518,41.2,Строительство жилых и нежилых зданий,https://spark-interfax.ru/mordoviya-respublika-kadoshkinski-raion/ooo-stroikompleks-inn-1311088842-ogrn-1081323000175-617889a8447e7e1ce0531b9aa8c027ab
"ЧАМЗИНСКАЯ РАЙОННАЯ ОБЩЕСТВЕННАЯ ОРГАНИЗАЦИЯ ОХОТНИКОВ И РЫБОЛОВОВ ""САПСАН"" РЕСПУБЛИКИ МОРДОВИЯ",ЧАМЗИНСКАЯ РАЙОННАЯ ОБЩЕСТВЕННАЯ ОРГАНИЗАЦИЯ ОХОТНИКОВ И РЫБОЛОВОВ САПСАН РЕСПУБЛИКИ МОРДОВИЯ,1091300001220,"431700, Мордовия респ., рабочий пос. Чамзинка, ул. Нижняя, д. 23 кв. 48", 54.402257, 45.767191,94.99,"Деятельность прочих общественных организаций и некоммерческих организаций, кроме религиозных и политических организаций",https://spark-interfax.ru/mordoviya-respublika-chamzinski-raion/oo-sapsan-respubliki-mordoviya-inn-1322122397-ogrn-1091300001220-6906d9acb9c6226ae0531b9aa8c04bb6
"ОБЩЕСТВО С ОГРАНИЧЕННОЙ ОТВЕТСТВЕННОСТЬЮ ""МЕДШИП""",ООО МЕДШИП,7721818652,"105082, г. Москва, пл. Спартаковская, д. 14 стр. 1 этаж /П/К/ офис 1/4/1/3", 55.777004, 37.679710,47.74,"Торговля розничная изделиями, применяемыми в медицинских целях, ортопедическими изделиями в специализированных магазинах",https://spark-interfax.ru/moskva-basmanny/ooo-medship-inn-7721818652-ogrn-1147746007265-41ad56b33f8a43d1bc8d5ce3c55d4a86
"ОБЩЕСТВО С ОГРАНИЧЕННОЙ ОТВЕТСТВЕННОСТЬЮ ""СТРОЙИНВЕСТ""",ООО СТРОЙИНВЕСТ,1314001247,"431261, Мордовия респ., Краснослободский район, г. Краснослободск, пер. Больничный, д. 8", 54.430463, 43.783943,10.51,Производство молока (кроме сырого) и молочной продукции,https://spark-interfax.ru/mordoviya-respublika-krasnoslobodski-raion/ooo-stroiinvest-inn-1314001247-ogrn-1091314000238-b95c4edf3321427b8e06e86a2b86f46b
"СЕЛЬСКОХОЗЯЙСТВЕННЫЙ ПОТРЕБИТЕЛЬСКИЙ ПЕРЕРАБАТЫВАЮЩИЙ СНАБЖЕНЧЕСКО-СБЫТОВОЙ КООПЕРАТИВ ""ЛЕЗДАМО""",СППССК ЛЕЗДАМО,1171326001274,"431501, Мордовия Респ, м.р-н Лямбирский, с.п. Лямбирское, с Черемишево, ул Складской проезд, зд. 2, офис 1", 54.263543, 45.082136,10.91,"Производство готовых кормов для животных, содержащихся на фермах",https://spark-interfax.ru/mordoviya-respublika-lyambirski-raion/koop-lezdamo-inn-1328014430-ogrn-1171326001274-6906d9accdf4226ae0531b9aa8c04bb6
"СЕЛЬСКОХОЗЯЙСТВЕННЫЙ ПОТРЕБИТЕЛЬСКИЙ ПЕРЕРАБАТЫВАЮЩИЙ СНАБЖЕНЧЕСКО-СБЫТОВОЙ КООПЕРАТИВ ""АГРОСУРА""",СППССК АГРОСУРА,1211300002132,"431586, Мордовия Респ, м.р-н Кочкуровский, с.п. Сабаевское, с Сабаево, ул Крупской, д. 72", 53.992897, 45.715782,10.91,"Производство готовых кормов для животных, содержащихся на фермах",https://spark-interfax.ru/mordoviya-respublika-kochkurovski-raion/koop-agrosura-inn-1313000650-ogrn-1211300002132-c1dddbf732082b0ae053219aa8c03eb5
"ОБЩЕСТВО С ОГРАНИЧЕННОЙ ОТВЕТСТВЕННОСТЬЮ ""ОСТ КЛИНКЕР""",ООО ОСТ КЛИНКЕР,1307001493,"431370, Мордовия респ., Ельниковский район, с. Ельники, ул. Строителей, д. 17А", 54.620689, 43.875977,23.32,"Производство кирпича, черепицы и прочих строительных изделий из обожженной глины",https://spark-interfax.ru/mordoviya-respublika-elnikovski-raion/ooo-ost-klinker-inn-1307001493-ogrn-1191326003615-8b68958b993619ffe0531c9aa8c030b8
"ОБЩЕСТВО С ОГРАНИЧЕННОЙ ОТВЕТСТВЕННОСТЬЮ ""ШИШКАНОВ""",ООО ШИШКАНОВ,1318000501,"431540, Мордовия респ., Старошайговский район, с. Старое Шайгово, ул. Рабочая, д. 6", 54.304797, 44.466547,01.29,Выращивание прочих многолетних культур,https://spark-interfax.ru/mordoviya-respublika-staroshaigovski-raion/ooo-shishkanov-inn-1318000501-ogrn-1061327011415-24f3bf8676974638ac4a2cfa106e6964
"ОБЩЕСТВО С ОГРАНИЧЕННОЙ ОТВЕТСТВЕННОСТЬЮ ""КОМПАНИЯ ""ДОРСТРОЙ""",ООО КОМПАНИЯ ДОРСТРОЙ,1326248545,"430005, Мордовия респ., г. Саранск, ул. Пролетарская, д. 39 офис 304", 54.185590, 45.178362,42.11,Строительство автомобильных дорог и автомагистралей,https://spark-interfax.ru/mordoviya-respublika-saransk/ooo-kompaniya-dorstroi-inn-1326248545-ogrn-1171326003595-407a624c3d5b4c85831b3efc92c5e10b
"ОБЩЕСТВО С ОГРАНИЧЕННОЙ ОТВЕТСТВЕННОСТЬЮ ""ДЕТСКИЕ ПЛОЩАДКИ""",ООО ДЕТСКИЕ ПЛОЩАДКИ,5047198482,"431370, Мордовия респ., Ельниковский район, с. Ельники, ул. Королева, д. 26Ж пом. 1", 54.624972, 43.876054,47.91,Торговля розничная по почте или по информационно-коммуникационной сети Интернет,https://spark-interfax.ru/mordoviya-respublika-elnikovski-raion/ooo-detskie-ploshchadki-inn-5047198482-ogrn-1175029013939-61644f2e734f4431aecaba88a98df40b
"ОБЩЕСТВО С ОГРАНИЧЕННОЙ ОТВЕТСТВЕННОСТЬЮ ""ВРЕМЯ""",ООО ВРЕМЯ,1318001590,"431550, Мордовия респ., Старошайговский район, с. Новотроицкое", 54.371910, 44.783333,10.13,Производство продукции из мяса убойных животных и мяса птицы,https://spark-interfax.ru/mordoviya-respublika-staroshaigovski-raion/ooo-vremya-inn-1318001590-ogrn-1141327001573-a563b5735c884f58b3b81f547b6580c8
"ОБЩЕСТВО С ОГРАНИЧЕННОЙ ОТВЕТСТВЕННОСТЬЮ ""ДИАНА""",ООО ДИАНА,1302000150,"431050, Мордовия респ., Атюрьевский район, с. Атюрьево, ул. Ленина, д. 2Б", 54.321152, 43.336352,47.2,"Торговля розничная пищевыми продуктами, напитками и табачными изделиями в специализированных магазинах",https://spark-interfax.ru/mordoviya-respublika-atyurevski-raion/ooo-diana-inn-1302000150-ogrn-1061314002133-617889a83fc77e1ce0531b9aa8c027ab
"ОБЩЕСТВО С ОГРАНИЧЕННОЙ ОТВЕТСТВЕННОСТЬЮ ""КОЛОМАСОВСКИЙ""",ООО КОЛОМАСОВСКИЙ,1323122689,"431350, Мордовия респ., Ковылкинский район, с. Мордовское Коломасово, ул. Молодежная, зд. 16", 53.963525, 44.134118,01.11.1,Выращивание зерновых культур,https://spark-interfax.ru/mordoviya-respublika-kovylkinski-raion/ooo-kolomasovski-inn-1323122689-ogrn-1031312001566-96645ae78b6a4df3989de441aa7cf49a
КРЕСТЬЯНСКОЕ (ФЕРМЕРСКОЕ) ХОЗЯЙСТВО МАЛЬКИНА ВИКТОРА ВАСИЛЬЕВИЧА,КФХ МАЛЬКИНА В.В.,1021300712278,"431640, Мордовия респ., с. Кемля, ул. Совхозная, д. 18", 54.694168, 45.243855,99999,99999,https://spark-interfax.ru/mordoviya-respublika-ichalkovski-raion/malkina-v-v-inn-1310035460-ogrn-1021300712278-617889a83ba07e1ce0531b9aa8c027ab
"КРЕСТЬЯНСКОЕ (ФЕРМЕРСКОЕ) ХОЗЯЙСТВО ""ЛОПАТИНО""",К(Ф)Х ЛОПАТИНО,1328013235,"431281, Мордовия респ., Краснослободский район, с. Краснополье, ул. Карла Маркса, д. 143", 54.430949, 43.543971,01.11,"Выращивание зерновых (кроме риса), зернобобовых культур и семян масличных культур",https://spark-interfax.ru/mordoviya-respublika-krasnoslobodski-raion/kfkh-lopatino-inn-1328013235-ogrn-1161326055703-6906d9accb90226ae0531b9aa8c04bb6
"ОБЩЕСТВО С ОГРАНИЧЕННОЙ ОТВЕТСТВЕННОСТЬЮ ""МОРДОВСКИЕ СЕЛЬСКОХОЗЯЙСТВЕННЫЕ МАШИНЫ""",ООО МОРДОВСКИЕ СЕЛЬСКОХОЗЯЙСТВЕННЫЕ МАШИНЫ,1318001030,"431540, Мордовия респ., Старошайговский район, с. Старое Шайгово, ул. Центральная, зд. 15", 54.290617, 44.461423,01.11.1,Выращивание зерновых культур,https://spark-interfax.ru/mordoviya-respublika-staroshaigovski-raion/ooo-mordovskie-selskokhozyaistvennye-mashiny-inn-1318001030-ogrn-1091327000599-1b97d11359714e57ba51cfa8d6651b20
ОБЩЕСТВО С ОГРАНИЧЕННОЙ ОТВЕТСТВЕННОСТЬЮ ИМЕНИ ИЛЬИЧА,ООО ИМ.ИЛЬИЧА,1307000186,"431391, Мордовия респ., Ельниковский район, с. Стародевичье, ул. Гагарина, д. 2А", 54.587976, 43.770026,01.50,Смешанное сельское хозяйство,https://spark-interfax.ru/mordoviya-respublika-elnikovski-raion/ooo-im-ilicha-inn-1307000186-ogrn-1061314002221-d839dda5cb0c4cd28fa899845405599c
"ОБЩЕСТВО С ОГРАНИЧЕННОЙ ОТВЕТСТВЕННОСТЬЮ ""НОВОКАРЬГИНСКОЕ""",ООО НОВОКАРЬГИНСКОЕ,1300002890,"431292, Мордовия Респ, м.р-н Краснослободский, с.п. Новокарьгинское, с Новая Карьга, пл Центральная, д. 3", 54.414217, 43.979114,01.41,"Разведение молочного крупного рогатого скота, производство сырого молока",https://spark-interfax.ru/mordoviya-respublika-krasnoslobodski-raion/ooo-novokarginskoe-inn-1300002890-ogrn-1221300004353-4996fad9164a413d9d34a79be62ec74d
"ОБЩЕСТВО С ОГРАНИЧЕННОЙ ОТВЕТСТВЕННОСТЬЮ ""КУЛИКОВО""",ООО КУЛИКОВО,1300013517,"431280, Мордовия Респ, м.р-н Краснослободский, с.п. Куликовское, с Куликово, ул Центральная, д. 14", 54.414864, 43.650036,01.41,"Разведение молочного крупного рогатого скота, производство сырого молока",https://spark-interfax.ru/mordoviya-respublika-krasnoslobodski-raion/ooo-kulikovo-inn-1300013517-ogrn-1241300004230-99f72ce6879a467386908377e0e05bb3
"СЕЛЬСКОХОЗЯЙСТВЕННЫЙ ПОТРЕБИТЕЛЬСКИЙ СНАБЖЕНЧЕСКО-СБЫТОВОЙ КООПЕРАТИВ ""ВОЛЖАНИН""",СПССК ВОЛЖАНИН,1303000107,"431800, Мордовия респ., Атяшевский район, рабочий пос. Атяшево, пер. Транспортный, д. 1", 54.586806, 46.066246,46.21.19,"Торговля оптовая сельскохозяйственным сырьем, не включенным в другие группировки",https://spark-interfax.ru/mordoviya-respublika-atyashevski-raion/koop-volzhanin-inn-1303000107-ogrn-1141322000247-6906d9acc65a226ae0531b9aa8c04bb6
"СЕЛЬСКОХОЗЯЙСТВЕННЫЙ ПОТРЕБИТЕЛЬСКИЙ ПЕРЕРАБАТЫВАЮЩИЙ СНАБЖЕНЧЕСКО-СБЫТОВОЙ КООПЕРАТИВ ""ПОДВОРЬЕ""",СППССК ПОДВОРЬЕ,1171326001615,"431650, Мордовия Респ, м.р-н Ичалковский, с.п. Ладское, д Инсаровка, ул Полевая, зд. 17", 54.589606, 45.395381,10.11,Переработка и консервирование мяса,https://spark-interfax.ru/mordoviya-respublika-ichalkovski-raion/koop-podvore-inn-1310000563-ogrn-1171326001615-6906d9acce0e226ae0531b9aa8c04bb6
"СЕЛЬСКОХОЗЯЙСТВЕННЫЙ ПОТРЕБИТЕЛЬСКИЙ СНАБЖЕНЧЕСКО-СБЫТОВОЙ КООПЕРАТИВ ""СТАРТ""",СПССК СТАРТ,1171326002275,"431237, Мордовия Респ, м.р-н Темниковский, с.п. Андреевское, д Козловка, ул Лесная, д. 5", 54.632872, 43.344685,46.23,Торговля оптовая живыми животными,https://spark-interfax.ru/mordoviya-respublika-temnikovski-raion/koop-start-inn-1319001924-ogrn-1171326002275-6906d9acce51226ae0531b9aa8c04bb6
"СЕЛЬСКОХОЗЯЙСТВЕННАЯ АРТЕЛЬ-ПЛЕМЗАВОД ""СВОБОДНЫЙ ТРУД""",СЕЛЬХОЗАРТЕЛЬ СВОБОДНЫЙ ТРУД,1314023191,"431276, Мордовия респ., Краснослободский район, д. Красная Подгора, ул. Зеленая, д. 38", 54.482026, 43.798591,01.41,"Разведение молочного крупного рогатого скота, производство сырого молока",https://spark-interfax.ru/mordoviya-respublika-krasnoslobodski-raion/kolkhoz-svobodny-trud-inn-1314023191-ogrn-1021300763330-2b6314117e3a45789f101d30e42b0107
"ОБЩЕСТВО С ОГРАНИЧЕННОЙ ОТВЕТСТВЕННОСТЬЮ СЕЛЬХОЗПРЕДПРИЯТИЕ ""БОГДАНОВСКОЕ""",ООО СЕЛЬХОЗПРЕДПРИЯТИЕ БОГДАНОВСКОЕ,1318001294,"431555, Мордовия респ., Старошайговский район, с. Богдановка, пер. Им.Чапаева, д. 2", 54.305518, 44.379068,01.41,"Разведение молочного крупного рогатого скота, производство сырого молока",https://spark-interfax.ru/mordoviya-respublika-staroshaigovski-raion/ooo-bogdanovskoe-inn-1318001294-ogrn-1101327002370-352153f87fbd409483ffab08423e7420
"МОРДОВСКОЕ РЕСПУБЛИКАНСКОЕ ОТДЕЛЕНИЕ ОБЩЕРОССИЙСКОЙ ОБЩЕСТВЕННОЙ ОРГАНИЗАЦИИ ""РОССИЙСКИЙ КРАСНЫЙ КРЕСТ""",МОРДОВСКОЕ РЕСПУБЛИКАНСКОЕ ОТДЕЛЕНИЕ ОБЩЕРОССИЙСКОЙ ОБЩЕСТВЕННОЙ ОРГАНИЗАЦИИ РОССИЙСКИЙ КРАСНЫЙ КРЕСТ,1021300000666,"430005, Мордовия респ., г. Саранск, ул. Володарского, д. 7", 54.183150, 45.190176,94.99,"Деятельность прочих общественных организаций и некоммерческих организаций, кроме религиозных и политических организаций",https://spark-interfax.ru/mordoviya-respublika-saransk/oo-rossiski-krasny-krest-inn-1326025838-ogrn-1021300000666-6906d9ac978d226ae0531b9aa8c04bb6
"СЕЛЬСКОХОЗЯЙСТВЕННЫЙ ПОТРЕБИТЕЛЬСКИЙ СНАБЖЕНЧЕСКО-СБЫТОВОЙ КООПЕРАТИВ ""ПРОГРЕСС""",СПССК ПРОГРЕСС,1307000500,"431370, Мордовия респ., Ельниковский район, с. Ельники, пл. 1 Мая, д. 2", 54.620832, 43.867099,01.11,"Выращивание зерновых (кроме риса), зернобобовых культур и семян масличных культур",https://spark-interfax.ru/mordoviya-respublika-elnikovski-raion/koop-progress-inn-1307000500-ogrn-1061314010603-6906d9ac907a226ae0531b9aa8c04bb6
"ОБЩЕСТВО С ОГРАНИЧЕННОЙ ОТВЕТСТВЕННОСТЬЮ ""САРАНСКЛЕСТОПСБЫТ""",ООО САРАНСКЛЕСТОПСБЫТ,1326191232,"430027, Мордовия респ., г. Саранск, ул. Комарова, д. 16А кв. 21", 54.160724, 45.148037,46.73.6,Торговля оптовая прочими строительными материалами и изделиями,https://spark-interfax.ru/mordoviya-respublika-saransk/ooo-saransklestopsbyt-inn-1326191232-ogrn-1041316008590-e5e0a79eb12145a3850844ac75c65183
"ФЕДЕРАЛЬНОЕ ГОСУДАРСТВЕННОЕ БЮДЖЕТНОЕ ОБРАЗОВАТЕЛЬНОЕ УЧРЕЖДЕНИЕ ВЫСШЕГО ОБРАЗОВАНИЯ ""НАЦИОНАЛЬНЫЙ ИССЛЕДОВАТЕЛЬСКИЙ МОРДОВСКИЙ ГОСУДАРСТВЕННЫЙ УНИВЕРСИТЕТ ИМ. Н.П. ОГАРЁВА""","НАЦИОНАЛЬНЫЙ ИССЛЕДОВАТЕЛЬСКИЙ МОРДОВСКИЙ ГОСУДАРСТВЕННЫЙ УНИВЕРСИТЕТ, МГУ ИМ. Н.П. ОГАРЁВА; ФГБОУ ВО МГУ ИМ. Н.П. ОГАРЁВА",1021300973275,"430005, Мордовия респ., г. Саранск, ул. Большевистская, д. 68", 54.187859, 45.181477,85.22,Образование высшее,https://spark-interfax.ru/mordoviya-respublika-saransk/fgbu-mgu-im-n-p-ogareva-inn-1326043499-ogrn-1021300973275-6906d9ac97a3226ae0531b9aa8c04bb6
"НЕКОММЕРЧЕСКАЯ АССОЦИАЦИЯ ""ПОВОЛЖСКИЙ ЦЕНТР КУЛЬТУР ФИННО-УГОРСКИХ НАРОДОВ""",НА ПОВОЛЖСКИЙ ЦКФУН,1061300004611,"430005, Мордовия Респ, г.о. Саранск, г Саранск, ул Б.Хмельницкого, д. 26, офис 107", 54.186813, 45.175373,94.99,"Деятельность прочих общественных организаций и некоммерческих организаций, кроме религиозных и политических организаций",https://spark-interfax.ru/mordoviya-respublika-saransk/obedinenie-povolzhski-tskfun-inn-1326198365-ogrn-1061300004611-6906d9acae89226ae0531b9aa8c04bb6
"ОБЩЕСТВО С ОГРАНИЧЕННОЙ ОТВЕТСТВЕННОСТЬЮ ""ВИРЕНЕЯ""",ООО ВИРЕНЕЯ,1320001196,"431210, Мордовия респ., Теньгушевский район, с. Теньгушево, ул. Карла Маркса, д. 61 кв. 2", 54.766838, 42.719274,02.10,Лесоводство и прочая лесохозяйственная деятельность,https://spark-interfax.ru/mordoviya-respublika-tengushevski-raion/ooo-vireneya-inn-1320001196-ogrn-1141314000189-084dde34ca854fe79b09c238a641881d
"ОБЩЕСТВО С ОГРАНИЧЕННОЙ ОТВЕТСТВЕННОСТЬЮ ""НОВЬ""",ООО НОВЬ,1301063542,"431879, Мордовия респ., Ардатовский район, с. Манадыши 1-Е", 54.947231, 45.996669,01.11,"Выращивание зерновых (кроме риса), зернобобовых культур и семян масличных культур",https://spark-interfax.ru/mordoviya-respublika-ardatovski-raion/ooo-nov-inn-1301063542-ogrn-1061322004853-8c82fb03967e4d07824626230bbdad19
"ОБЩЕСТВО С ОГРАНИЧЕННОЙ ОТВЕТСТВЕННОСТЬЮ ""СТРОИТЕЛЬНЫЙ СЕРВИС""",ООО СТРОЙСЕРВИС,1310187671,"431640, Мордовия респ., Ичалковский район, с. Кемля, ул. Первомайская, д. 11Б", 54.693985, 45.270892,41.20,Строительство жилых и нежилых зданий,https://spark-interfax.ru/mordoviya-respublika-ichalkovski-raion/ooo-stroiservis-inn-1310187671-ogrn-1071310000651-b79dca71133049b692535f1a2b2954e8
"ОБЩЕСТВО С ОГРАНИЧЕННОЙ ОТВЕТСТВЕННОСТЬЮ ""ИНСАРОВСКОЕ""",ООО ИНСАРОВСКОЕ,1310187801,"431650, Мордовия респ., Ичалковский район, д. Инсаровка, ул. Дачная, д. 46", 54.579608, 45.405367,01.11.1,Выращивание зерновых культур,https://spark-interfax.ru/mordoviya-respublika-ichalkovski-raion/ooo-insarovskoe-inn-1310187801-ogrn-1071310001278-be2228d076504f42b6cabacbb9b5a307
"ОБЩЕСТВО С ОГРАНИЧЕННОЙ ОТВЕТСТВЕННОСТЬЮ ""СЕЛЬХОЗТЕХНИКА""",ООО СЕЛЬХОЗТЕХНИКА,1310187047,"431630, Мордовия респ., Ичалковский район, ст. Оброчное, ул. Мира, зд. 28", 54.671030, 45.313743,01.11,"Выращивание зерновых (кроме риса), зернобобовых культур и семян масличных культур",https://spark-interfax.ru/mordoviya-respublika-ichalkovski-raion/ooo-selkhoztekhnika-inn-1310187047-ogrn-1061310001125-359afd770abf46e8893e119f47968210
"ОБЩЕСТВО С ОГРАНИЧЕННОЙ ОТВЕТСТВЕННОСТЬЮ ""МОРДОВСКИЕ ПЕНЬКОЗАВОДЫ""",ООО МОРДОВСКИЕ ПЕНЬКОЗАВОДЫ,2373002036,"431430, Мордовия респ., Инсарский район, г. Инсар, ул. Советская, зд. 93А/8 офис 1", 53.867040, 44.364292,01.11,"Выращивание зерновых (кроме риса), зернобобовых культур и семян масличных культур",https://spark-interfax.ru/mordoviya-respublika-insarski-raion/ooo-mordovskie-penkozavody-inn-2373002036-ogrn-1122373001882-5a69cb9e05114ca49680e74a4a5acba4
"ОБЩЕСТВО С ОГРАНИЧЕННОЙ ОТВЕТСТВЕННОСТЬЮ ""КОЛОС-АГРО""",ООО КОЛОС-АГРО,1300000370,"431890, Мордовия Респ, м.р-н Ардатовский, г.п. Тургеневское, рп Тургенево, ул Заводская, д. 38А, помещ. 4", 54.846134, 46.337969,01.11,"Выращивание зерновых (кроме риса), зернобобовых культур и семян масличных культур",https://spark-interfax.ru/mordoviya-respublika-ardatovski-raion/ooo-kolos-agro-inn-1300000370-ogrn-1221300001823-e01eb55edff808cfe053259aa8c00ff0
"ОБЩЕСТВО С ОГРАНИЧЕННОЙ ОТВЕТСТВЕННОСТЬЮ ""МАГМА ХД""",ООО МАГМА ХД,1322122090,"431700, Мордовия респ., Чамзинский район, рабочий пос. Чамзинка, ул. Республиканская, д. 28", 54.406511, 45.773769,01.11,"Выращивание зерновых (кроме риса), зернобобовых культур и семян масличных культур",https://spark-interfax.ru/mordoviya-respublika-chamzinski-raion/ooo-magma-khd-inn-1322122090-ogrn-1081322000814-6157193eb4974a9490262adbdd35d9a8
"ОТКРЫТОЕ АКЦИОНЕРНОЕ ОБЩЕСТВО ""АГРОФИРМА""ИСКРА""",ОАО АГРОФИРМАИСКРА,1303027451,"431832, Мордовия респ., Атяшевский район, с. Большие Манадыши, ул. Молодежная, д. 1", 54.565090, 45.994744,01.11.1,Выращивание зерновых культур,https://spark-interfax.ru/mordoviya-respublika-atyashevski-raion/pao-agrofirmaiskra-inn-1303027451-ogrn-1021300546552-fdfa5af3818145e1984074b44b41a6c2
"СЕЛЬСКОХОЗЯЙСТВЕННЫЙ ПОТРЕБИТЕЛЬСКИЙ СНАБЖЕНЧЕСКО-СБЫТОВОЙ КООПЕРАТИВ ""СНАБЖЕНЕЦ""",СПССК СНАБЖЕНЕЦ,1318000639,"431565, Мордовия респ., Старошайговский район, с. Шигонь, ул. Московская, д. 43 офис 3", 54.424239, 44.779928,10.51,Производство молока (кроме сырого) и молочной продукции,https://spark-interfax.ru/mordoviya-respublika-staroshaigovski-raion/koop-snabzhenets-inn-1318000639-ogrn-1071327000018-6906d9ac841a226ae0531b9aa8c04bb6
"ОБЩЕСТВО С ОГРАНИЧЕННОЙ ОТВЕТСТВЕННОСТЬЮ ""СПЕЦПОСТАВКА""",ООО СПЕЦПОСТАВКА,1326249570,"107078, г. Москва, вн.тер.г. муниципальный округ Красносельский, пер Орликов, д. 8, помещ. 5/1", 55.771624, 37.649547,10.51,Производство молока (кроме сырого) и молочной продукции,https://spark-interfax.ru/moskva-krasnoselski/ooo-spetspostavka-inn-1326249570-ogrn-1171326006642-591525fd37d65bb9e0531c9aa8c084ba
"ОБЩЕСТВО С ОГРАНИЧЕННОЙ ОТВЕТСТВЕННОСТЬЮ ""НИВА""",ООО НИВА,1309083822,"431438, Мордовия респ., Инсарский район, с. Русская Паевка, ул. Садовая, зд. 22", 53.898775, 44.309524,01.11.1,Выращивание зерновых культур,https://spark-interfax.ru/mordoviya-respublika-insarski-raion/ooo-niva-inn-1309083822-ogrn-1061323003994-efaebd806bb94b24b92a221486925c5a
"ОБЩЕСТВО С ОГРАНИЧЕННОЙ ОТВЕТСТВЕННОСТЬЮ ""ЗАРЯ""",ООО ЗАРЯ,1309084833,"431415, Мордовия респ., Инсарский район, с. Кочетовка, ул. Ленина, д. 81А", 53.792513, 44.260515,01.11.1,Выращивание зерновых культур,https://spark-interfax.ru/mordoviya-respublika-insarski-raion/ooo-zarya-inn-1309084833-ogrn-1131323000016-a2de12d8c56248889d0be1400706cfea
"ЗАКРЫТОЕ АКЦИОНЕРНОЕ ОБЩЕСТВО ""МОРДОВСКИЙ БЕКОН""",ЗАО МОРДОВСКИЙ БЕКОН,1322119933,"431700, Мордовия респ., Чамзинский район, рабочий пос. Чамзинка, ул. Лесная, зд. 3Б", 54.399900, 45.792275,01.46,Разведение свиней,https://spark-interfax.ru/mordoviya-respublika-chamzinski-raion/ao-mordovski-bekon-inn-1322119933-ogrn-1021301577637-cb8b777f910540bfa859836517c9e880
"ОБЩЕСТВО С ОГРАНИЧЕННОЙ ОТВЕТСТВЕННОСТЬЮ ""ЗНАМЕНСКОЕ""",ООО ЗНАМЕНСКОЕ,1303069405,"431813, Мордовия респ., Атяшевский район, с. Покровское, ул. Центральная, зд. 40 офис 1", 54.766561, 45.838708,01.11,"Выращивание зерновых (кроме риса), зернобобовых культур и семян масличных культур",https://spark-interfax.ru/mordoviya-respublika-atyashevski-raion/ooo-znamenskoe-inn-1303069405-ogrn-1061322024290-e451fd7c97d849528a048f79e5981127
"ОБЩЕСТВО С ОГРАНИЧЕННОЙ ОТВЕТСТВЕННОСТЬЮ ""НИВА""",ООО НИВА,1301060534,"431874, Мордовия респ., Ардатовский район, с. Силино", 54.983054, 46.026232,01.11.1,Выращивание зерновых культур,https://spark-interfax.ru/mordoviya-respublika-ardatovski-raion/ooo-niva-inn-1301060534-ogrn-1021300548906-e3eec710d857420682b560888ec90040
"ОБЩЕСТВО С ОГРАНИЧЕННОЙ ОТВЕТСТВЕННОСТЬЮ ""АСВАН""",ООО АСВАН,1309083452,"431430, Мордовия респ., г. Инсар, ул. Заводская, д. 2", 53.861869, 44.399728,13.10.9,Подготовка и прядение прочих текстильных волокон,https://spark-interfax.ru/mordoviya-respublika-insarski-raion/ooo-asvan-inn-1309083452-ogrn-1021300887838-617889a8398d7e1ce0531b9aa8c027ab
"СЕЛЬСКОХОЗЯЙСТВЕННЫЙ ПОТРЕБИТЕЛЬСКИЙ СНАБЖЕНЧЕСКО-СБЫТОВОЙ КООПЕРАТИВ ""УСПЕХ""",СПССК УСПЕХ,1301401706,"431851, Мордовия респ., Ардатовский район, с. Кученяево, ул. Набережная, д. 12", 54.732429, 46.392291,46.32,Торговля оптовая мясом и мясными продуктами,https://spark-interfax.ru/mordoviya-respublika-ardatovski-raion/pk-uspekh-inn-1301401706-ogrn-1101322000119-6906d9acbb3f226ae0531b9aa8c04bb6
"ОБЩЕСТВО С ОГРАНИЧЕННОЙ ОТВЕТСТВЕННОСТЬЮ ""АГРОПРОМЫШЛЕННЫЙ КОМПЛЕКС"" РЕСУРС""",ООО АПК РЕСУРС,1304000678,"431750, Мордовия Респ, м.р-н Большеберезниковский, с.п. Большеберезниковское, с Большие Березники, ул Ивановка, д. 1А", 54.184356, 45.979798,01.11,"Выращивание зерновых (кроме риса), зернобобовых культур и семян масличных культур",https://spark-interfax.ru/mordoviya-respublika-bolshebereznikovski-raion/ooo-apk-resurs-inn-1304000678-ogrn-1211300002539-c49df055352677cce053219aa8c02bc6
"ОБЩЕСТВО С ОГРАНИЧЕННОЙ ОТВЕТСТВЕННОСТЬЮ ""ВЕСНА""",ООО ВЕСНА,7309003377,"433161, Ульяновская обл., Майнский район, с. Абрамовка, ул. Советская, д. 1", 54.199187, 47.689406,01.11.11,Выращивание пшеницы,https://spark-interfax.ru/ulyanovskaya-oblast-mainski-raion/ooo-vesna-inn-7309003377-ogrn-1027300766998-4ad7626cdca2448abb7a20edda71381c
"ОБЛАСТНОЕ ГОСУДАРСТВЕННОЕ БЮДЖЕТНОЕ УЧРЕЖДЕНИЕ ДОПОЛНИТЕЛЬНОГО ОБРАЗОВАНИЯ ""СПОРТИВНАЯ ШКОЛА ЕДИНОБОРСТВ""",ОГБУ ДО СШЕ,1127327000020,"432054, Ульяновская обл, г.о. город Ульяновск, г Ульяновск, ул Александровская, зд. 32", 54.272488, 48.269264,93.1,Деятельность в области спорта,https://spark-interfax.ru/ulyanovskaya-oblast-ulyanovsk/gbu-sshe-inn-7327062216-ogrn-1127327000020-6906d9a2ffe8226ae0531b9aa8c04bb6
"ОБЩЕСТВО С ОГРАНИЧЕННОЙ ОТВЕТСТВЕННОСТЬЮ ""ПАНДА""",ООО ПАНДА,7325056707,"432001, Ульяновская обл, г.о. город Ульяновск, г Ульяновск, ул Шевченко, д. 100, офис 3", 54.315414, 48.382836,73.11,Деятельность рекламных агентств,https://spark-interfax.ru/ulyanovskaya-oblast-ulyanovsk/ooo-panda-inn-7325056707-ogrn-1057325082110-cd4748d67d5a43318e437c76b2aa9c29
"ОБЩЕСТВО С ОГРАНИЧЕННОЙ ОТВЕТСТВЕННОСТЬЮ ТОРГОВЫЙ ДОМ ""ВЕКТОР-С""",ООО ТД ВЕКТОР-С,1327158527,"430034, Мордовия Респ, г.о. Саранск, г Саранск, ул Коваленко, д. 7А", 54.220273, 45.121353,46.32.1,"Торговля оптовая мясом и мясом птицы, включая субпродукты",https://spark-interfax.ru/mordoviya-respublika-saransk/ooo-vektor-s-inn-1327158527-ogrn-1051327003386-c0d6b82a6cb24d4085ab97bb76538ee4
"ОБЩЕСТВО С ОГРАНИЧЕННОЙ ОТВЕТСТВЕННОСТЬЮ ""ЛАЙФСТАЙЛ""",ООО ЛАЙФСТАЙЛ,7309005906,"433752, Ульяновская обл, м.р-н Барышский, г.п. Барышское, г Барыш, ул Радищева, зд. 90Г", 53.652975, 47.116219,31.09,Производство прочей мебели,https://spark-interfax.ru/ulyanovskaya-oblast-baryshski-raion/ooo-laifstail-inn-7309005906-ogrn-1157309000562-2ce6016b7308483f93fad2d3cf02d688
"ОБЩЕСТВО С ОГРАНИЧЕННОЙ ОТВЕТСТВЕННОСТЬЮ ""БАЗАРНОСЫЗГАНСКАЯ ФАБРИКА КАРТОНА""",ООО БФК,7309008939,"433700, Ульяновская обл, м.р-н Базарносызганский, г.п. Базарносызганское, рп Базарный Сызган, ул Авдеева, д. 108, офис 1", 53.764636, 46.768544,17.21,"Производство гофрированной бумаги и картона, бумажной и картонной тары",https://spark-interfax.ru/ulyanovskaya-oblast-bazarnosyzganski-raion/ooo-bfk-inn-7309008939-ogrn-1217300005900-c3844e8e35e91253e053219aa8c023f0
"ОБЩЕСТВО С ОГРАНИЧЕННОЙ ОТВЕТСТВЕННОСТЬЮ ""ПЕРВАЯ ЦИФРОВАЯ ТИПОГРАФИЯ""",ООО ПЕРВАЯ ЦИФРОВАЯ ТИПОГРАФИЯ,7325062411,"432017, Ульяновская обл., г. Ульяновск, ул. Минаева, д. 22", 54.306453, 48.379907,18.1,Деятельность полиграфическая и предоставление услуг в этой области,https://spark-interfax.ru/ulyanovskaya-oblast-ulyanovsk/ooo-pervaya-tsifrovaya-tipografiya-inn-7325062411-ogrn-1067325052190-096d287bc44048088ba4986e3491fd09
"ФЕДЕРАЛЬНЫЙ НАУЧНО-ПРОИЗВОДСТВЕННЫЙ ЦЕНТР АКЦИОНЕРНОЕ ОБЩЕСТВО ""НАУЧНО-ПРОИЗВОДСТВЕННОЕ ОБЪЕДИНЕНИЕ ""МАРС""",ФНПЦ АО НПО МАРС,7303026811,"432057, Ульяновская обл., г. Ульяновск, ул. Солнечная, д. 20", 54.358665, 48.542175,72.19,Научные исследования и разработки в области естественных и технических наук прочие,https://spark-interfax.ru/ulyanovskaya-oblast-ulyanovsk/ao-npo-mars-inn-7303026811-ogrn-1067328003027-5398977c6eb34b52ab94e91b5af98e02
"ОБЩЕСТВЕННАЯ ОРГАНИЗАЦИЯ ""УЛЬЯНОВСКАЯ ОБЛАСТНАЯ МОРДОВСКАЯ НАЦИОНАЛЬНО-КУЛЬТУРНАЯ АВТОНОМИЯ""",ОО УОМНКА,1027300003048,"432017, Ульяновская обл., г. Ульяновск, ул. Ленина, д. 95", 54.315100, 48.397468,94.99,"Деятельность прочих общественных организаций и некоммерческих организаций, кроме религиозных и политических организаций",https://spark-interfax.ru/ulyanovskaya-oblast-ulyanovsk/oo-uomnka-inn-7325018250-ogrn-1027300003048-6906d9a2bc83226ae0531b9aa8c04bb6
"ОБЩЕСТВЕННАЯ ОРГАНИЗАЦИЯ ""УЛЬЯНОВСКАЯ ОБЛАСТНАЯ ЧУВАШСКАЯ НАЦИОНАЛЬНО-КУЛЬТУРНАЯ АВТОНОМИЯ""",ОО УОЧНКА,1027300001541,"432017, Ульяновская обл., г. Ульяновск, ул. Льва Толстого, д. 12", 54.310250, 48.377880,94.99,"Деятельность прочих общественных организаций и некоммерческих организаций, кроме религиозных и политических организаций",https://spark-interfax.ru/ulyanovskaya-oblast-ulyanovsk/oo-uochnka-inn-7303021235-ogrn-1027300001541-6906d9a2b7ad226ae0531b9aa8c04bb6
"МУНИЦИПАЛЬНОЕ АВТОНОМНОЕ УЧРЕЖДЕНИЕ ""УПРАВЛЕНИЕ МУНИЦИПАЛЬНЫМ ХОЗЯЙСТВОМ""",МАУ УПРАВЛЕНИЕ МУНИЦИПАЛЬНЫМ ХОЗЯЙСТВОМ,1137329004053,"433560, Ульяновская обл., Новомалыклинский район, с. Новая Малыкла, ул. Советская, д. 24", 54.203841, 49.926146,68.32,Управление недвижимым имуществом за вознаграждение или на договорной основе,https://spark-interfax.ru/ulyanovskaya-oblast-novomalyklinski-raion/much-upravlenie-munitsipalnym-khozyaistvom-inn-7329012958-ogrn-1137329004053-6906d9a30cb7226ae0531b9aa8c04bb6
"ОБЩЕСТВО С ОГРАНИЧЕННОЙ ОТВЕТСТВЕННОСТЬЮ ""ВОЛГАРЕМСТРОЙСНАБ""",ООО ВОЛГАРЕМСТРОЙСНАБ,7300001262,"432071, Ульяновская обл, г.о. город Ульяновск, г Ульяновск, ул Урицкого, д. 29Д, помещ. 215", 54.330995, 48.370026,46.73,"Торговля оптовая лесоматериалами, строительными материалами и санитарно-техническим оборудованием",https://spark-interfax.ru/ulyanovskaya-oblast-ulyanovsk/ooo-volgaremstroisnab-inn-7300001262-ogrn-1227300004964-ddeb7955e2c03cf2e053259aa8c0dcbb
"ОБЩЕСТВО С ОГРАНИЧЕННОЙ ОТВЕТСТВЕННОСТЬЮ ""ЛЕКА""",ООО ЛЕКА,7328048550,"432072, Ульяновская обл, г.о. город Ульяновск, г Ульяновск, пр-кт Антонова, д. 55, офис 202", 54.372489, 48.608819,55.20,Деятельность по предоставлению мест для краткосрочного проживания,https://spark-interfax.ru/ulyanovskaya-oblast-ulyanovsk/ooo-leka-inn-7328048550-ogrn-1087328001793-501a5247cabe4a9caeb9d1b6389d127a
"ОБЩЕСТВО С ОГРАНИЧЕННОЙ ОТВЕТСТВЕННОСТЬЮ ""ДИМПРОМГРАД""",ООО ДИМПРОМГРАД,7329024304,"433504, Ульяновская обл., г. Димитровград, ул. Чкалова, д. 45 к. 1", 54.232363, 49.586452,29.31,Производство электрического и электронного оборудования для автотранспортных средств,https://spark-interfax.ru/ulyanovskaya-oblast-dimitrovgrad/ooo-dimpromgrad-inn-7329024304-ogrn-1177325007056-80de51bba70144ab83c0e57e69d7b32b
"ОБЩЕСТВО С ОГРАНИЧЕННОЙ ОТВЕТСТВЕННОСТЬЮ ""ОСТРОВ""",ООО ОСТРОВ,7328055483,"432000, Ульяновская обл, г.о. город Ульяновск, г Ульяновск, ул Кузнецова, д. 10, офис 22", 54.310543, 48.399316,79.90,Услуги по бронированию прочие и сопутствующая деятельность,https://spark-interfax.ru/ulyanovskaya-oblast-ulyanovsk/ooo-ostrov-inn-7328055483-ogrn-1097328001165-d21c168e3d7d46c6a0517a3e28403691
"ОБЩЕСТВО С ОГРАНИЧЕННОЙ ОТВЕТСТВЕННОСТЬЮ ""АТМОСФЕРА""",ООО АТМОСФЕРА,7300040141,"432071, Ульяновская обл, г.о. город Ульяновск, г Ульяновск, ул Мира, д. 47/2А, помещ. 1", 54.324078, 48.397601,56.10,Деятельность ресторанов и услуги по доставке продуктов питания,https://spark-interfax.ru/ulyanovskaya-oblast-ulyanovsk/ooo-atmosfera-inn-7300040141-ogrn-1257300001287-2e3a9b161bba6499e063269aa8c0641f
"ОБЩЕСТВО С ОГРАНИЧЕННОЙ ОТВЕТСТВЕННОСТЬЮ ""АЗАТ""",ООО АЗАТ,7327033783,"432066, Ульяновская обл., г. Ульяновск, ул. Александровская, д. 211", 54.269451, 48.268920,86.23,Стоматологическая практика,https://spark-interfax.ru/ulyanovskaya-oblast-ulyanovsk/ooo-azat-inn-7327033783-ogrn-1057327007935-2670a8a31c784d41ac6a10e768c0253e
"ОБЩЕСТВО С ОГРАНИЧЕННОЙ ОТВЕТСТВЕННОСТЬЮ ""ТРУБСТРОЙКОНТРАКТ""",ООО ТРУБСТРОЙКОНТРАКТ,7325095417,"432071, Ульяновская обл., г. Ульяновск, ул. Западный Пригород 2-Я, д. 9", 54.330737, 48.375367,46.7,Торговля оптовая специализированная прочая,https://spark-interfax.ru/ulyanovskaya-oblast-ulyanovsk/ooo-trubstroikontrakt-inn-7325095417-ogrn-1107325002278-617889a07eb57e1ce0531b9aa8c027ab
"ОБЩЕСТВО С ОГРАНИЧЕННОЙ ОТВЕТСТВЕННОСТЬЮ ""СИМБИРСКАЯ ГАВАНЬ""",ООО СИМБИРСКАЯ ГАВАНЬ,7326031751,"432048, Ульяновская обл., г. Ульяновск, ул. Портовая, д. 25", 54.298420, 48.394185,79.90.2,Деятельность по предоставлению экскурсионных туристических услуг,https://spark-interfax.ru/ulyanovskaya-oblast-ulyanovsk/ooo-simbirskaya-gavan-inn-7326031751-ogrn-1087326001509-13621a4932494950b3139cb86ba0b5f1
"ОБЩЕСТВО С ОГРАНИЧЕННОЙ ОТВЕТСТВЕННОСТЬЮ ""ГАЛЕН""",ООО ГАЛЕН,2127318197,"433405, Ульяновская обл, м.р-н Чердаклинский, с.п. Мирновское, тер. Портовая особая экономическая зона, пр-д Индустриальный, зд. 15, стр. 1", 54.360061, 48.848998,22.29.2,"Производство прочих изделий из пластмасс, не включенных в другие группировки, кроме устройств пломбировочных из пластика",https://spark-interfax.ru/ulyanovskaya-oblast-cherdaklinski-raion/ooo-galen-inn-2127318197-ogrn-1022100979780-01400c176efa48b9b728ba96a620aaa3
"ОБЩЕСТВО С ОГРАНИЧЕННОЙ ОТВЕТСТВЕННОСТЬЮ "" ЗУЛЬФИЯ""",ООО ЗУЛЬФИЯ,7322004482,"433600, Ульяновская обл., Цильнинский район, рабочий пос. Цильна, ул. Привокзальная, д. 2", 54.595668, 48.139454,01.50,Смешанное сельское хозяйство,https://spark-interfax.ru/ulyanovskaya-oblast-tsilninski-raion/ooo-zulfiya-inn-7322004482-ogrn-1027301057970-6f8633662d714fcfb1757bd05712109f
"ОБЩЕСТВЕННАЯ ОРГАНИЗАЦИЯ ТЕРРИТОРИАЛЬНОЕ ОБЩЕСТВЕННОЕ САМОУПРАВЛЕНИЕ ""ВОСХОД"" СЕЛА ЕРТУГАНОВО МУНИЦИПАЛЬНОГО ОБРАЗОВАНИЯ ""КАНДАЛИНСКОЕ СЕЛЬСКОЕ ПОСЕЛЕНИЕ"" СТАРОМАЙНСКОГО РАЙОНА УЛЬЯНОВСКОЙ ОБЛАСТИ",ТОС ВОСХОД,1247300004467,"433453, Ульяновская обл, м.р-н Старомайнский, с.п. Кандалинское, с Ертуганово, ул Молодежная, д. 44", 54.455381, 49.425311,94.99,"Деятельность прочих общественных организаций и некоммерческих организаций, кроме религиозных и политических организаций",https://spark-interfax.ru/ulyanovskaya-oblast-staromainski-raion/oo-voskhod-inn-7300032486-ogrn-1247300004467-18c6c87f772a6274e063259aa8c08571
"ОБЩЕСТВО С ОГРАНИЧЕННОЙ ОТВЕТСТВЕННОСТЬЮ ""УЛЬЯНОВСКАЯ МОЛОЧНАЯ КОМПАНИЯ""",ООО УМК,7313014300,"433876, Ульяновская обл., Новоспасский район, с. Троицкий Сунгур, ул. Каменная, зд. 2В стр. 1 каб. 1", 53.285576, 47.605817,01.41,"Разведение молочного крупного рогатого скота, производство сырого молока",https://spark-interfax.ru/ulyanovskaya-oblast-novospasski-raion/ooo-umk-inn-7313014300-ogrn-1207300013381-b3904d0993df1e90e053219aa8c03745
"ОБЩЕСТВО С ОГРАНИЧЕННОЙ ОТВЕТСТВЕННОСТЬЮ ""СПЕЦИАЛИЗИРОВАННЫЙ ЗАСТРОЙЩИК СТК""",ООО СЗ СТК,7327033085,"432017, Ульяновская обл., г. Ульяновск, ул. Карла Либкнехта, д. 19А этаж 4 офис 402", 54.310003, 48.389311,41.20,Строительство жилых и нежилых зданий,https://spark-interfax.ru/ulyanovskaya-oblast-ulyanovsk/ooo-sz-stk-inn-7327033085-ogrn-1047301331461-1b0e940f5fb4447aba9e4a7befb457dc
"ОБЩЕСТВО С ОГРАНИЧЕННОЙ ОТВЕТСТВЕННОСТЬЮ ""ЭКО-М""",ООО ЭКО-М,7328080465,"432057, Ульяновская обл, г.о. город Ульяновск, г Ульяновск, ул Брестская, д. 78, стр. 32, помещ. 33", 54.360540, 48.548814,01.11.1,Выращивание зерновых культур,https://spark-interfax.ru/ulyanovskaya-oblast-ulyanovsk/ooo-eko-m-inn-7328080465-ogrn-1147328004581-9e8a3262facb4730ba2164fc67856d86
"ОБЩЕСТВО С ОГРАНИЧЕННОЙ ОТВЕТСТВЕННОСТЬЮ ""ХОЗЯИН""",ООО ХОЗЯИН,7321017369,"433368, Ульяновская обл, м.р-н Тереньгульский, г.п. Тереньгульское, с Тумкино, ул Родниковая, д. 33", 53.746921, 48.305667,01.11,"Выращивание зерновых (кроме риса), зернобобовых культур и семян масличных культур",https://spark-interfax.ru/ulyanovskaya-oblast-terengulski-raion/ooo-khozyain-inn-7321017369-ogrn-1227300002775-d984f232c5974b8be053259aa8c0f436
"СЕЛЬСКОХОЗЯЙСТВЕННЫЙ ПРОИЗВОДСТВЕННЫЙ КООПЕРАТИВ ""ПЕРВОМАЙСКИЙ""",СХПК ПЕРВОМАЙСКИЙ,7305000488,"433123, Ульяновская обл., Вешкаймский район, с. Беклемишево, пер. Совхозный, д. 14", 53.859119, 47.414969,01.11,"Выращивание зерновых (кроме риса), зернобобовых культур и семян масличных культур",https://spark-interfax.ru/ulyanovskaya-oblast-veshkaimski-raion/koop-pervomaiski-inn-7305000488-ogrn-1027300768967-032ee85271b840268e518abc8e6cc2d1
"СЕЛЬСКОХОЗЯЙСТВЕННЫЙ ПРОИЗВОДСТВЕННЫЙ КООПЕРАТИВ ""РОДНИКИ""",СПК РОДНИКИ,7321310279,"433644, Ульяновская обл., Цильнинский район, с. Верхние Тимерсяны", 54.543425, 47.655777,01.61,Предоставление услуг в области растениеводства,https://spark-interfax.ru/ulyanovskaya-oblast-tsilninski-raion/koop-rodniki-inn-7321310279-ogrn-1057321015421-b4d8d14f341943319191f543482ddd10
"АВТОНОМНАЯ НЕКОММЕРЧЕСКАЯ ОРГАНИЗАЦИЯ ДОПОЛНИТЕЛЬНОГО ОБРАЗОВАНИЯ ""АГЕНТСТВО ТЕХНОЛОГИЧЕСКОГО РАЗВИТИЯ УЛЬЯНОВСКОЙ ОБЛАСТИ""",АНО ДО АТР,1107300001203,"432017, Ульяновская обл., г. Ульяновск, ул. Минаева, д. 11 этаж 6", 54.307064, 48.382960,70.22,Консультирование по вопросам коммерческой деятельности и управления,https://spark-interfax.ru/ulyanovskaya-oblast-ulyanovsk/ano-atr-inn-7327057375-ogrn-1107300001203-6906d9a2944a226ae0531b9aa8c04bb6
"СЕЛЬСКОХОЗЯЙСТВЕННЫЙ ПОТРЕБИТЕЛЬСКИЙ ПЕРЕРАБАТЫВАЮЩИЙ СНАБЖЕНЧЕСКО-СБЫТОВОЙ КООПЕРАТИВ ""ТРИУМФ-АГРО""",СППССК ТРИУМФ-АГРО,1222100002728,"429140, Чувашская Республика - Чувашия, м.о. Комсомольский, с Комсомольское, ул Шоссейная, д. 6А, офис 1", 55.262266, 47.545600,10.11,Переработка и консервирование мяса,https://spark-interfax.ru/chuvashskaya-respublika-chuvashiya-komsomolski-raion/koop-triumf-agro-inn-2108003603-ogrn-1222100002728-dc4506ab442e426de053259aa8c08cbe
"СЕЛЬСКОХОЗЯЙСТВЕННЫЙ ПОТРЕБИТЕЛЬСКИЙ СНАБЖЕНЧЕСКИЙ СБЫТОВОЙ КООПЕРАТИВ ""УРОЖАЙ""",СЕЛЬСКОХОЗЯЙСТВЕННЫЙ ПОТРЕБИТЕЛЬСКИЙ СНАБЖЕНЧЕСКИЙ СБЫТОВОЙ КООПЕРАТИВ УРОЖАЙ,1192130007783,"429358, Чувашская Республика - Чувашия, Батыревский район, д. Старые Тойси, ул. Центральная, д. 22Б", 55.074527, 47.827269,46.11,"Деятельность агентов по оптовой торговле сельскохозяйственным сырьем, живыми животными, текстильным сырьем и полуфабрикатами",https://spark-interfax.ru/chuvashskaya-respublika-chuvashiya-batyrevski-raion/koop-urozhai-inn-2103005149-ogrn-1192130007783-8d9c5776790e8d0fe0531c9aa8c0b969
"СЕЛЬСКОХОЗЯЙСТВЕННЫЙ ПОТРЕБИТЕЛЬСКИЙ ПЕРЕРАБАТЫВАЮЩИЙ КООПЕРАТИВ ""АГРОКУЛЬТУРА""",СППК АГРОКУЛЬТУРА,2119901870,"429372, Чувашская Республика - Чувашия, Батыревский район, д. Долгий Остров, ул. Напольная, зд. 29", 55.114700, 47.545300,10.11,Переработка и консервирование мяса,https://spark-interfax.ru/chuvashskaya-respublika-chuvashiya-batyrevski-raion/koop-agrokultura-inn-2119901870-ogrn-1072136000155-6906d9b1d4b1226ae0531b9aa8c04bb6
"СЕЛЬСКОХОЗЯЙСТВЕННЫЙ СБЫТОВОЙ СНАБЖЕНЧЕСКИЙ ПЕРЕРАБАТЫВАЮЩИЙ ПОТРЕБИТЕЛЬСКИЙ КООПЕРАТИВ ""АГРО-СОЮЗ""",СССППК АГРО-СОЮЗ,2103005131,"429360, Чувашская Республика - Чувашия, Батыревский район, с. Шыгырдан, ул. Ямашева, д. 7", 55.050583, 47.566391,10.11,Переработка и консервирование мяса,https://spark-interfax.ru/chuvashskaya-respublika-chuvashiya-batyrevski-raion/koop-agro-soyuz-inn-2103005131-ogrn-1192130007244-8bf5e4cb45753694e0531c9aa8c0039e
"СЕЛЬСКОХОЗЯЙСТВЕННЫЙ ПОТРЕБИТЕЛЬСКИЙ ПЕРЕРАБАТЫВАЮЩИЙ КООПЕРАТИВ ""АГРОСПУТНИК""",СППК АГРОСПУТНИК,1142130015114,"429360, Чувашская Республика - Чувашия, м.о. Батыревский, с Шыгырдан, ул Наримана, д. 25", 55.047831, 47.553217,10.51,Производство молока (кроме сырого) и молочной продукции,https://spark-interfax.ru/chuvashskaya-respublika-chuvashiya-batyrevski-raion/koop-agrosputnik-inn-2130145924-ogrn-1142130015114-6906d9b1ff74226ae0531b9aa8c04bb6
"ОБЩЕСТВО С ОГРАНИЧЕННОЙ ОТВЕТСТВЕННОСТЬЮ ""ПАКША""",ООО ПАКША,2102003011,"429046, Чувашская Республика - Чувашия, м.о. Красночетайский, д Санкино, ул Ленина, д. 6, помещ. 16", 55.732970, 46.317399,01.11,"Выращивание зерновых (кроме риса), зернобобовых культур и семян масличных культур",https://spark-interfax.ru/chuvashskaya-respublika-chuvashiya-krasnochetaiski-raion/ooo-paksha-inn-2102003011-ogrn-1212100005897-c991486c9c184f62e053219aa8c05c62
"КОЛХОЗ ""СВОБОДА""",КОЛХОЗ СВОБОДА,1022102632530,"429047, Чувашская Республика - Чувашия, Красночетайский район, д. Кузнечная, ул. Майская, д. 9", 55.764946, 46.411518,01.1,Выращивание однолетних культур,https://spark-interfax.ru/chuvashskaya-respublika-chuvashiya-krasnochetaiski-raion/kolkhoz-svoboda-inn-2110000303-ogrn-1022102632530-4ec45733738544dc92c36fa025299bbe
"ОБЩЕСТВО С ОГРАНИЧЕННОЙ ОТВЕТСТВЕННОСТЬЮ ""КРАСНОЕ СОРМОВО""",ООО КРАСНОЕ СОРМОВО,2109902699,"429630, Чувашская Республика - Чувашия, Красноармейский район, д. Яманаки, ул. Молодежная, зд. 11", 55.786673, 47.100235,01.11,"Выращивание зерновых (кроме риса), зернобобовых культур и семян масличных культур",https://spark-interfax.ru/chuvashskaya-respublika-chuvashiya-krasnoarmeiski-raion/ooo-krasnoe-sormovo-inn-2109902699-ogrn-1062137018613-d6c40faac0214992a054139e015a3727
"БЛАГОТВОРИТЕЛЬНЫЙ ФОНД ""ДОБРОДЕЛАНИЕ""",БФ ДОБРОДЕЛАНИЕ,1136300002794,"443086, Самарская обл., г. Самара, ул. Ново-Садовая, д. 181А кв. 80", 53.218551, 50.163354,87.30,Деятельность по уходу за престарелыми и инвалидами с обеспечением проживания,https://spark-interfax.ru/samarskaya-oblast-samara/bf-dobrodelanie-inn-6316998146-ogrn-1136300002794-6906d9598c16226ae0531b9aa8c04bb6
"ОБЩЕСТВО С ОГРАНИЧЕННОЙ ОТВЕТСТВЕННОСТЬЮ ""МЕДИАСЕРВИС""",ООО МЕДИАСЕРВИС,6316170592,"443041, Самарская обл., г. Самара, ул. Буянова, д. 1", 53.186377, 50.114494,63.12.1,Деятельность сетевых изданий,https://spark-interfax.ru/samarskaya-oblast-samara/ooo-mediaservis-inn-6316170592-ogrn-1116316010293-0717f5aa1e6342edb296604fca38f47c
"ОБЩЕСТВО С ОГРАНИЧЕННОЙ ОТВЕТСТВЕННОСТЬЮ ""ЭТНОПАРК ДРУЖБЫ НАРОДОВ""",ООО ЭТНОПАРК ДРУЖБЫ НАРОДОВ,6314048950,"443015, Самарская обл, г.о. Самара, вн.р-н Куйбышевский, г Самара, ул Казачья, д. 2А, этаж 1, ком. 10", 53.156467, 50.089475,90.04.2,Деятельность многоцелевых центров и подобных заведений с преобладанием культурного обслуживания,https://spark-interfax.ru/samarskaya-oblast-samara/ooo-etnopark-druzhby-narodov-inn-6314048950-ogrn-1226300027535-e2ded158804b68d5e053259aa8c0cecf
"ГОСУДАРСТВЕННОЕ БЮДЖЕТНОЕ УЧРЕЖДЕНИЕ ДОПОЛНИТЕЛЬНОГО ПРОФЕССИОНАЛЬНОГО ОБРАЗОВАНИЯ ""САМАРА - АГРАРНАЯ РЕГИОНАЛЬНАЯ ИНФОРМАЦИОННАЯ СИСТЕМА""",ГБУ ДПО САМАРА - АРИС,6316001509,"443044, Самарская обл., г. Самара, пос. Зубчаниновка, ул. Металлургическая, д. 92", 53.236054, 50.296319,70.22,Консультирование по вопросам коммерческой деятельности и управления,https://spark-interfax.ru/samarskaya-oblast-samara/gbu-samara-aris-inn-6316001509-ogrn-1026301157739-6906d9581364226ae0531b9aa8c04bb6
КАМЫШЛИНСКИЙ РАЙОННЫЙ СОВЕТ ВЕТЕРАНОВ (ПЕНСИОНЕРОВ) ВОЙНЫ И ТРУДА,КАМЫШЛИНСКИЙ РАЙОННЫЙ СОВЕТ ВЕТЕРАНОВ (ПЕНСИОНЕРОВ) ВОЙНЫ И ТРУДА,1036303395050,"446970, Самарская обл., Камышлинский район, с. Камышла, ул. Красноармейская, д. 37", 54.113322, 52.141439,94.99,"Деятельность прочих общественных организаций и некоммерческих организаций, кроме религиозных и политических организаций",https://spark-interfax.ru/samarskaya-oblast-kamyshlinski-raion/oo-kamyshlinski-raionny-sovet-veteranov-pensionerov-voiny-i-truda-inn-6370000373-ogrn-1036303395050-6906d9588d59226ae0531b9aa8c04bb6
ТЕРРИТОРИАЛЬНОЕ ОБЩЕСТВЕННОЕ САМОУПРАВЛЕНИЕ № 2 ОКТЯБРЬСКОГО РАЙОНА ГОРОДСКОГО ОКРУГА САМАРА,ТОС № 2 ОКТЯБРЬСКОГО РАЙОНА Г.О. САМАРА,1106300004865,"443056, Самарская обл., г. Самара, проспект Масленникова, д. 25 корп. А", 53.209319, 50.156861,93.19,Деятельность в области спорта прочая,https://spark-interfax.ru/samarskaya-oblast-samara/tos-n-oktyabrskogo-raiona-g-o-samara-inn-6316158179-ogrn-1106300004865-6906d959219a226ae0531b9aa8c04bb6
"ТЕРРИТОРИАЛЬНОЕ ОБЩЕСТВЕННОЕ САМОУПРАВЛЕНИЕ ""113КМ"" КУЙБЫШЕВСКОГО РАЙОНА ГОРОДСКОГО ОКРУГА САМАРА",ТОС 113КМ,1086300003910,"443033, Самарская обл., г. Самара, ул. Липяговская, д. 5", 53.103188, 50.033378,88.10,Предоставление социальных услуг без обеспечения проживания престарелым и инвалидам,https://spark-interfax.ru/samarskaya-oblast-samara/tos-km-inn-6314031434-ogrn-1086300003910-6906d958ef13226ae0531b9aa8c04bb6
"ТЕРРИТОРИАЛЬНОЕ ОБЩЕСТВЕННОЕ САМОУПРАВЛЕНИЕ ""26 КВАРТАЛ"" КУЙБЫШЕВСКОГО РАЙОНА ГОРОДСКОГО ОКРУГА САМАРА",ТОС 26 КВАРТАЛ,1026300900230,"443101, Самарская обл., г. Самара, пер. Ново-Молодежный, д. 14", 53.121711, 50.090201,94.99,"Деятельность прочих общественных организаций и некоммерческих организаций, кроме религиозных и политических организаций",https://spark-interfax.ru/samarskaya-oblast-samara/tos-kvartal-inn-6314018666-ogrn-1026300900230-6906d9589000226ae0531b9aa8c04bb6
"ОБЩЕСТВО С ОГРАНИЧЕННОЙ ОТВЕТСТВЕННОСТЬЮ ""АТС-АВТО""",ООО АТС-АВТО,6321408579,"445043, Самарская обл., г. Тольятти, шоссе Южное, д. 161 стр. / ком. 2.1/25", 53.556631, 49.216714,29.10,Производство автотранспортных средств,https://spark-interfax.ru/samarskaya-oblast-tolyatti/ooo-ats-avto-inn-6321408579-ogrn-1166313089470-9f621d7d945d4cafb812d8731acda94a
"МУНИЦИПАЛЬНОЕ БЮДЖЕТНОЕ ОБЩЕОБРАЗОВАТЕЛЬНОЕ УЧРЕЖДЕНИЕ ""НАЧАЛЬНАЯ ШКОЛА-ДЕТСКИЙ САД ""ИСТОКИ"" ГОРОДСКОГО ОКРУГА САМАРА",МБОУ ИСТОКИ Г.О. САМАРА,1026300896830,"443042, Самарская обл., г. Самара, ул. Белорусская, д. 44-А", 53.145665, 50.061457,85.11,Образование дошкольное,https://spark-interfax.ru/samarskaya-oblast-samara/mbu-istoki-g-o-samara-inn-6314015305-ogrn-1026300896830-6906d9586fcb226ae0531b9aa8c04bb6
"МУНИЦИПАЛЬНОЕ АВТОНОМНОЕ ОБЩЕОБРАЗОВАТЕЛЬНОЕ УЧРЕЖДЕНИЕ ""САМАРСКИЙ МЕДИКО-ТЕХНИЧЕСКИЙ ЛИЦЕЙ"" ГОРОДСКОГО ОКРУГА САМАРА",МАОУ СМТЛ Г.О.САМАРА,1026301165945,"443100, Самарская обл., г. Самара, ул. Полевая, д. 74", 53.204397, 50.125550,85.14,Образование среднее общее,https://spark-interfax.ru/samarskaya-oblast-samara/much-smtl-g-o-samara-inn-6316022428-ogrn-1026301165945-6906d9583b87226ae0531b9aa8c04bb6
"МУНИЦИПАЛЬНОЕ БЮДЖЕТНОЕ ОБЩЕОБРАЗОВАТЕЛЬНОЕ УЧРЕЖДЕНИЕ ""САМАРСКАЯ ВАЛЬДОРФСКАЯ ШКОЛА"" ГОРОДСКОГО ОКРУГА САМАРА",МБОУ САМАРСКАЯ ВАЛЬДОРФСКАЯ ШКОЛА Г.О. САМАРА,1026300956692,"443041, Самарская обл., г. Самара, ул. Буянова, д. 105", 53.195070, 50.119906,85.13,Образование основное общее,https://spark-interfax.ru/samarskaya-oblast-samara/mbu-samarskaya-valdorfskaya-shkola-g-o-samara-inn-6315700166-ogrn-1026300956692-6906d9586aec226ae0531b9aa8c04bb6
"ОБЩЕСТВЕННАЯ БЛАГОТВОРИТЕЛЬНАЯ ОРГАНИЗАЦИЯ ""АЛЕКСИЕВСКОЕ БРАТСТВО"" Г. САМАРА",ОБО АЛЕКСИЕВСКОЕ БРАТСТВО,1036303387273,"443063, Самарская обл., г. Самара, проспект Юных Пионеров, д. 36", 53.218464, 50.230135,94.99,"Деятельность прочих общественных организаций и некоммерческих организаций, кроме религиозных и политических организаций",https://spark-interfax.ru/samarskaya-oblast-samara/oo-aleksievskoe-bratstvo-inn-6316024665-ogrn-1036303387273-6906d9580135226ae0531b9aa8c04bb6
"МУНИЦИПАЛЬНОЕ ПРЕДПРИЯТИЕ ГОРОДСКОГО ОКРУГА САМАРА ""КРАСНОГЛИНСКИЕ БАНИ""",МП Г.О. САМАРА КРАСНОГЛИНСКИЕ БАНИ,6313011918,"443026, Самарская обл., г. Самара, пос. Управленческий, ул. Симферопольская, д. 23", 53.350042, 50.216672,96.04,Деятельность физкультурно-оздоровительная,https://spark-interfax.ru/samarskaya-oblast-samara/mup-krasnoglinskie-bani-inn-6313011918-ogrn-1036300221088-6906d957a88a226ae0531b9aa8c04bb6
"АВТОНОМНАЯ НЕКОММЕРЧЕСКАЯ ОРГАНИЗАЦИЯ РЕДАКЦИЯ САМАРСКОЙ ОБЛАСТНОЙ ТАТАРСКОЙ ГАЗЕТЫ ""БЕРДЭМЛЕК"" (""ЕДИНСТВО"")",А.Н.О. РЕДАКЦИЯ ГАЗЕТЫ БЕРДЭМЛЕК (ЕДИНСТВО),1026301420298,"443009, Самарская обл., г. Самара, ул. Воронежская, д. 9 офис 312", 53.217781, 50.254720,58.13,Издание газет,https://spark-interfax.ru/samarskaya-oblast-samara/ano-a-n-o-redaktsiya-gazety-berdemlek-edinstvo-inn-6317008137-ogrn-1026301420298-6906d957d742226ae0531b9aa8c04bb6
"ОБЩЕСТВО С ОГРАНИЧЕННОЙ ОТВЕТСТВЕННОСТЬЮ ""С.Л.П.""",ООО С.Л.П.,6311002940,"443017, Самарская обл., г. Самара, ул. Белогородская, д. 1", 53.171951, 50.188936,96.04,Деятельность физкультурно-оздоровительная,https://spark-interfax.ru/samarskaya-oblast-samara/ooo-s-l-p-inn-6311002940-ogrn-1026300532389-ea04e6b61732443088be8346baad5279
ТЕРРИТОРИАЛЬНОЕ ОБЩЕСТВЕННОЕ САМОУПРАВЛЕНИЕ МИКРОРАЙОНА №2 ЖЕЛЕЗНОДОРОЖНОГО РАЙОНА ГОРОДСКОГО ОКРУГА САМАРА,ТОС МИКРОРАЙОНА №2,1096300000158,"443030, Самарская обл., г. Самара, ул. Чернореченская, д. 21", 53.194045, 50.132707,88.10,Предоставление социальных услуг без обеспечения проживания престарелым и инвалидам,https://spark-interfax.ru/samarskaya-oblast-samara/tos-mikroraiona-n-inn-6311111963-ogrn-1096300000158-6906d958f6c2226ae0531b9aa8c04bb6
"ТЕРРИТОРИАЛЬНОЕ ОБЩЕСТВЕННОЕ САМОУПРАВЛЕНИЕ ""СУХАЯ САМАРКА"" КУЙБЫШЕВСКОГО РАЙОНА ГОРОДСКОГО ОКРУГА САМАРА",ТОС СУХАЯ САМАРКА,1086300003932,"443042, Самарская обл., г. Самара, ул. Флотская, д. 17", 53.145031, 50.046567,88.10,Предоставление социальных услуг без обеспечения проживания престарелым и инвалидам,https://spark-interfax.ru/samarskaya-oblast-samara/tos-sukhaya-samarka-inn-6314031459-ogrn-1086300003932-6906d958ef15226ae0531b9aa8c04bb6
"ОБЩЕСТВЕННАЯ ОРГАНИЗАЦИЯ ТЕРРИТОРИАЛЬНОЕ ОБЩЕСТВЕННОЕ САМОУПРАВЛЕНИЕ ""ТРЕТИЙ ПРИВОЛЖСКИЙ МИКРОРАЙОН"" ПРОМЫШЛЕННОГО РАЙОНА ГОРОДСКОГО ОКРУГА САМАРА",ТОС ТРЕТИЙ ПРИВОЛЖСКИЙ МИКРОРАЙОН,1026301712733,"443122, Самарская обл., г. Самара, шоссе Московское, д. 320", 53.260565, 50.237023,94.99,"Деятельность прочих общественных организаций и некоммерческих организаций, кроме религиозных и политических организаций",https://spark-interfax.ru/samarskaya-oblast-samara/tos-treti-privolzhski-mikroraion-inn-6319060206-ogrn-1026301712733-6906d958242b226ae0531b9aa8c04bb6
"ТЕРРИТОРИАЛЬНОЕ ОБЩЕСТВЕННОЕ САМОУПРАВЛЕНИЕ ""АВРОРА"" СОВЕТСКОГО РАЙОНА ГОРОДСКОГО ОКРУГА САМАРА",ТОС АВРОРА,1096300001820,"443074, Самарская обл., г. Самара, ул. Аэродромная, д. 53", 53.191539, 50.190046,88.10,Предоставление социальных услуг без обеспечения проживания престарелым и инвалидам,https://spark-interfax.ru/samarskaya-oblast-samara/tos-avrora-inn-6318181208-ogrn-1096300001820-6906d958fecc226ae0531b9aa8c04bb6
"ОБЩЕСТВЕННАЯ ОРГАНИЗАЦИЯ ТЕРРИТОРИАЛЬНОЕ ОБЩЕСТВЕННОЕ САМОУПРАВЛЕНИЕ ""ШИПКА"" ПРОМЫШЛЕННОГО РАЙОНА ГОРОДСКОГО ОКРУГА САМАРА",ТОС ШИПКА,1026301714372,"443081, Самарская обл, г.о. Самара, вн.р-н Промышленный, г Самара, ул Фадеева, д. 65", 53.236510, 50.215121,88.10,Предоставление социальных услуг без обеспечения проживания престарелым и инвалидам,https://spark-interfax.ru/samarskaya-oblast-samara/tos-shipka-inn-6319069456-ogrn-1026301714372-6906d95873ff226ae0531b9aa8c04bb6
"ТЕРРИТОРИАЛЬНОЕ ОБЩЕСТВЕННОЕ САМОУПРАВЛЕНИЕ ""МЕЧТА"" СОВЕТСКОГО РАЙОНА ГОРОДСКОГО ОКРУГА САМАРА",ТОС МЕЧТА,1096300002050,"443090, Самарская обл., г. Самара, ул. Советской Армии, д. 127", 53.221596, 50.202653,88.10,Предоставление социальных услуг без обеспечения проживания престарелым и инвалидам,https://spark-interfax.ru/samarskaya-oblast-samara/tos-mechta-inn-6318181374-ogrn-1096300002050-6906d958feb5226ae0531b9aa8c04bb6
"ТЕРРИТОРИАЛЬНОЕ ОБЩЕСТВЕННОЕ САМОУПРАВЛЕНИЕ ""РАССВЕТ"" ПРОМЫШЛЕННОГО РАЙОНА ГОРОДСКОГО ОКРУГА САМАРА",ТОС РАССВЕТ,1026301714515,"443009, Самарская обл., г. Самара, ул. Свободы, д. 107", 53.219669, 50.254685,88.10,Предоставление социальных услуг без обеспечения проживания престарелым и инвалидам,https://spark-interfax.ru/samarskaya-oblast-samara/tos-rassvet-inn-6319038465-ogrn-1026301714515-6906d9581ce1226ae0531b9aa8c04bb6
"ТЕРРИТОРИАЛЬНОЕ ОБЩЕСТВЕННОЕ САМОУПРАВЛЕНИЕ ""ВЕСНА"" СОВЕТСКОГО РАЙОНА ГОРОДСКОГО ОКРУГА САМАРА",ТОС ВЕСНА,1096300001852,"443045, Самарская обл., г. Самара, ул. Авроры, д. 201", 53.211067, 50.190732,88.10,Предоставление социальных услуг без обеспечения проживания престарелым и инвалидам,https://spark-interfax.ru/samarskaya-oblast-samara/tos-vesna-inn-6318181230-ogrn-1096300001852-6906d958fed0226ae0531b9aa8c04bb6
"ТЕРРИТОРИАЛЬНОЕ ОБЩЕСТВЕННОЕ САМОУПРАВЛЕНИЕ ""БЕРЕЗКА"" СОВЕТСКОГО РАЙОНА ГОРОДСКОГО ОКРУГА САМАРА",ТОС БЕРЕЗКА,1096300001874,"443067, Самарская обл., г. Самара, ул. Гагарина, д. 87", 53.200449, 50.194379,94.99,"Деятельность прочих общественных организаций и некоммерческих организаций, кроме религиозных и политических организаций",https://spark-interfax.ru/samarskaya-oblast-samara/tos-berezka-inn-6318181254-ogrn-1096300001874-6906d958fe2e226ae0531b9aa8c04bb6
"ТЕРРИТОРИАЛЬНОЕ ОБЩЕСТВЕННОЕ САМОУПРАВЛЕНИЕ ""ЗАРЯ"" СОВЕТСКОГО РАЙОНА ГОРОДСКОГО ОКРУГА САМАРА",ТОС ЗАРЯ,1096300002105,"443023, Самарская обл., г. Самара, ул. Днепровская, д. 1", 53.199621, 50.224008,94.99,"Деятельность прочих общественных организаций и некоммерческих организаций, кроме религиозных и политических организаций",https://spark-interfax.ru/samarskaya-oblast-samara/tos-zarya-inn-6318181409-ogrn-1096300002105-6906d958feb7226ae0531b9aa8c04bb6
"ТЕРРИТОРИАЛЬНОЕ ОБЩЕСТВЕННОЕ САМОУПРАВЛЕНИЕ ""СОЛНЕЧНЫЙ-1"" ПРОМЫШЛЕННОГО РАЙОНА ГОРОДСКОГО ОКРУГА САМАРА",ТОС СОЛНЕЧНЫЙ-1,1026301717507,"443029, Самарская обл., г. Самара, ул. Ново-Вокзальная, д. 176 офис 22", 53.248309, 50.199380,88.10,Предоставление социальных услуг без обеспечения проживания престарелым и инвалидам,https://spark-interfax.ru/samarskaya-oblast-samara/tos-solnechny-inn-6319091557-ogrn-1026301717507-6906d95896a6226ae0531b9aa8c04bb6
"ТЕРРИТОРИАЛЬНОЕ ОБЩЕСТВЕННОЕ САМОУПРАВЛЕНИЕ ""КРАСНАЯ ГЛИНКА"" КРАСНОГЛИНСКОГО РАЙОНА ГОРОДСКОГО ОКРУГА САМАРА",ТОС КРАСНАЯ ГЛИНКА,1026300844877,"443048, Самарская обл., г. Самара, пос. Красная Глинка, квартал 1, д. 9", 53.382115, 50.175732,88.10,Предоставление социальных услуг без обеспечения проживания престарелым и инвалидам,https://spark-interfax.ru/samarskaya-oblast-samara/tos-krasnaya-glinka-inn-6313081390-ogrn-1026300844877-6906d9583aa6226ae0531b9aa8c04bb6
"ОБЩЕСТВЕННАЯ ОРГАНИЗАЦИЯ ТЕРРИТОРИАЛЬНОЕ ОБЩЕСТВЕННОЕ САМОУПРАВЛЕНИЕ ""КРУТЫЕ КЛЮЧИ"" КРАСНОГЛИНСКОГО РАЙОНА ГОРОДСКОГО ОКРУГА САМАРА",ТОС КРУТЫЕ КЛЮЧИ,1206300012984,"443075, Самарская обл., г. Самара, бульвар Ивана Финютина (Крутые Ключи Мкр.), д. 37 кв. 15", 53.320345, 50.311509,88.10,Предоставление социальных услуг без обеспечения проживания престарелым и инвалидам,https://spark-interfax.ru/samarskaya-oblast-samara/oo-krutye-klyuchi-inn-6313558309-ogrn-1206300012984-9f3663a5debb5c9be053179aa8c0b045
ТЕРРИТОРИАЛЬНОЕ ОБЩЕСТВЕННОЕ САМОУПРАВЛЕНИЕ № 7 ОКТЯБРЬСКОГО РАЙОНА ГОРОДСКОГО ОКРУГА САМАРА,ТОС № 7 ОКТЯБРЬСКОГО РАЙОНА Г.О. САМАРА,1106300004843,"443086, Самарская обл., г. Самара, ул. Подшипниковая, д. 24", 53.211647, 50.170030,93.19,Деятельность в области спорта прочая,https://spark-interfax.ru/samarskaya-oblast-samara/tos-n-oktyabrskogo-raiona-g-o-samara-inn-6316158186-ogrn-1106300004843-6906d9592149226ae0531b9aa8c04bb6
"ТЕРРИТОРИАЛЬНОЕ ОБЩЕСТВЕННОЕ САМОУПРАВЛЕНИЕ ""РУБЕЖНОЕ"" КУЙБЫШЕВСКОГО РАЙОНА ГОРОДСКОГО ОКРУГА САМАРА",ТОС РУБЕЖНОЕ,1086300004196,"443012, Самарская обл., г. Самара, ул. Охтинская, д. 38А", 53.136260, 50.234175,73.20.2,Деятельность по изучению общественного мнения,https://spark-interfax.ru/samarskaya-oblast-samara/tos-rubezhnoe-inn-6314031515-ogrn-1086300004196-6906d958ed74226ae0531b9aa8c04bb6
"ТЕРРИТОРИАЛЬНОЕ ОБЩЕСТВЕННОЕ САМОУПРАВЛЕНИЕ ""ЗУБЧАНИНОВКА"" КИРОВСКОГО РАЙОНА ГОРОДСКОГО ОКРУГА САМАРА",ТОС ЗУБЧАНИНОВКА,1026300773718,"443044, Самарская обл., г. Самара, пос. Зубчаниновка, ул. Магистральная, д. 129", 53.244967, 50.309659,88.10,Предоставление социальных услуг без обеспечения проживания престарелым и инвалидам,https://spark-interfax.ru/samarskaya-oblast-samara/tos-zubchaninovka-inn-6312026171-ogrn-1026300773718-6906d95869aa226ae0531b9aa8c04bb6
"ТЕРРИТОРИАЛЬНОЕ ОБЩЕСТВЕННОЕ САМОУПРАВЛЕНИЕ ""18 КМ МОСКОВСКОГО ШОССЕ"" КИРОВСКОГО РАЙОНА ГОРОДСКОГО ОКРУГА САМАРА",ТОС 18 КМ МОСКОВСКОГО ШОССЕ,1026300771903,"443072, Самарская обл., г. Самара, тер. 18 Км Московского Шоссе, д. 18 ком. 15", 53.198627, 50.113987,88.10,Предоставление социальных услуг без обеспечения проживания престарелым и инвалидам,https://spark-interfax.ru/samarskaya-oblast-samara/tos-km-moskovskogo-shosse-inn-6312032263-ogrn-1026300771903-6906d9588e0b226ae0531b9aa8c04bb6
"ТЕРРИТОРИАЛЬНОЕ ОБЩЕСТВЕННОЕ САМОУПРАВЛЕНИЕ ""РУСЬ"" ЛЕНИНСКОГО РАЙОНА ГОРОДСКОГО ОКРУГА САМАРА",ТОС РУСЬ ЛЕНИНСКОГО РАЙОНА ГОРОДСКОГО ОКРУГА САМАРА,1096300002370,"443041, Самарская обл., г. Самара, ул. Ленинская, д. 152А", 53.192726, 50.109985,88.10,Предоставление социальных услуг без обеспечения проживания престарелым и инвалидам,https://spark-interfax.ru/samarskaya-oblast-samara/tos-rus-leninskogo-raiona-gorodskogo-okruga-samara-inn-6315946755-ogrn-1096300002370-6906d95908af226ae0531b9aa8c04bb6
"ТЕРРИТОРИАЛЬНОЕ ОБЩЕСТВЕННОЕ САМОУПРАВЛЕНИЕ ""ВОЛЖАНИН"" ЛЕНИНСКОГО РАЙОНА ГОРОДСКОГО ОКРУГА САМАРА",ТОС ВОЛЖАНИН,1096300002446,"443001, Самарская обл., г. Самара, ул. Садовая, д. 277", 53.201115, 50.118389,88.10,Предоставление социальных услуг без обеспечения проживания престарелым и инвалидам,https://spark-interfax.ru/samarskaya-oblast-samara/tos-volzhanin-inn-6315946723-ogrn-1096300002446-6906d9590821226ae0531b9aa8c04bb6
"ТЕРРИТОРИАЛЬНОЕ ОБЩЕСТВЕННОЕ САМОУПРАВЛЕНИЕ ""СОЦГОРОД"" КУЙБЫШЕВСКОГО РАЙОНА ГОРОДСКОГО ОКРУГА САМАРА",ТОС СОЦГОРОД,1086300004295,"443004, Самарская обл., г. Самара, ул. Калининградская, д. 28", 53.112646, 50.074487,73.20.2,Деятельность по изучению общественного мнения,https://spark-interfax.ru/samarskaya-oblast-samara/tos-sotsgorod-inn-6314031561-ogrn-1086300004295-6906d958f3f4226ae0531b9aa8c04bb6
"ТЕРРИТОРИАЛЬНОЕ ОБЩЕСТВЕННОЕ САМОУПРАВЛЕНИЕ ""УПРАВЛЕНЧЕСКИЙ"" КРАСНОГЛИНСКОГО РАЙОНА ГОРОДСКОГО ОКРУГА САМАРА",ТОС УПРАВЛЕНЧЕСКИЙ,1026300844888,"443026, Самарская обл., г. Самара, пгт. Управленческий, ул. Сергея Лазо, д. 46", 53.346970, 50.227593,88.10,Предоставление социальных услуг без обеспечения проживания престарелым и инвалидам,https://spark-interfax.ru/samarskaya-oblast-samara/tos-upravlencheski-inn-6313081249-ogrn-1026300844888-6906d958395a226ae0531b9aa8c04bb6
"ТЕРРИТОРИАЛЬНОЕ ОБЩЕСТВЕННОЕ САМОУПРАВЛЕНИЕ ""МИЧУРИНСКИЙ"" ЛЕНИНСКОГО РАЙОНА ГОРОДСКОГО ОКРУГА САМАРА",ТОС МИЧУРИНСКИЙ,1096300002336,"443096, Самарская обл., г. Самара, ул. Клиническая, д. 20", 53.200784, 50.137895,88.10,Предоставление социальных услуг без обеспечения проживания престарелым и инвалидам,https://spark-interfax.ru/samarskaya-oblast-samara/tos-michurinski-inn-6315946770-ogrn-1096300002336-6906d959043f226ae0531b9aa8c04bb6
"ОБЩЕСТВЕННАЯ ОРГАНИЗАЦИЯ ТЕРРИТОРИАЛЬНОЕ ОБЩЕСТВЕННОЕ САМОУПРАВЛЕНИЕ ""ЦЕНТРАЛЬНЫИ"" ЛЕНИНСКОГО РАИОНА ГОРОДСКОГО ОКРУГА САМАРА",ОО ТОС ЦЕНТРАЛЬНЫЙ,1096300002457,"443096, Самарская обл., г. Самара, ул. Чернореченская, д. 49А", 53.196802, 50.140530,88.10,Предоставление социальных услуг без обеспечения проживания престарелым и инвалидам,https://spark-interfax.ru/samarskaya-oblast-samara/tos-tsentralny-inn-6315946730-ogrn-1096300002457-6906d95904ac226ae0531b9aa8c04bb6
"ТЕРРИТОРИАЛЬНОЕ ОБЩЕСТВЕННОЕ САМОУПРАВЛЕНИЕ № 5 ""СТРУКОВСКИЙ""",ТОС №5 СТРУКОВСКИЙ,1036300442320,"443010, Самарская обл., г. Самара, ул. Вилоновская, д. 2А", 53.198836, 50.099658,88.10,Предоставление социальных услуг без обеспечения проживания престарелым и инвалидам,https://spark-interfax.ru/samarskaya-oblast-samara/tos-strukovski-inn-6315955735-ogrn-1036300442320-6906d958758a226ae0531b9aa8c04bb6
ОБЩЕСТВЕННАЯ ОРГАНИЗАЦИЯ ТЕРРИТОРИАЛЬНОЕ ОБЩЕСТВЕННОЕ САМОУПРАВЛЕНИЕ № 6 ОКТЯБРЬСКОГО РАЙОНА ГОРОДСКОГО ОКРУГА САМАРА,ТОС № 6 ОКТЯБРЬСКОГО РАЙОНА Г.О. САМАРА,1106300004293,"443110, Самарская обл., г. Самара, проспект Ленина, д. 3", 53.207988, 50.139404,93.19,Деятельность в области спорта прочая,https://spark-interfax.ru/samarskaya-oblast-samara/tos-n-oktyabrskogo-raiona-g-o-samara-inn-6316157680-ogrn-1106300004293-6906d959201b226ae0531b9aa8c04bb6
"ТЕРРИТОРИАЛЬНОЕ ОБЩЕСТВЕННОЕ САМОУПРАВЛЕНИЕ ""БЕРЕЗА"" КРАСНОГЛИНСКОГО РАЙОНА ГОРОДСКОГО ОКРУГА САМАРА",ТОС БЕРЕЗА,1026300844987,"443901, Самарская обл., г. Самара, пос. Береза, квартал 2-Й, д. 10 кв. 14", 53.519898, 50.137821,88.10,Предоставление социальных услуг без обеспечения проживания престарелым и инвалидам,https://spark-interfax.ru/samarskaya-oblast-samara/tos-bereza-inn-6313081270-ogrn-1026300844987-6906d9587188226ae0531b9aa8c04bb6
ТЕРРИТОРИАЛЬНОЕ ОБЩЕСТВЕННОЕ САМОУПРАВЛЕНИЕ №3 ОКТЯБРЬСКОГО РАЙОНА ГОРОДСКОГО ОКРУГА САМАРА,ТОС №3 ОКТЯБРЬСКОГО РАЙОНА Г.О. САМАРА,1106300004271,"443086, Самарская обл., г. Самара, ул. Подшипниковая, д. 24", 53.211647, 50.170030,93.19,Деятельность в области спорта прочая,https://spark-interfax.ru/samarskaya-oblast-samara/tos-n-oktyabrskogo-raiona-g-o-samara-inn-6316157672-ogrn-1106300004271-6906d9592007226ae0531b9aa8c04bb6
"ТЕРРИТОРИАЛЬНОЕ ОБЩЕСТВЕННОЕ САМОУПРАВЛЕНИЕ ""МЕХЗАВОД"" КРАСНОГЛИНСКОГО РАЙОНА ГОРОДСКОГО ОКРУГА САМАРА",ТОС МЕХЗАВОД,1026300844899,"443028, Самарская обл., г. Самара, пос. Мехзавод, квартал 4-Й, д. 9", 53.300923, 50.282656,88.10,Предоставление социальных услуг без обеспечения проживания престарелым и инвалидам,https://spark-interfax.ru/samarskaya-oblast-samara/tos-mekhzavod-inn-6313081295-ogrn-1026300844899-6906d958718a226ae0531b9aa8c04bb6
"МУНИЦИПАЛЬНОЕ ПРЕДПРИЯТИЕ ГОРОДСКОГО ОКРУГА САМАРА ""КОММУНАЛЬНО-БЫТОВЫЕ УСЛУГИ""",МП КБУ,6317007285,"443099, Самарская обл., г. Самара, ул. Фрунзе, д. 87/89", 53.186617, 50.091210,96.04,Деятельность физкультурно-оздоровительная,https://spark-interfax.ru/samarskaya-oblast-samara/mup-kbu-inn-6317007285-ogrn-1036300662595-6906d9578704226ae0531b9aa8c04bb6
"ЗАКРЫТОЕ АКЦИОНЕРНОЕ ОБЩЕСТВО КОМБИНАТ ШКОЛЬНОГО ПИТАНИЯ ""ДРУЖБА""",ЗАО КШП ДРУЖБА,6321059582,"445043, Самарская обл., г. Тольятти, ул. Северная, владение 35", 53.578674, 49.263425,56.29,Деятельность предприятий общественного питания по прочим видам организации питания,https://spark-interfax.ru/samarskaya-oblast-tolyatti/ao-druzhba-inn-6321059582-ogrn-1036301033108-757d6eeff418462783c2da32dc2e62fd
"ОБЩЕСТВО С ОГРАНИЧЕННОЙ ОТВЕТСТВЕННОСТЬЮ ""ЛЮБАВА""",ООО ЛЮБАВА,6321235848,"445030, Самарская обл., г. Тольятти, бульвар Цветной, д. 3 офис 57", 53.540336, 49.341322,56.29,Деятельность предприятий общественного питания по прочим видам организации питания,https://spark-interfax.ru/samarskaya-oblast-tolyatti/ooo-lyubava-inn-6321235848-ogrn-1096320014890-e1b4f1a6181c48618171eaaf1d9cfc2a
"ТЕРРИТОРИАЛЬНОЕ ОБЩЕСТВЕННОЕ САМОУПРАВЛЕНИЕ ""13 МИКРОРАЙОН"" КИРОВСКОГО РАЙОНА ГОРОДСКОГО ОКРУГА САМАРА",ТОС 13 МИКРОРАЙОН,1026300773707,"443114, Самарская обл., г. Самара, проспект Кирова, д. 399", 53.251725, 50.227543,88.10,Предоставление социальных услуг без обеспечения проживания престарелым и инвалидам,https://spark-interfax.ru/samarskaya-oblast-samara/tos-mikroraion-inn-6312034694-ogrn-1026300773707-6906d9588f17226ae0531b9aa8c04bb6
"ТЕРРИТОРИАЛЬНОЕ ОБЩЕСТВЕННОЕ САМОУПРАВЛЕНИЕ ""15 А МИКРОРАЙОН"" КИРОВСКОГО РАЙОНА ГОРОДСКОГО ОКРУГА САМАРА",ТОС 15 А МИКРОРАЙОН,1026300771694,"443098, Самарская обл., г. Самара, проспект Карла Маркса, д. 489 офис 1", 53.248199, 50.265164,88.10,Предоставление социальных услуг без обеспечения проживания престарелым и инвалидам,https://spark-interfax.ru/samarskaya-oblast-samara/tos-a-mikroraion-inn-6312034888-ogrn-1026300771694-6906d9586fc9226ae0531b9aa8c04bb6
ТЕРРИТОРИАЛЬНОЕ ОБЩЕСТВЕННОЕ САМОУПРАВЛЕНИЕ МИКРОРАЙОНА № 3 ЖЕЛЕЗНОДОРОЖНОГО РАЙОНА ГОРОДСКОГО ОКРУГА САМАРА,ТОС МИКРОРАЙОНА № 3,1096300000070,"443082, Самарская обл., г. Самара, ул. Владимирская, д. 48", 53.191011, 50.143538,88.10,Предоставление социальных услуг без обеспечения проживания престарелым и инвалидам,https://spark-interfax.ru/samarskaya-oblast-samara/tos-mikroraiona-n-inn-6311111716-ogrn-1096300000070-6906d958f401226ae0531b9aa8c04bb6
"ОБЩЕСТВО С ОГРАНИЧЕННОЙ ОТВЕТСТВЕННОСТЬЮ "" ХЛЕБОРОБ """,ООО ХЛЕБОРОБ,3631004676,"396894, Воронежская обл., Нижнедевицкий район, с. Нижнее Турово, проспект Труда, д. 32", 51.514062, 38.548544,01.11,"Выращивание зерновых (кроме риса), зернобобовых культур и семян масличных культур",https://spark-interfax.ru/voronezhskaya-oblast-nizhnedevitski-raion/ooo-khleborob-inn-3631004676-ogrn-1023601314483-d6f4e0a7de444bbebc123e7ef345145f
"НАУЧНО-ПРОИЗВОДСТВЕННАЯ ФИРМА ОБЩЕСТВО С ОГРАНИЧЕННОЙ ОТВЕТСТВЕННОСТЬЮ ""КАЛАЧСЕМЕНА""",НПФ ООО КАЛАЧСЕМЕНА,3610007852,"397600, Воронежская обл., Калачеевский район, пос. Пригородный, ул. Промышленников, д. 11", 50.373541, 41.019605,01.11.1,Выращивание зерновых культур,https://spark-interfax.ru/voronezhskaya-oblast-kalacheevski-raion/ooo-kalachsemena-inn-3610007852-ogrn-1023600791830-dd5ad4f10ec744eaa48ca6e96bec6204
"ЗАКРЫТОЕ АКЦИОНЕРНОЕ ОБЩЕСТВО АГРОФИРМА ""СЛАВЯНКА""",ЗАО АГРОФИРМА СЛАВЯНКА,3615002696,"396870, Воронежская обл., Нижнедевицкий район, с. Нижнедевицк, ул. Шматова, д. 29", 51.540836, 38.356319,01.11.1,Выращивание зерновых культур,https://spark-interfax.ru/voronezhskaya-oblast-nizhnedevitski-raion/ao-slavyanka-inn-3615002696-ogrn-1023601312910-0662840d1f4b4a429e9b2b85c976bd6e
"ОБЩЕСТВО С ОГРАНИЧЕННОЙ ОТВЕТСТВЕННОСТЬЮ ""СЕЛЬСКОХОЗЯЙСТВЕННОЕ ПРЕДПРИЯТИЕ""РУДАЕВСКОЕ""",ООО СХП РУДАЕВСКОЕ,3612006710,"396741, Воронежская обл, м.р-н Кантемировский, с.п. Титаревское, с Рудаевка, ул Садовая, д. 5", 49.771740, 40.102249,01.11.1,Выращивание зерновых культур,https://spark-interfax.ru/voronezhskaya-oblast-kantemirovski-raion/ooo-skhp-rudaevskoe-inn-3612006710-ogrn-1023600848480-b297ba982cd44c6a9218ef9ab3720a6a
"ОТКРЫТОЕ АКЦИОНЕРНОЕ ОБЩЕСТВО ""ВОСКОЗАВОД""",ОАО ВОСКОЗАВОД,3619004334,"397855, Воронежская обл., Острогожский район, г. Острогожск, ул. Освобождения, зд. 69", 50.856753, 39.065626,32.99.9,"Производство прочих изделий, не включенных в другие группировки",https://spark-interfax.ru/voronezhskaya-oblast-ostrogozhski-raion/pao-voskozavod-inn-3619004334-ogrn-1023601032278-7d9f2ceb5abf4997b98dbc83aff3f596
"ОБЩЕСТВО С ОГРАНИЧЕННОЙ ОТВЕТСТВЕННОСТЬЮ ""ШУРИНОВСКАЯ""",ООО ШУРИНОВСКАЯ,3603008887,"396762, Воронежская обл., Богучарский район, с. Шуриновка, ул. Октябрьская, д. 1", 49.736082, 40.392140,01.11.1,Выращивание зерновых культур,https://spark-interfax.ru/voronezhskaya-oblast-bogucharski-raion/ooo-shurinovskaya-inn-3603008887-ogrn-1203600007071-40c783fffe87437985af39b4175b3813
"СЕЛЬСКОХОЗЯЙСТВЕННАЯ АРТЕЛЬ ""ТЕРНОВСКАЯ""",СХА ТЕРНОВСКАЯ,3630000132,"397112, Воронежская обл, м.р-н Терновский, с.п. Терновское, с Терновка, ул 60 лет Октября, д. 90, ком. 1", 51.673365, 41.625994,01.11.1,Выращивание зерновых культур,https://spark-interfax.ru/voronezhskaya-oblast-ternovski-raion/kolkhoz-ternovskaya-inn-3630000132-ogrn-1023600610791-b6c43d31bdb2418d8ddecc4797a694ff
"ОБЩЕСТВО С ОГРАНИЧЕННОЙ ОТВЕТСТВЕННОСТЬЮ ""ЛАДА АГРО""",ООО ЛАДА АГРО,3620015210,"396420, Воронежская обл, м.р-н Павловский, г.п. город Павловск, г Павловск, ул Цветочная, д. 15", 50.462571, 40.132333,01.11,"Выращивание зерновых (кроме риса), зернобобовых культур и семян масличных культур",https://spark-interfax.ru/voronezhskaya-oblast-pavlovski-raion/ooo-lada-agro-inn-3620015210-ogrn-1213600019962-c49df05539c377cce053219aa8c02bc6
"ОБЩЕСТВО С ОГРАНИЧЕННОЙ ОТВЕТСТВЕННОСТЬЮ ""АГРО-СПЕКТР""",ООО АГРО-СПЕКТР,3626003290,"396391, Воронежская обл., Репьёвский район, с. Усть-Муравлянка, ул. Механическая, д. 3А", 51.045528, 38.847557,01.11.1,Выращивание зерновых культур,https://spark-interfax.ru/voronezhskaya-oblast-repevski-raion/ooo-agro-spektr-inn-3626003290-ogrn-1053683014428-26639fb40a024bffaaa6a83e5a61cc4b
"КРЕСТЬЯНСКОЕ ФЕРМЕРСКОЕ ХОЗЯЙСТВО ""МЕРКУРИЙ""",КФХ МЕРКУРИЙ,1023600934323,"396110, Воронежская обл., Верхнехавский район, с. Верхняя Хава, ул. Дзержинского, д. 3", 51.833476, 39.957163,01.1,Выращивание однолетних культур,https://spark-interfax.ru/voronezhskaya-oblast-verkhnekhavski-raion/kfkh-merkuri-inn-3607000134-ogrn-1023600934323-6906d94bb25a226ae0531b9aa8c04bb6
"ОБЩЕСТВО С ОГРАНИЧЕННОЙ ОТВЕТСТВЕННОСТЬЮ ""АГРОХИМИК""",ООО АГРОХИМИК,3632004439,"397030, Воронежская обл., Эртильский район, г. Эртиль, ул. Герцена, д. 12", 51.836719, 40.798280,01.11.1,Выращивание зерновых культур,https://spark-interfax.ru/voronezhskaya-oblast-ertilski-raion/ooo-agrokhimik-inn-3632004439-ogrn-1023600507710-16776710585047e0aeac57e3f819e5ad
"ОБЩЕСТВО С ОГРАНИЧЕННОЙ ОТВЕТСТВЕННОСТЬЮ ""МИЧУРИНСКОЕ""",ООО МИЧУРИНСКОЕ,3624003382,"396550, Воронежская обл., Подгоренский район, хутор Даньковский, ул. Полевая, д. 24Б", 50.520774, 39.667602,01.11.1,Выращивание зерновых культур,https://spark-interfax.ru/voronezhskaya-oblast-podgorenski-raion/ooo-michurinskoe-inn-3624003382-ogrn-1023601237186-cf6a643260a7410db01f1addf68a21b3
"КРЕСТЬЯНСКОЕ (ФЕРМЕРСКОЕ) ХОЗЯЙСТВО ""НИВА-2""",КФХ НИВА-2,1023601319939,"396910, Воронежская обл., Семилукский район, с. Нижняя Ведуга, ул. Ленина, д. 64", 51.741369, 38.653683,01.11.1,Выращивание зерновых культур,https://spark-interfax.ru/voronezhskaya-oblast-semilukski-raion/kfkh-niva-inn-3628003270-ogrn-1023601319939-6906d94ba013226ae0531b9aa8c04bb6
"ОБЩЕСТВО С ОГРАНИЧЕННОЙ ОТВЕТСТВЕННОСТЬЮ ИМЕНИ ""КУЙБЫШЕВА""",ООО КУЙБЫШЕВА,3632005489,"397030, Воронежская обл., Эртильский район, с. Копыл, ул. Ленина, зд. 19", 51.656154, 41.036413,01.11,"Выращивание зерновых (кроме риса), зернобобовых культур и семян масличных культур",https://spark-interfax.ru/voronezhskaya-oblast-ertilski-raion/ooo-kuibysheva-inn-3632005489-ogrn-1053668512501-9aebb302bfc54947a41a0aa8021a1797
"ОБЩЕСТВО С ОГРАНИЧЕННОЙ ОТВЕТСТВЕННОСТЬЮ ""САВАЛЬСКОЕ""",ООО САВАЛЬСКОЕ,3617006343,"397403, Воронежская обл., Новохопёрский район, с. Пыховка, ул. Молодежная, зд. 43", 51.018544, 41.502185,01.11.1,Выращивание зерновых культур,https://spark-interfax.ru/voronezhskaya-oblast-novokhoperski-raion/ooo-savalskoe-inn-3617006343-ogrn-1023600990720-421e835d95b94e4d8ec6317505394795
"ОБЩЕСТВО С ОГРАНИЧЕННОЙ ОТВЕТСТВЕННОСТЬЮ ""ЕСИПОВСКАЯ НИВА""",ООО ЕСИПОВСКАЯ НИВА,3630002612,"397100, Воронежская обл., Терновский район, пос. Есипово, ул. Мира, зд. 1", 51.753340, 41.515613,01.11.1,Выращивание зерновых культур,https://spark-interfax.ru/voronezhskaya-oblast-ternovski-raion/ooo-esipovskaya-niva-inn-3630002612-ogrn-1023600613222-69462ffe936b4873a31a3c7854e59100
"ОБЩЕСТВО С ОГРАНИЧЕННОЙ ОТВЕТСТВЕННОСТЬЮ ""ПРОМ-ИНВЕСТ""",ООО ПРОМ-ИНВЕСТ,3622003517,"397670, Воронежская обл., Петропавловский район, с. Петропавловка, ул. 9 Мая, д. 36", 50.088062, 40.889672,01.11.3,Выращивание семян масличных культур,https://spark-interfax.ru/voronezhskaya-oblast-petropavlovski-raion/ooo-prom-invest-inn-3622003517-ogrn-1023600793622-0500c759f13646d6a77c76a20ecdab85
"ОБЩЕСТВО С ОГРАНИЧЕННОЙ ОТВЕТСТВЕННОСТЬЮ ""ЗАРЯ""",ООО ЗАРЯ,3608004300,"397556, Воронежская обл., Воробьевский район, хутор Нагольный, ул. Восточная, д. 35", 50.652227, 41.386058,01.11.1,Выращивание зерновых культур,https://spark-interfax.ru/voronezhskaya-oblast-vorobevski-raion/ooo-zarya-inn-3608004300-ogrn-1063610005590-39799e5d5d00402e8036d2408c10d344
"ОБЩЕСТВО С ОГРАНИЧЕННОЙ ОТВЕТСТВЕННОСТЬЮ ""ЖУРАВУШКА""",ООО ЖУРАВУШКА,3606003799,"396482, Воронежская обл., Верхнемамонский район, с. Русская Журавка, ул. Центральная, д. 165", 50.355254, 40.562206,01.11.1,Выращивание зерновых культур,https://spark-interfax.ru/voronezhskaya-oblast-verkhnemamonski-raion/ooo-zhuravushka-inn-3606003799-ogrn-1023601076729-78bfb162ba064771b70795e3a2eb8ab4
"ОБЩЕСТВО С ОГРАНИЧЕННОЙ ОТВЕТСТВЕННОСТЬЮ ""АГРО-ОСТРОГОЖСК""",ООО АГРО-ОСТРОГОЖСК,3619011268,"397843, Воронежская обл., Острогожский район, с. Хохол-Тростянка, пер. Мира, д. 7 А", 50.800577, 38.778399,01.1,Выращивание однолетних культур,https://spark-interfax.ru/voronezhskaya-oblast-ostrogozhski-raion/ooo-agro-ostrogozhsk-inn-3619011268-ogrn-1113619000351-054600ab75b748058330580006bbf197
"ОБЩЕСТВО С ОГРАНИЧЕННОЙ ОТВЕТСТВЕННОСТЬЮ ""ГРАНАТ""",ООО ГРАНАТ,3610007845,"397610, Воронежская обл, м.р-н Калачеевский, с.п. Заброденское, с Заброды, ул Привольная, д. 55", 50.407780, 41.055491,01.11.1,Выращивание зерновых культур,https://spark-interfax.ru/voronezhskaya-oblast-kalacheevski-raion/ooo-granat-inn-3610007845-ogrn-1023600793072-5a2f2bb106524114adee5c9902618d09
"ОБЩЕСТВО С ОГРАНИЧЕННОЙ ОТВЕТСТВЕННОСТЬЮ ""КОРОТОЯКАГРОПРОМТЕХНИКА""",ООО КОРОТОЯКАГРОПРОМТЕХНИКА,3619010578,"397813, Воронежская обл., Острогожский район, с. Покровка, ул. Карла Маркса, д. 95", 50.973685, 39.168115,33.12,Ремонт машин и оборудования,https://spark-interfax.ru/voronezhskaya-oblast-ostrogozhski-raion/ooo-korotoyakagropromtekhnika-inn-3619010578-ogrn-1093619000090-e98b2f2650034efd8e697a1d31365458
"ОБЩЕСТВО С ОГРАНИЧЕННОЙ ОТВЕТСТВЕННОСТЬЮ ""ОСТРОГОЖСКАГРОПРОЕКТ""",ООО ОСТРОГОЖСКАГРОПРОЕКТ,3619022397,"397842, Воронежская обл., Острогожский район, с. Веретье, ул. Мира, д. 6 офис 10", 50.775827, 38.903810,01.41,"Разведение молочного крупного рогатого скота, производство сырого молока",https://spark-interfax.ru/voronezhskaya-oblast-ostrogozhski-raion/ooo-ostrogozhskagroproekt-inn-3619022397-ogrn-1163668115214-c425909400b24934b1ce95df4c6b0c5e
"ОБЩЕСТВО С ОГРАНИЧЕННОЙ ОТВЕТСТВЕННОСТЬЮ ""МЯСОМОЛОЧНАЯ КОМПАНИЯ ""ИНТЕРАГРО""",ООО ММК ИНТЕРАГРО,3612008467,"396730, Воронежская обл., Кантемировский район, рабочий пос. Кантемировка, ул. Заводская, д. 32 офис 1", 49.711279, 39.862838,01.4,Животноводство,https://spark-interfax.ru/voronezhskaya-oblast-kantemirovski-raion/ooo-mmk-interagro-inn-3612008467-ogrn-1123627000837-7a93ea62d486436f85efbd73b99a2a22
"ОБЩЕСТВО С ОГРАНИЧЕННОЙ ОТВЕТСТВЕННОСТЬЮ ""АГРОНАДЕЖДА""",ООО АГРОНАДЕЖДА,3612007463,"396739, Воронежская обл., Кантемировский район, с. Писаревка, ул. Молодежная, д. 23А", 49.882823, 40.180449,01.1,Выращивание однолетних культур,https://spark-interfax.ru/voronezhskaya-oblast-kantemirovski-raion/ooo-agronadezhda-inn-3612007463-ogrn-1053664572576-e3cf73bc679d4cb1b69dc3a423d9083e
"ОБЩЕСТВО С ОГРАНИЧЕННОЙ ОТВЕТСТВЕННОСТЬЮ ""ДМИТРИЕВСКОЕ""",ООО ДМИТРИЕВСКОЕ,3632005827,"397010, Воронежская обл., Эртильский район, пос. Дмитриевка, ул. Им.Фрунзе, д. 55 офис 1", 51.753601, 40.816063,01.11,"Выращивание зерновых (кроме риса), зернобобовых культур и семян масличных культур",https://spark-interfax.ru/voronezhskaya-oblast-ertilski-raion/ooo-dmitrievskoe-inn-3632005827-ogrn-1073601000153-318c27a9a2eb4b5e97ba2c0c5aab2e9d
"ОБЩЕСТВО С ОГРАНИЧЕННОЙ ОТВЕТСТВЕННОСТЬЮ "" АГРО-АК""",ООО АГРО-АК,3621006138,"397009, Воронежская обл, м.р-н Эртильский, с.п. Первомайское, п Комсомольское, ул Дальняя, д. 2", 51.677043, 40.786509,01.11,"Выращивание зерновых (кроме риса), зернобобовых культур и семян масличных культур",https://spark-interfax.ru/voronezhskaya-oblast-ertilski-raion/ooo-agro-ak-inn-3621006138-ogrn-1163668062194-e0805f19267d4dc4a59f0bdf0b6e118c
"ОБЩЕСТВО С ОГРАНИЧЕННОЙ ОТВЕТСТВЕННОСТЬЮ ""АГРОЛИДЕР""",ООО АГРОЛИДЕР,3632005979,"397023, Воронежская обл., Эртильский район, с. Малые Ясырки, ул. Лесная, зд. 19А", 51.665967, 40.518344,01.11,"Выращивание зерновых (кроме риса), зернобобовых культур и семян масличных культур",https://spark-interfax.ru/voronezhskaya-oblast-ertilski-raion/ooo-agrolider-inn-3632005979-ogrn-1083601000152-cdbe39797d0f48e8bae4a8005dfee048
"ОБЩЕСТВО С ОГРАНИЧЕННОЙ ОТВЕТСТВЕННОСТЬЮ ""ЗЕМЛЕМЕР-АГРО""",ООО ЗЕМЛЕМЕР-АГРО,3617007957,"397400, Воронежская обл., Новохоперский район, г. Новохоперск, ул. Советская, д. 97", 51.095044, 41.614545,01.1,Выращивание однолетних культур,https://spark-interfax.ru/voronezhskaya-oblast-novokhoperski-raion/ooo-zemlemer-agro-inn-3617007957-ogrn-1093629000079-5941efd760e04d778edf4dfcaffcbeac
"ОБЩЕСТВО С ОГРАНИЧЕННОЙ ОТВЕТСТВЕННОСТЬЮ ФИРМА ""НАДЕЖДА""",ООО ФИРМА НАДЕЖДА,3601007408,"396202, Воронежская обл, м.р-н Аннинский, с.п. Мосоловское, кв-л 36:01:0700007, зд. 356", 51.488499, 40.417393,01.11,"Выращивание зерновых (кроме риса), зернобобовых культур и семян масличных культур",https://spark-interfax.ru/voronezhskaya-oblast-anninski-raion/ooo-nadezhda-inn-3601007408-ogrn-1023600511252-ddcd671d40fa449e86524657f11d5ddc
"ОБЩЕСТВО С ОГРАНИЧЕННОЙ ОТВЕТСТВЕННОСТЬЮ ""МАКС-АГРО""",ООО МАКС-АГРО,3662188141,"396815, Воронежская обл., Хохольский район, с. Костёнки, ул. Набережная, д. 136 пом. 1", 51.392447, 39.051391,01.11.1,Выращивание зерновых культур,https://spark-interfax.ru/voronezhskaya-oblast-khokholski-raion/ooo-maks-agro-inn-3662188141-ogrn-1133668018043-a2b901030b384899bf63d8d9afa333e7
"ОБЩЕСТВО С ОГРАНИЧЕННОЙ ОТВЕТСТВЕННОСТЬЮ ""МАСЛОВСКОЕ""",ООО МАСЛОВСКОЕ,3628008511,"394075, Воронежская обл, г.о. город Воронеж, г Воронеж, ул Архитектора Быховского, д. 8", 51.740001, 39.162076,01.11.1,Выращивание зерновых культур,https://spark-interfax.ru/voronezhskaya-oblast-voronezh/ooo-maslovskoe-inn-3628008511-ogrn-1023601318894-c394c426cc9444a78b4b4a13501d2f98
"ОБЩЕСТВО С ОГРАНИЧЕННОЙ ОТВЕТСТВЕННОСТЬЮ ""ВОРОБЬЕВКААГРОСНАБ""",ООО ВОРОБЬЕВКААГРОСНАБ,3608004117,"397550, Воронежская обл., Воробьевский район, с. Лещаное, ул. Привокзальная, д. 3", 50.595306, 40.891613,01.11,"Выращивание зерновых (кроме риса), зернобобовых культур и семян масличных культур",https://spark-interfax.ru/voronezhskaya-oblast-vorobevski-raion/ooo-vorobevkaagrosnab-inn-3608004117-ogrn-1043680005380-6e1cf96457a44fe7b5d9307587800a5a
"ОБЩЕСТВО С ОГРАНИЧЕННОЙ ОТВЕТСТВЕННОСТЬЮ ""ПОБЕДА""",ООО ПОБЕДА,3613004384,"396351, Воронежская обл., Каширский район, с. Каширское, ул. 3 Интернационала, д. 84", 51.418593, 39.618955,01.11.1,Выращивание зерновых культур,https://spark-interfax.ru/voronezhskaya-oblast-kashirski-raion/ooo-pobeda-inn-3613004384-ogrn-1063616012900-afcbb1025803459a9f99b69fcd51217c
"ОБЩЕСТВО С ОГРАНИЧЕННОЙ ОТВЕТСТВЕННОСТЬЮ ""АГРО-ЗАРЕЧЬЕ""",ООО АГРО-ЗАРЕЧЬЕ,3605005257,"397507, Воронежская обл., Бутурлиновский район, г. Бутурлиновка, ул. Кирова, д. 3", 50.853605, 40.576613,01.11.1,Выращивание зерновых культур,https://spark-interfax.ru/voronezhskaya-oblast-buturlinovski-raion/ooo-agro-zareche-inn-3605005257-ogrn-1023600644374-1fe6907a38e04186ae266be2747d1ab6
"ОБЩЕСТВО С ОГРАНИЧЕННОЙ ОТВЕТСТВЕННОСТЬЮ ""ПРИДОНЬЕ""",ООО ПРИДОНЬЕ,3619011042,"397847, Воронежская обл., Острогожский район, с. Сторожевое 1-Е, ул. Советская, д. 132", 51.211895, 39.182264,01.11,"Выращивание зерновых (кроме риса), зернобобовых культур и семян масличных культур",https://spark-interfax.ru/voronezhskaya-oblast-ostrogozhski-raion/ooo-pridone-inn-3619011042-ogrn-1113619000065-e91e9aa1a26d44e2905ad26a262a5c3f
"ОБЩЕСТВО С ОГРАНИЧЕННОЙ ОТВЕТСТВЕННОСТЬЮ ""ДОНСКОЕ""",ООО ДОНСКОЕ,3631007300,"396813, Воронежская обл., Хохольский район, с. Гремячье, ул. Первомайская, д. 1А", 51.473024, 39.002883,01.11,"Выращивание зерновых (кроме риса), зернобобовых культур и семян масличных культур",https://spark-interfax.ru/voronezhskaya-oblast-khokholski-raion/ooo-donskoe-inn-3631007300-ogrn-1083668021909-8e77a1e7bef24fce9f2174907916f9fb
"АССОЦИАЦИЯ КРЕСТЬЯНСКИХ (ФЕРМЕРСКИХ) ХОЗЯЙСТВ ""СОДЕЙСТВИЕ""",АССОЦИАЦИЯ КФХ СОДЕЙСТВИЕ,1023600507985,"397030, Воронежская обл., Эртильский район, г. Эртиль, пл. Ленина, д. 5", 51.835510, 40.800339,70.22,Консультирование по вопросам коммерческой деятельности и управления,https://spark-interfax.ru/voronezhskaya-oblast-ertilski-raion/obedinenie-sodeistvie-inn-3632001942-ogrn-1023600507985-6906d94c0ee8226ae0531b9aa8c04bb6
"ОБЩЕСТВО С ОГРАНИЧЕННОЙ ОТВЕТСТВЕННОСТЬЮ ""АГРОСЕМЕЧКА""",ООО АГРОСЕМЕЧКА,3610008800,"397601, Воронежская обл., г. Калач, ул. Генерала Ватутина, д. 29", 50.418348, 40.983717,46.21.11,Торговля оптовая зерном,https://spark-interfax.ru/voronezhskaya-oblast-kalacheevski-raion/ooo-agrosemechka-inn-3610008800-ogrn-1043680000143-617889547ef87e1ce0531b9aa8c027ab
"ОБЩЕСТВО С ОГРАНИЧЕННОЙ ОТВЕТСТВЕННОСТЬЮ ""ФАКЕЛ""",ООО ФАКЕЛ,3613005050,"396346, Воронежская обл., Каширский район, с. Боево, ул. Ленина, д. 10 кв. 2", 51.390530, 39.310605,01.11,"Выращивание зерновых (кроме риса), зернобобовых культур и семян масличных культур",https://spark-interfax.ru/voronezhskaya-oblast-kashirski-raion/ooo-fakel-inn-3613005050-ogrn-1173668029259-7f673f3975bd46999e71008aa856db91
"ОБЩЕСТВО С ОГРАНИЧЕННОЙ ОТВЕТСТВЕННОСТЬЮ ""АГРО-СТАРК""",ООО АГРО-СТАРК,3622003940,"397688, Воронежская обл., Петропавловский район, с. Старая Криуша, ул. Садовая, зд. 77А", 50.205072, 41.159950,01.1,Выращивание однолетних культур,https://spark-interfax.ru/voronezhskaya-oblast-petropavlovski-raion/ooo-agro-stark-inn-3622003940-ogrn-1023600792775-e1b63ca83a244ad6842aa8a670710256
"КРЕСТЬЯНСКОЕ (ФЕРМЕРСКОЕ) ХОЗЯЙСТВО ""НОВОКУТКОВСКОЕ""",КФХ НОВОКУТКОВСКОЕ,1023600991545,"397402, Воронежская обл., Новохопёрский район, пос. Новопокровский", 51.246288, 41.305786,01.11.11,Выращивание пшеницы,https://spark-interfax.ru/voronezhskaya-oblast-novokhoperski-raion/kfkh-novokutkovskoe-inn-3617000327-ogrn-1023600991545-6906d94b9ecc226ae0531b9aa8c04bb6
"ОБЩЕСТВО С ОГРАНИЧЕННОЙ ОТВЕТСТВЕННОСТЬЮ ""ШОССЕ""",ООО ШОССЕ,6319119918,"443521, Самарская обл., Волжский район, пос. Ровно-Владимировка, ул. Гаражный, д. 3", 52.911195, 50.374175,49.31,Деятельность сухопутного пассажирского транспорта: перевозки пассажиров в городском и пригородном сообщении,https://spark-interfax.ru/samarskaya-oblast-volzhski-raion/ooo-shosse-inn-6319119918-ogrn-1056319126577-232da493c87f4784b6906c1bceb149da
"ОБЩЕСТВО С ОГРАНИЧЕННОЙ ОТВЕТСТВЕННОСТЬЮ КРЕСТЬЯНСКОЕ ХОЗЯЙСТВО "" ВОРОНОВСКОЕ""",ООО КХ ВОРОНОВСКОЕ,6365004372,"446292, Самарская обл., Большечерниговский район, пос. Глушицкий, ул. Зеленая, д. 2", 52.156810, 50.427966,01.5,Смешанное сельское хозяйство,https://spark-interfax.ru/samarskaya-oblast-bolshechernigovski-raion/ooo-voronovskoe-inn-6365004372-ogrn-1036302281564-a9aa35ba846d4782a3028f49ef037914
"МЕСТНАЯ МУСУЛЬМАНСКАЯ РЕЛИГИОЗНАЯ ОРГАНИЗАЦИЯ ""МЕЧЕТЬ"" СЕЛА БОЛЬШАЯ ГЛУШИЦА САМАРСКОЙ ОБЛАСТИ",МЕСТНАЯ МУСУЛЬМАНСКАЯ РЕЛИГИОЗНАЯ ОРГАНИЗАЦИЯ МЕЧЕТЬ СЕЛА БОЛЬШАЯ ГЛУШИЦА САМАРСКОЙ ОБЛАСТИ,1166313125956,"446180, Самарская обл., Большеглушицкий район, с. Большая Глушица, ул. Советская, д. 59", 52.392815, 50.476618,94.91,Деятельность религиозных организаций,https://spark-interfax.ru/samarskaya-oblast-bolsheglushitski-raion/ro-mechet-sela-bolshaya-glushitsa-samarskoi-oblasti-inn-6375003402-ogrn-1166313125956-6906d959dd71226ae0531b9aa8c04bb6
"АВТОНОМНАЯ НЕКОММЕРЧЕСКАЯ ОРГАНИЗАЦИЯ ""ЖЕНСКИЙ ФУТБОЛЬНЫЙ КЛУБ ""КРЫЛЬЯ СОВЕТОВ""",АНО ЖФК КС,1236300034310,"443030, Самарская обл, г.о. Самара, вн.р-н Железнодорожный, г Самара, ул Спортивная, д. 14, офис 1", 53.191680, 50.124134,93.12,Деятельность спортивных клубов,https://spark-interfax.ru/samarskaya-oblast-samara/ano-zhfk-ks-inn-6311197181-ogrn-1236300034310-0cacd4e9b8893b0ae063259aa8c0aabb
"ОБЩЕСТВО С ОГРАНИЧЕННОЙ ОТВЕТСТВЕННОСТЬЮ ""СИЛЕНА""",ООО СИЛЕНА,6311049105,"443030, Самарская обл., г. Самара, ул. Ново-Урицкая, д. 13", 53.181450, 50.154507,68.20.2,Аренда и управление собственным или арендованным нежилым недвижимым имуществом,https://spark-interfax.ru/samarskaya-oblast-samara/ooo-silena-inn-6311049105-ogrn-1026300520432-4d5bd7c6c9194e2891317492e07e783a
"ОБЩЕСТВО С ОГРАНИЧЕННОЙ ОТВЕТСТВЕННОСТЬЮ ""ВЕСНА""",ООО ВЕСНА,6330052054,"446250, Самарская обл., Безенчукский район, пгт. Безенчук, ул. Ломоносова, д. 12В к. 1 офис 10", 52.980900, 49.446425,01.13.3,Выращивание столовых корнеплодных и клубнеплодных культур с высоким содержанием крахмала или инулина,https://spark-interfax.ru/samarskaya-oblast-bezenchukski-raion/ooo-vesna-inn-6330052054-ogrn-1126330001060-a89e750d3ef846abb5830e116401dcae
СОБРАНИЕ ПРЕДСТАВИТЕЛЕЙ СЕЛЬСКОГО ПОСЕЛЕНИЯ НОВОЕ ГАНЬКИНО МУНИЦИПАЛЬНОГО РАЙОНА ИСАКЛИНСКИЙ САМАРСКОЙ ОБЛАСТИ,СОБРАНИЕ ПРЕДСТАВИТЕЛЕЙ СЕЛЬСКОГО ПОСЕЛЕНИЯ НОВОЕ ГАНЬКИНО,1056369007540,"446596, Самарская обл., Исаклинский район, с. Новое Ганькино, ул. Центральная, д. 5", 53.947114, 51.843393,84.11.3,Деятельность органов местного самоуправления по управлению вопросами общего характера,https://spark-interfax.ru/samarskaya-oblast-isaklinski-raion/mku-sobranie-predstavitelei-selskogo-poseleniya-novoe-gankino-inn-6369010169-ogrn-1056369007540-6906d9589ca0226ae0531b9aa8c04bb6
"АКЦИОНЕРНОЕ ОБЩЕСТВО ""КУПИНСКОЕ""",АО КУПИНСКОЕ,6330101248,"446247, Самарская обл, м.р-н Безенчукский, с.п. Купино, с Купино, ул Купинская, зд. 10", 52.992826, 49.564075,01.41,"Разведение молочного крупного рогатого скота, производство сырого молока",https://spark-interfax.ru/samarskaya-oblast-bezenchukski-raion/ao-kupinskoe-inn-6330101248-ogrn-1246300000726-6906d9577e4b226ae0531b9aa8c04bb6
"АКЦИОНЕРНОЕ ОБЩЕСТВО ""КРАСНЫЙ КЛЮЧ""",АО КРАСНЫЙ КЛЮЧ,6381030531,"446576, Самарская обл., Исаклинский район, д. Малое Микушкино, ул. Октябрьская, д. 22", 53.899867, 51.692083,01.11.1,Выращивание зерновых культур,https://spark-interfax.ru/samarskaya-oblast-isaklinski-raion/ao-krasny-klyuch-inn-6381030531-ogrn-1136381000535-f31b6a1082cd413d904689c14448d5c1
"ОБЩЕСТВО С ОГРАНИЧЕННОЙ ОТВЕТСТВЕННОСТЬЮ ""РАДНА""",ООО РАДНА,6363005010,"446628, Самарская обл., Богатовский район, с. Беловка, ул. Победа, д. 25 к. А", 53.186442, 51.377304,01.4,Животноводство,https://spark-interfax.ru/samarskaya-oblast-bogatovski-raion/ooo-radna-inn-6363005010-ogrn-1026303399693-682a8913de1b49f3bbe010f02a0e6528
"СЕЛЬСКОХОЗЯЙСТВЕННЫЙ ПРОИЗВОДСТВЕННЫЙ КООПЕРАТИВ ""ЗАРЯ""",СПК ЗАРЯ,6369011412,"446570, Самарская обл., Исаклинский район, с. Исаклы, ул. Первомайская, д. 80", 54.127826, 51.548837,01.1,Выращивание однолетних культур,https://spark-interfax.ru/samarskaya-oblast-isaklinski-raion/koop-zarya-inn-6369011412-ogrn-1076369000465-4941eae7037740348dc30eae6fdc8d88
"СЕЛЬСКОХОЗЯЙСТВЕННЫЙ ПОТРЕБИТЕЛЬСКИЙ ПЕРЕРАБАТЫВАЮЩЕ-СБЫТОВОЙ КООПЕРАТИВ ""МАЗИНСКАЯ ФЕРМА""",СППСК МАЗИНСКАЯ ФЕРМА,1226300046224,"446724, Самарская обл, м.р-н Шигонский, с.п. Новодевичье, с Маза, ул Калинина, д. 94", 53.514153, 48.854160,10.51,Производство молока (кроме сырого) и молочной продукции,https://spark-interfax.ru/samarskaya-oblast-shigonski-raion/koop-mazinskaya-ferma-inn-6325078385-ogrn-1226300046224-ee6bf400977c46dce053249aa8c0fc6a
"ОБЩЕСТВО С ОГРАНИЧЕННОЙ ОТВЕТСТВЕННОСТЬЮ ""ДИМИТРОВГРАДСКИЙ КОМБИНАТ МЯСОПРОДУКТОВ""",ООО ДИКОМ,7310007986,"433511, Ульяновская обл., г. Димитровград, ул. Куйбышева, зд. 396", 54.219724, 49.621253,10.11.1,Производство мяса в охлажденном виде,https://spark-interfax.ru/ulyanovskaya-oblast-dimitrovgrad/ooo-dikom-inn-7310007986-ogrn-1027300545250-0c28f0066c224c0196071c115e8fa9f5
"ОБЩЕСТВО С ОГРАНИЧЕННОЙ ОТВЕТСТВЕННОСТЬЮ ""КЛОНДАЙК""",ООО КЛОНДАЙК,6321272303,"445131, Самарская обл, м.р-н Ставропольский, с.п. Узюково, с Узюково, ул Школьная, д. 1Е", 53.643139, 49.694136,01.41,"Разведение молочного крупного рогатого скота, производство сырого молока",https://spark-interfax.ru/samarskaya-oblast-stavropolski-raion/ooo-klondaik-inn-6321272303-ogrn-1116320017351-974a1c27f66b4771a0a2502c72afe4cc
"ОБЩЕСТВО С ОГРАНИЧЕННОЙ ОТВЕТСТВЕННОСТЬЮ ""ШКОЛА НОВЫХ ПРОФЕССИЙ""",ООО ШКОЛА НОВЫХ ПРОФЕССИЙ,6321408321,"445024, Самарская обл., г. Тольятти, ул. Революционная, д. 7Б офис 5", 53.531508, 49.277847,85.41,Образование дополнительное детей и взрослых,https://spark-interfax.ru/samarskaya-oblast-tolyatti/ooo-shkola-novykh-professi-inn-6321408321-ogrn-1166313087390-6edd2bc8053c41c9b47c0a6ac3a52608
"ОБЩЕСТВО С ОГРАНИЧЕННОЙ ОТВЕТСТВЕННОСТЬЮ ""ПРОЕКТНАЯ ШКОЛА - САМАРА""",ООО ПРОЕКТНАЯ ШКОЛА - САМАРА,6314047811,"443015, Самарская обл, г.о. Самара, вн.р-н Куйбышевский, г Самара, ул Главная, д. 3, офис 20", 53.169022, 50.074957,85.41,Образование дополнительное детей и взрослых,https://spark-interfax.ru/samarskaya-oblast-samara/ooo-proektnaya-shkola-samara-inn-6314047811-ogrn-1216300037216-c991486ca4e94f62e053219aa8c05c62
"АВТОНОМНАЯ НЕКОММЕРЧЕСКАЯ ОРГАНИЗАЦИЯ ЦЕНТР РАЗВИТИЯ ЛИЧНОСТИ ""ТРИ КИТА""",АНО ЦРЛ ТРИ КИТА,1246300004554,"443092, Самарская обл, г.о. Самара, вн.р-н Кировский, г Самара, ул Победы, д. 141", 53.224851, 50.275473,85.41.9,"Образование дополнительное детей и взрослых, не включенное в другие группировки",https://spark-interfax.ru/samarskaya-oblast-samara/ano-tsrl-tri-kita-inn-6312218532-ogrn-1246300004554-122cdbb5c45c4ed8e063259aa8c05b89
"ОБЩЕСТВО С ОГРАНИЧЕННОЙ ОТВЕТСТВЕННОСТЬЮ ""УТРО""",ООО УТРО,6321088343,"445037, Самарская обл., г. Тольятти, ул. Фрунзе, д. 10 офис 75", 53.515009, 49.290740,58.13,Издание газет,https://spark-interfax.ru/samarskaya-oblast-tolyatti/ooo-utro-inn-6321088343-ogrn-1036301039422-44214a9fbc2348ab96e6d1fa4bddcee5
"ОБЩЕСТВО С ОГРАНИЧЕННОЙ ОТВЕТСТВЕННОСТЬЮ ИЗДАТЕЛЬСКИЙ ДОМ ""ИНФО - ПРЕСС""",ООО ИД ИНФО - ПРЕСС,6323080283,"445021, Самарская обл., г. Тольятти, ул. Жилина, д. 52А", 53.502453, 49.415414,58.13,Издание газет,https://spark-interfax.ru/samarskaya-oblast-tolyatti/ooo-info-press-inn-6323080283-ogrn-1056320020063-e56168a50cbf4061862b377d42f6825a
"НЕКОММЕРЧЕСКАЯ ОРГАНИЗАЦИЯ ""РЕГИОНАЛЬНЫЙ ОПЕРАТОР САМАРСКОЙ ОБЛАСТИ ""ФОНД КАПИТАЛЬНОГО РЕМОНТА""",НО ФКР,1136300002365,"443013, Самарская обл., г. Самара, ул. Дачная, д. 24", 53.198743, 50.145191,64.99,"Предоставление прочих финансовых услуг, кроме услуг по страхованию и пенсионному обеспечению, не включенных в другие группировки",https://spark-interfax.ru/samarskaya-oblast-samara/fond-fkr-inn-6315990666-ogrn-1136300002365-6906d95783ca226ae0531b9aa8c04bb6
"ОБЩЕСТВО С ОГРАНИЧЕННОЙ ОТВЕТСТВЕННОСТЬЮ""ДИПТАУН""",ОООДИПТАУН,632401001,"445010, Самарская обл., г. Тольятти, ул. Мира, д. 60 к. Б", 53.507768, 49.404357,99999,99999,https://spark-interfax.ru/samarskaya-oblast-tolyatti/ooo-diptaun-inn-6323059250-ogrn-1126324015454-6178895fe3fe7e1ce0531b9aa8c027ab
"ОБЩЕСТВО С ОГРАНИЧЕННОЙ ОТВЕТСТВЕННОСТЬЮ ""ПОБЕДА-АГРО""",ООО ПОБЕДА-АГРО,6382067397,"445132, Самарская обл., Ставропольский район, с. Ташла, ул. Зеленая, д. 7", 53.707085, 49.757439,46.21,"Торговля оптовая зерном, необработанным табаком, семенами и кормами для сельскохозяйственных животных",https://spark-interfax.ru/samarskaya-oblast-stavropolski-raion/ooo-pobeda-agro-inn-6382067397-ogrn-1146382000654-823656eab2f345f48df4b264387614cc
"ОБЩЕСТВО С ОГРАНИЧЕННОЙ ОТВЕТСТВЕННОСТЬЮ "" ХОРОШЕНЬКОЕ -АГРО""",ООО ХОРОШЕНЬКОЕ -АГРО,6376063436,"446387, Самарская обл., Красноярский район, с. Хорошенькое, ул. Центральная, д. 78", 53.541418, 50.595532,01.11,"Выращивание зерновых (кроме риса), зернобобовых культур и семян масличных культур",https://spark-interfax.ru/samarskaya-oblast-krasnoyarski-raion/ooo-khoroshenkoe-agro-inn-6376063436-ogrn-1076376000205-8ec507843f7a4368a4962a3a61f1dd76
"ПРОИЗВОДСТВЕННЫЙ СЕЛЬСКОХОЗЯЙСТВЕННЫЙ КООПЕРАТИВ ""СТЕПНАЯ ШЕНТАЛА""",ПСК СТЕПНАЯ ШЕНТАЛА,6374003086,"446811, Самарская обл., Кошкинский район, с. Степная Шентала, ул. Центральная, д. 44", 54.311350, 50.322892,01.11.1,Выращивание зерновых культур,https://spark-interfax.ru/samarskaya-oblast-koshkinski-raion/koop-stepnaya-shentala-inn-6374003086-ogrn-1026303766631-03469c3ab3cd4f15b40f8e6825debbb6
"АВТОНОМНАЯ НЕКОММЕРЧЕСКАЯ ОРГАНИЗАЦИЯ ""БАСКЕТБОЛЬНЫЙ КЛУБ ""САМАРА""",АНО БК САМАРА,1256300002562,"443100, Самарская обл, г.о. Самара, вн.р-н Ленинский, г Самара, ул Молодогвардейская, д. 222", 53.206112, 50.116791,93.12,Деятельность спортивных клубов,https://spark-interfax.ru/samarskaya-oblast-samara/ano-bk-samara-inn-6317169286-ogrn-1256300002562-2dadca49c7ca2ef8e063269aa8c048e7
"МУНИЦИПАЛЬНОЕ ПРЕДПРИЯТИЕ ГОРОДСКОГО ОКРУГА САМАРА ""СПЕЦКОМБИНАТ РИТУАЛЬНЫХ УСЛУГ""",МП Г.О. САМАРА СПЕЦКОМБИНАТ РИТУАЛЬНЫХ УСЛУГ,6311026193,"443070, Самарская обл., г. Самара, ул. Дзержинского, д. 27 офис 1", 53.189731, 50.172720,96.03,Организация похорон и предоставление связанных с ними услуг,https://spark-interfax.ru/samarskaya-oblast-samara/mup-spetskombinat-ritualnykh-uslug-inn-6311026193-ogrn-1026300530508-6906d9577a53226ae0531b9aa8c04bb6
"СЕЛЬСКОХОЗЯЙСТВЕННЫЙ ПОТРЕБИТЕЛЬСКИЙ ПЕРЕРАБАТЫВАЮЩИЙ СНАБЖЕНЧЕСКО-СБЫТОВОЙ ОБСЛУЖИВАЮЩИЙ КООПЕРАТИВ ""КАМЫШЛИНСКИЙ""",СППССОК КАМЫШЛИНСКИЙ,1216300059766,"446970, Самарская обл, м.р-н Камышлинский, с.п. Камышла, с Камышла, ул Мусы Джалиля, д. 12", 54.134808, 52.148149,01.50,Смешанное сельское хозяйство,https://spark-interfax.ru/samarskaya-oblast-kamyshlinski-raion/koop-kamyshlinski-inn-6381021985-ogrn-1216300059766-d377f86d1e720a5ce053259aa8c0294b
"ОБЩЕСТВО С ОГРАНИЧЕННОЙ ОТВЕТСТВЕННОСТЬЮ КОМПАНИЯ ""БИО-ТОН""",ООО КОМПАНИЯ БИО-ТОН,6367044243,"446172, Самарская обл., Пестравский район, с. Марьевка, ул. Советская, д. 1В", 52.565229, 49.440669,01.1,Выращивание однолетних культур,https://spark-interfax.ru/samarskaya-oblast-pestravski-raion/ooo-bio-ton-inn-6367044243-ogrn-1046302401034-6d29617df8364d7f806b98aa8b631d17
"ОБЩЕСТВО С ОГРАНИЧЕННОЙ ОТВЕТСТВЕННОСТЬЮ ""РАДУГА""",ООО РАДУГА,6357941950,"446493, Самарская обл, м.р-н Похвистневский, с.п. Среднее Аверкино, с Нижнеаверкино, ул Овражная, д. 8", 53.645743, 52.018563,01.11.1,Выращивание зерновых культур,https://spark-interfax.ru/samarskaya-oblast-pokhvistnevski-raion/ooo-raduga-inn-6357941950-ogrn-1056357001128-181c793e7c6d486b9e7cef1a8c6bad25
"ОБЩЕСТВО С ОГРАНИЧЕННОЙ ОТВЕТСТВЕННОСТЬЮ ""СП ВЯЗНОВАТОВКА""",ООО СП ВЯЗНОВАТОВКА,3615005217,"396891, Воронежская обл., Нижнедевицкий район, с. Вязноватовка, ул. Мира, д. 122", 51.563794, 38.468570,01.41,"Разведение молочного крупного рогатого скота, производство сырого молока",https://spark-interfax.ru/voronezhskaya-oblast-nizhnedevitski-raion/ooo-sp-vyaznovatovka-inn-3615005217-ogrn-1083668037980-43d6d2b8261e40ccb47c466a9732e81c
"ОБЩЕСТВО С ОГРАНИЧЕННОЙ ОТВЕТСТВЕННОСТЬЮ ""ДУБРАВА""",ООО ДУБРАВА,3664206205,"394006, Воронежская обл., г. Воронеж, ул. Станкевича, д. 36 офис 1", 51.655232, 39.194143,01.11,"Выращивание зерновых (кроме риса), зернобобовых культур и семян масличных культур",https://spark-interfax.ru/voronezhskaya-oblast-voronezh/ooo-dubrava-inn-3664206205-ogrn-1153668018602-0e91bad3899342a4aeba9ea126fb33f1
"ОБЩЕСТВО С ОГРАНИЧЕННОЙ ОТВЕТСТВЕННОСТЬЮ ""МАШИННО-ТЕХНОЛОГИЧЕСКАЯ СТАНЦИЯ"" НОВОУСМАНСКАЯ""",ООО МТС НОВОУСМАНСКАЯ,3616007217,"396324, Воронежская обл., Новоусманский район, с. Горенские Выселки, ул. 70 Лет Октября стр. 1В", 51.555858, 39.735038,01.11,"Выращивание зерновых (кроме риса), зернобобовых культур и семян масличных культур",https://spark-interfax.ru/voronezhskaya-oblast-novousmanski-raion/ooo-mts-novousmanskaya-inn-3616007217-ogrn-1023600935610-32ecff76468146c68d14b54232238f10
"ОБЩЕСТВО С ОГРАНИЧЕННОЙ ОТВЕТСТВЕННОСТЬЮ ""КАЛАЧ-АГРО-КОМПЛЕКС""",ООО КАЛАЧ-АГРО-КОМПЛЕКС,3610010100,"397622, Воронежская обл., Калачеевский район, с. Хрещатое, ул. Красная Площадь, зд. 1", 50.359447, 40.708432,01.61,Предоставление услуг в области растениеводства,https://spark-interfax.ru/voronezhskaya-oblast-kalacheevski-raion/ooo-kalach-agro-kompleks-inn-3610010100-ogrn-1063610006327-a2afd352eb22463a8ad6cf7e4177d2de
"ОБЩЕСТВО С ОГРАНИЧЕННОЙ ОТВЕТСТВЕННОСТЬЮ ""ЗВЕЗДА""",ООО ЗВЕЗДА,3619008402,"397855, Воронежская обл., Острогожский район, г. Острогожск, ул. Карла Маркса, зд. 24 офис 8", 50.864899, 39.079422,01.11,"Выращивание зерновых (кроме риса), зернобобовых культур и семян масличных культур",https://spark-interfax.ru/voronezhskaya-oblast-ostrogozhski-raion/ooo-zvezda-inn-3619008402-ogrn-1043683002967-7946b1cf10e14410bce41707c2bd7075
"ОБЩЕСТВО С ОГРАНИЧЕННОЙ ОТВЕТСТВЕННОСТЬЮ ""РУСАГРО""",ООО РУСАГРО,3622000643,"397673, Воронежская обл., Петропавловский район, с. Старая Меловая, ул. Им Ленина, д. 64", 50.277024, 40.863978,01.11,"Выращивание зерновых (кроме риса), зернобобовых культур и семян масличных культур",https://spark-interfax.ru/voronezhskaya-oblast-petropavlovski-raion/ooo-rusagro-inn-3622000643-ogrn-1163668121638-e5046e02c2ae4ae48aa3f4e017dc967b
"ОБЩЕСТВО С ОГРАНИЧЕННОЙ ОТВЕТСТВЕННОСТЬЮ ""НАЧАЛО""",ООО НАЧАЛО,3627033018,"396616, Воронежская обл, м.р-н Россошанский, с.п. Новопостояловское, п Начало, ул Мичурина, д. 10, помещ. 2", 50.229030, 39.576692,01.11.1,Выращивание зерновых культур,https://spark-interfax.ru/voronezhskaya-oblast-rossoshanski-raion/ooo-nachalo-inn-3627033018-ogrn-1223600005265-a6421d80210a49008adabb28a8a0c9b3
"ОБЩЕСТВО С ОГРАНИЧЕННОЙ ОТВЕТСТВЕННОСТЬЮ СЕЛЬСКОХОЗЯЙСТВЕННОЕ ПРЕДПРИЯТИЕ ""СТАРТ""",ООО СХП СТАРТ,3612007544,"396742, Воронежская обл., Кантемировский район, с. Титаревка, ул. Победы, д. 41", 49.744911, 40.163935,01.11.1,Выращивание зерновых культур,https://spark-interfax.ru/voronezhskaya-oblast-kantemirovski-raion/ooo-start-inn-3612007544-ogrn-1063627004154-2a30b073b3cc4e3b8ff76e084e93bd34
"ОБЩЕСТВО С ОГРАНИЧЕННОЙ ОТВЕТСТВЕННОСТЬЮ ""ПЕРВОМАЙСКОЕ-АГРО""",ООО ПЕРВОМАЙСКОЕ-АГРО,3627029942,"396637, Воронежская обл, м.р-н Россошанский, с.п. Криничанское, с Первомайское, ул Колхозная, д. 16Б, офис 1", 49.973263, 39.958608,01.11,"Выращивание зерновых (кроме риса), зернобобовых культур и семян масличных культур",https://spark-interfax.ru/voronezhskaya-oblast-rossoshanski-raion/ooo-pervomaiskoe-agro-inn-3627029942-ogrn-1163668123300-c55151c821f748d5a8226806749f7982
"КОЛХОЗ "" НОВЫЙ ПУТЬ """,КОЛХОЗ НОВЫЙ ПУТЬ,3608000137,"397558, Воронежская обл., Воробьевский район, с. Никольское 2-Е, ул. Школьная, д. 10", 50.610839, 41.155876,01.11.1,Выращивание зерновых культур,https://spark-interfax.ru/voronezhskaya-oblast-vorobevski-raion/kolkhoz-novy-put-inn-3608000137-ogrn-1023600797219-b9c0c14bb6314afa91f2fd9105e91e3a
"ОБЩЕСТВО С ОГРАНИЧЕННОЙ ОТВЕТСТВЕННОСТЬЮ ""СЕЛЬСКОХОЗЯЙСТВЕННОЕ ПРЕДПРИЯТИЕ ""ПЕСКОВСКОЕ""",ООО СХП ПЕСКОВСКОЕ,3623006091,"397341, Воронежская обл., Поворинский район, с. Пески, ул. Международная, д. 1-Б", 51.261642, 42.473311,01.1,Выращивание однолетних культур,https://spark-interfax.ru/voronezhskaya-oblast-povorinski-raion/ooo-peskovskoe-inn-3623006091-ogrn-1023600611121-56edff0a5f5c4112888b68fc0319695d
"ОБЩЕСТВО С ОГРАНИЧЕННОЙ ОТВЕТСТВЕННОСТЬЮ ""ВОСТОК""",ООО ВОСТОК,3632006732,"397003, Воронежская обл, м.р-н Эртильский, с.п. Большедобринское, с Большая Добринка, ул Центральная, д. 15", 51.883465, 40.847500,01.11,"Выращивание зерновых (кроме риса), зернобобовых культур и семян масличных культур",https://spark-interfax.ru/voronezhskaya-oblast-ertilski-raion/ooo-vostok-inn-3632006732-ogrn-1223600021743-2d2ba1237b9142a38890bde7e75097a9
"КОЛЛЕКТИВНОЕ ХОЗЯЙСТВО ""БОЛЬШЕВИК""",КОЛХОЗ БОЛЬШЕВИК,3610002460,"397631, Воронежская обл., Калачеевский район, с. Пришиб, ул. 20 Лет Октября, д. 78А", 50.456821, 41.005643,01.41,"Разведение молочного крупного рогатого скота, производство сырого молока",https://spark-interfax.ru/voronezhskaya-oblast-kalacheevski-raion/kolkhoz-bolshevik-inn-3610002460-ogrn-1023600796394-98696ad0b9ab4b9b913a4e8b382ca601
"ОБЩЕСТВО С ОГРАНИЧЕННОЙ ОТВЕТСТВЕННОСТЬЮ СХП ""ПРОСТОР""",ООО СХП ПРОСТОР,3619011170,"397855, Воронежская обл., Острогожский район, г. Острогожск, ул. Кирова, зд. 110", 50.855897, 39.053834,01.11,"Выращивание зерновых (кроме риса), зернобобовых культур и семян масличных культур",https://spark-interfax.ru/voronezhskaya-oblast-ostrogozhski-raion/ooo-prostor-inn-3619011170-ogrn-1113619000252-ce668c7766934bb6a079fdf2f58d7565
"ОБЩЕСТВО С ОГРАНИЧЕННОЙ ОТВЕТСТВЕННОСТЬЮ ""БОЛЬШЕВИК""",ООО БОЛЬШЕВИК,3631006391,"396851, Воронежская обл., Хохольский район, с. Староникольское, ул. Веры Чуркиной, д. 1", 51.461235, 38.752973,01.50,Смешанное сельское хозяйство,https://spark-interfax.ru/voronezhskaya-oblast-khokholski-raion/ooo-bolshevik-inn-3631006391-ogrn-1153668073965-3c88565a46324daebf7f6c06c8cc89c3
"ОБЩЕСТВО С ОГРАНИЧЕННОЙ ОТВЕТСТВЕННОСТЬЮ ""ДРУЖБА""",ООО ДРУЖБА,3624004266,"396563, Воронежская обл., Подгоренский район, хутор Петропавловка, ул. 23 Февраля, д. 8", 50.381071, 39.594534,01.11.1,Выращивание зерновых культур,https://spark-interfax.ru/voronezhskaya-oblast-podgorenski-raion/ooo-druzhba-inn-3624004266-ogrn-1063627009236-ac24f503568a47128b91e0b1766e039a
"ОБЩЕСТВО С ОГРАНИЧЕННОЙ ОТВЕТСТВЕННОСТЬЮ ""ХОПЕР- 1""",ООО ХОПЕР-1,3617007587,"394030, Воронежская обл, г.о. город Воронеж, г Воронеж, ул Революции 1905 года, д. 31В, кв. 119", 51.666883, 39.186470,47.30,Торговля розничная моторным топливом в специализированных магазинах,https://spark-interfax.ru/voronezhskaya-oblast-voronezh/ooo-khoper-inn-3617007587-ogrn-1063629005450-7718c7ba88d1449482c7e8af6895216b
