Название,Название Кратко,ИНН,адрес,lat,lon,Код оквэд,Основной вид деятельности,Ссылка
"ТОВАРИЩЕСТВО НА ВЕРЕ ""ПОДЛИПАЕВ, ГЕРАСИМОВ И КОМПАНИЯ""","ТНВ ПОДЛИПАЕВ, ГЕРАСИМОВ И КОМПАНИЯ",3603004547,"396772, Воронежская обл., Богучарский район, с. Монастырщина, ул. Первомайская, д. 36 А", 49.817299, 40.900318,01.11.1,Выращивание зерновых культур,https://spark-interfax.ru/voronezhskaya-oblast-bogucharski-raion/tv-podlipaev-gerasimov-i-kompaniya-inn-3603004547-ogrn-1023601078082-058d646de12d4b789bc8a073a5bbe8f7
"ОБЩЕСТВО С ОГРАНИЧЕННОЙ ОТВЕТСТВЕННОСТЬЮ ""РЯБА""",ООО РЯБА,3663052979,"396830, Воронежская обл., Хохольский район, с. Хохол, ул. Верхняя Слобода, д. 4", 51.555128, 38.740711,01.47,Разведение сельскохозяйственной птицы,https://spark-interfax.ru/voronezhskaya-oblast-khokholski-raion/ooo-ryaba-inn-3663052979-ogrn-1053600107197-cba8e7968b0549f0b4f6b157b8546041
"ОБЩЕСТВО С ОГРАНИЧЕННОЙ ОТВЕТСТВЕННОСТЬЮ СПЕЦХОЗ ""ВИШНЕВСКИЙ""",ООО СПЕЦХОЗ ВИШНЕВСКИЙ,3607004160,"396111, Воронежская обл., Верхнехавский район, пос. Вишневка, ул. Ленина, д. 16А", 51.847369, 39.849479,01.46,Разведение свиней,https://spark-interfax.ru/voronezhskaya-oblast-verkhnekhavski-raion/ooo-vishnevski-inn-3607004160-ogrn-1023600932904-78b8d73d54454123b99f3f510b912bdc
"ОБЩЕСТВО С ОГРАНИЧЕННОЙ ОТВЕТСТВЕННОСТЬЮ ""АЛЬФА""",ООО АЛЬФА,3607004700,"396116, Воронежская обл., Верхнехавский район, пос. Вишневка, ул. Ленина, д. 16 А", 51.847369, 39.849479,01.46,Разведение свиней,https://spark-interfax.ru/voronezhskaya-oblast-verkhnekhavski-raion/ooo-alfa-inn-3607004700-ogrn-1063616009490-82bdb06191dc447895f1162a9504b646
"ОБЩЕСТВО С ОГРАНИЧЕННОЙ ОТВЕТСТВЕННОСТЬЮ ""РУССКОЕ ПОЛЕ""",ООО РУССКОЕ ПОЛЕ,3605008508,"397500, Воронежская обл., Бутурлиновский район, г. Бутурлиновка, ул. Красная, д. 48", 50.827643, 40.564681,01.11,"Выращивание зерновых (кроме риса), зернобобовых культур и семян масличных культур",https://spark-interfax.ru/voronezhskaya-oblast-buturlinovski-raion/ooo-russkoe-pole-inn-3605008508-ogrn-1173668032647-c970e81774954bca80e3c7f237b1e758
"ОБЩЕСТВО С ОГРАНИЧЕННОЙ ОТВЕТСТВЕННОСТЬЮ БОБРОВСКАЯ КОМПАНИЯ ""ТРАНС-ПЕРЕВОЗЧИК""",ООО БК ТРАНС-ПЕРЕВОЗЧИК,3602010474,"397704, Воронежская обл., Бобровский район, г. Бобров, ул. Им.Калинина, д. 268 офис 4", 51.091332, 40.021723,49.4,Деятельность автомобильного грузового транспорта и услуги по перевозкам,https://spark-interfax.ru/voronezhskaya-oblast-bobrovski-raion/ooo-trans-perevozchik-inn-3602010474-ogrn-1153668034893-eba81caa76d24a9eaa33d8dd9ae55b96
"ОБЩЕСТВО С ОГРАНИЧЕННОЙ ОТВЕТСТВЕННОСТЬЮ ""ГОРОЖАНСКИЕ ОВОЩИ""",ООО ГОРОЖАНСКИЕ ОВОЩИ,3666273260,"396032, Воронежская обл, м.р-н Рамонский, с.п. Горожанское, с Горожанка, ул Центральная, д. 1А", 51.998664, 39.120372,01.13,"Выращивание овощей, бахчевых, корнеплодных и клубнеплодных культур, грибов и трюфелей",https://spark-interfax.ru/voronezhskaya-oblast-ramonski-raion/ooo-gorozhanskie-ovoshchi-inn-3666273260-ogrn-1243600020806-29d414107c620dbde063269aa8c06252
"ОБЩЕСТВО С ОГРАНИЧЕННОЙ ОТВЕТСТВЕННОСТЬЮ ""ОВОЩ-ПРОД-ХОЛДИНГ""",ООО ОВОЩ-ПРОД-ХОЛДИНГ,3607006136,"396110, Воронежская обл., Верхнехавский район, с. Верхняя Хава, ул. Буденного, д. 19 офис 1", 51.842030, 39.943151,01.11,"Выращивание зерновых (кроме риса), зернобобовых культур и семян масличных культур",https://spark-interfax.ru/voronezhskaya-oblast-verkhnekhavski-raion/ooo-ovoshch-prod-kholding-inn-3607006136-ogrn-1083668012614-a8bdd8402ab043dd9d377ad5450f551a
"НЕКОММЕРЧЕСКОЕ ПАРТНЕРСТВО ПРЕДПРИНИМАТЕЛЕЙ МАЛОГО И СРЕДНЕГО БИЗНЕСА ""БИЗНЕС - РАЗВИТИЕ""",НПП БИЗНЕС - РАЗВИТИЕ,1063600018305,"397702, Воронежская обл., Бобровский район, г. Бобров, ул. Оборонительная, д. 13", 51.100088, 40.033240,69,Деятельность в области права и бухгалтерского учета,https://spark-interfax.ru/voronezhskaya-oblast-bobrovski-raion/np-biznes-razvitie-inn-3602009126-ogrn-1063600018305-6906d94c494c226ae0531b9aa8c04bb6
"ОБЩЕСТВО С ОГРАНИЧЕННОЙ ОТВЕТСТВЕННОСТЬЮ ""ЭКСПЕРТ-УНИВЕРСАЛ""",ООО ЭКСПЕРТ-УНИВЕРСАЛ,3602009479,"397900, Воронежская обл., г. Лиски, ул. Трудовые Резервы, д. 95 к. А", 50.992309, 39.476903,68.31.5,Предоставление посреднических услуг при оценке недвижимого имущества за вознаграждение или на договорной основе,https://spark-interfax.ru/voronezhskaya-oblast-liskinski-raion/ooo-ekspert-universal-inn-3602009479-ogrn-1083652000497-61788954ab6e7e1ce0531b9aa8c027ab
"ФЕДЕРАЛЬНОЕ ГОСУДАРСТВЕННОЕ БЮДЖЕТНОЕ УЧРЕЖДЕНИЕ ""ВСЕРОССИЙСКИЙ НАУЧНО-ИССЛЕДОВАТЕЛЬСКИЙ ИНСТИТУТ ЛЕСНОЙ ГЕНЕТИКИ, СЕЛЕКЦИИ И БИОТЕХНОЛОГИИ""",ФГБУ ВНИИЛГИСБИОТЕХ,3666187950,"394087, Воронежская обл., г. Воронеж, ул. Ломоносова, д. 105", 51.725315, 39.200994,72.19,Научные исследования и разработки в области естественных и технических наук прочие,https://spark-interfax.ru/voronezhskaya-oblast-voronezh/fgbu-vniilgisbiotekh-inn-3666187950-ogrn-1133668046786-6906d94be1bf226ae0531b9aa8c04bb6
"ОТКРЫТОЕ АКЦИОНЕРНОЕ ОБЩЕСТВО ""АГРОФИРМА ""РОДИНА""",ОАО АГРОФИРМА РОДИНА,3615005182,"396870, Воронежская обл., с. Нижнедевицк, ул. Советская, д. 35", 51.533904, 38.360521,01.4,Животноводство,https://spark-interfax.ru/voronezhskaya-oblast-nizhnedevitski-raion/pao-agrofirma-rodina-inn-3615005182-ogrn-1083668020700-61788954ae5c7e1ce0531b9aa8c027ab
"ОБЩЕСТВО С ОГРАНИЧЕННОЙ ОТВЕТСТВЕННОСТЬЮ ""ИНГУК""",ООО ИНГУК,3605001380,"397500, Воронежская обл., Бутурлиновский район, г. Бутурлиновка, ул. Октябрьская, д. 35", 50.832159, 40.582289,01.47,Разведение сельскохозяйственной птицы,https://spark-interfax.ru/voronezhskaya-oblast-buturlinovski-raion/ooo-inguk-inn-3605001380-ogrn-1023600646189-c8e35b27f85f4e76a4d465edb99b4396
"ОБЩЕСТВО С ОГРАНИЧЕННОЙ ОТВЕТСТВЕННОСТЬЮ ""ДЕВИЦКИЙ КОЛОС""",ООО ДЕВИЦКИЙ КОЛОС,3628008286,"396942, Воронежская обл., Семилукский район, с. Девица, ул. Гагарина, зд. 16", 51.636445, 38.953855,01.11.1,Выращивание зерновых культур,https://spark-interfax.ru/voronezhskaya-oblast-semilukski-raion/ooo-devitski-kolos-inn-3628008286-ogrn-1023601316530-83f18f59ea554690bd28391da2dc58fb
"ОБЩЕСТВО С ОГРАНИЧЕННОЙ ОТВЕТСТВЕННОСТЬЮ ""ДОНСКОЙ БЕКОН""",ООО ДОНСКОЙ БЕКОН,3619011324,"397843, Воронежская обл., Острогожский район, с. Хохол-Тростянка, пер. Мира, д. 7А", 50.800577, 38.778399,01.46,Разведение свиней,https://spark-interfax.ru/voronezhskaya-oblast-ostrogozhski-raion/ooo-donskoi-bekon-inn-3619011324-ogrn-1113619000417-ce5a35366ee64783b2c6350f5631ce6d
"ОБЩЕСТВО С ОГРАНИЧЕННОЙ ОТВЕТСТВЕННОСТЬЮ ""ВОРОНЕЖСКАЯ ПРОДУКТОВАЯ КОМПАНИЯ""",ООО ВПК,3625010336,"394026, Воронежская обл., г. Воронеж, ул. Дружинников, д. 13 офис 101", 51.684734, 39.171940,46.3,"Торговля оптовая пищевыми продуктами, напитками и табачными изделиями",https://spark-interfax.ru/voronezhskaya-oblast-voronezh/ooo-vpk-inn-3625010336-ogrn-1083668004936-61788954aae27e1ce0531b9aa8c027ab
"СЕЛЬСКОХОЗЯЙСТВЕННЫЙ КРЕДИТНЫЙ ПОТРЕБИТЕЛЬСКИЙ КООПЕРАТИВ ""ИЗЛУЧИНА""",СКПК ИЗЛУЧИНА,3628010736,"396901, Воронежская обл., г. Семилуки, ул. Ленина, д. 11", 51.682468, 39.028717,64.92.2,Деятельность по предоставлению займов промышленности,https://spark-interfax.ru/voronezhskaya-oblast-semilukski-raion/pk-izluchina-inn-3628010736-ogrn-1063628009972-6906d94c3fc4226ae0531b9aa8c04bb6
АССОЦИАЦИЯ КРЕСТЬЯНСКИХ (ФЕРМЕРСКИХ) ХОЗЯЙСТВ И СЕЛЬСКОХОЗЯЙСТВЕННЫХ КООПЕРАТИВОВ АННИНСКОГО МУНИЦИПАЛЬНОГО РАЙОНА ВОРОНЕЖСКОЙ ОБЛАСТИ,АКФХ АННИНСКОГО РАЙОНА,1023600512836,"396250, Воронежская обл., Аннинский район, пгт. Анна, ул. Ленина, д. 28", 51.487223, 40.428453,94.11,Деятельность предпринимательских членских некоммерческих организаций,https://spark-interfax.ru/voronezhskaya-oblast-anninski-raion/obedinenie-anninskogo-raiona-inn-3601002713-ogrn-1023600512836-6906d94c197e226ae0531b9aa8c04bb6
"ОБЩЕСТВО С ОГРАНИЧЕННОЙ ОТВЕТСТВЕННОСТЬЮ ""БЕРЕЗНЯГОВСКОЕ""",ООО БЕРЕЗНЯГОВСКОЕ,3622004535,"397683, Воронежская обл., Петропавловский район, с. Новотроицкое, ул. Д.Лаптиева, д. 114А", 50.131226, 41.095371,01.1,Выращивание однолетних культур,https://spark-interfax.ru/voronezhskaya-oblast-petropavlovski-raion/ooo-bereznyagovskoe-inn-3622004535-ogrn-1073610000848-a86953c51d07433ea0a77f895f94cf59
"ОБЩЕСТВО С ОГРАНИЧЕННОЙ ОТВЕТСТВЕННОСТЬЮ""КАЛАЧЕЕВСКОЕ ДОРОЖНОЕ РЕМОНТНО-СТРОИТЕЛЬНОЕ УПРАВЛЕНИЕ N1""",ООО КАЛАЧЕЕВСКОЕ ДРСУ N1,3610007348,"397605, Воронежская обл., Калачеевский район, пос. Пригородный, ул. Промышленников, д. 13", 50.373541, 41.019605,52.21.22,Деятельность по эксплуатации автомобильных дорог и автомагистралей,https://spark-interfax.ru/voronezhskaya-oblast-kalacheevski-raion/ooo-kalacheevskoe-drsu-n-inn-3610007348-ogrn-1023600792687-617889546bf27e1ce0531b9aa8c027ab
МУНИЦИПАЛЬНОЕ ОБЩЕОБРАЗОВАТЕЛЬНОЕ УЧРЕЖДЕНИЕ ВЕРХНЕТОЛУЧЕЕВСКАЯ НАЧАЛЬНАЯ ОБЩЕОБРАЗОВАТЕЛЬНАЯ ШКОЛА,МОУ ВЕРХНЕТОЛУЧЕЕВСКАЯ НОШ,1023600792500,"397575, Воронежская обл., Воробьевский район, с. Верхнетолучеево, ул. Свободы, д. 47", 50.750963, 41.037713,85.12,Образование начальное общее,https://spark-interfax.ru/voronezhskaya-oblast-vorobevski-raion/mbu-verkhnetolucheevskaya-nosh-inn-3608003716-ogrn-1023600792500-6906d94c164c226ae0531b9aa8c04bb6
МИНИСТЕРСТВО ТРУДА И СОЦИАЛЬНОЙ ЗАЩИТЫ ЧУВАШСКОЙ РЕСПУБЛИКИ,МИНТРУД ЧУВАШИИ,1072130000030,"428003, Чувашская Республика - Чувашия, г. Чебоксары, проспект Московский, зд. 3 пом. 1", 56.145418, 47.233457,84.11.2,"Деятельность органов государственной власти по управлению вопросами общего характера, кроме судебной власти, субъектов Российской Федерации",https://spark-interfax.ru/chuvashskaya-respublika-chuvashiya-cheboksary/gku-mintrud-chuvashii-inn-2130012473-ogrn-1072130000030-6906d9b1c397226ae0531b9aa8c04bb6
"СЕЛЬСКОХОЗЯЙСТВЕННЫЙ ПРОИЗВОДСТВЕННЫЙ КООПЕРАТИВ ""ЗВЕЗДА""",СХПК ЗВЕЗДА,1022102433627,"429562, Чувашская Республика - Чувашия, Мариинско-Посадский район, с. Первое Чурашево, ул. Ивановых, домовладение 14", 55.945277, 47.674997,01.11,"Выращивание зерновых (кроме риса), зернобобовых культур и семян масличных культур",https://spark-interfax.ru/chuvashskaya-respublika-chuvashiya-mariinsko-posadski-raion/koop-zvezda-inn-2111000313-ogrn-1022102433627-d34583ed8e0a4158959fa9c7b152b77d
"АВТОНОМНАЯ НЕКОММЕРЧЕСКАЯ ОРГАНИЗАЦИЯ ""МИКРОКРЕДИТНАЯ КОМПАНИЯ ""АГЕНТСТВО ПО ПОДДЕРЖКЕ МАЛОГО И СРЕДНЕГО БИЗНЕСА В ЧУВАШСКОЙ РЕСПУБЛИКЕ""",АНО МКК АПМБ,1092100000640,"428000, Чувашская Республика - Чувашия, г. Чебоксары, проспект Ленина, зд. 12Б", 56.128070, 47.247525,64.92.2,Деятельность по предоставлению займов промышленности,https://spark-interfax.ru/chuvashskaya-respublika-chuvashiya-cheboksary/ano-apmb-inn-2130058291-ogrn-1092100000640-6906d9b1e062226ae0531b9aa8c04bb6
"ОБЩЕСТВО С ОГРАНИЧЕННОЙ ОТВЕТСТВЕННОСТЬЮ ""АЛМАЗ""",ООО АЛМАЗ,2102420992,"429256, Чувашская Республика - Чувашия, Аликовский район, с. Яндоба, ул. Шоссейная, д. 23", 55.722806, 46.971142,01.11,"Выращивание зерновых (кроме риса), зернобобовых культур и семян масличных культур",https://spark-interfax.ru/chuvashskaya-respublika-chuvashiya-alikovski-raion/ooo-almaz-inn-2102420992-ogrn-1062133001314-e2afa0c828544fe388fa1eda96e46064
"ОБЩЕСТВО С ОГРАНИЧЕННОЙ ОТВЕТСТВЕННОСТЬЮ ""ВЕСНА""",ООО ВЕСНА,2106005676,"429323, Чувашская Республика - Чувашия, Канашский район, д. Аниш-Ахпердино, ул. Новая, д. 1А", 55.450790, 47.655055,01.11.1,Выращивание зерновых культур,https://spark-interfax.ru/chuvashskaya-respublika-chuvashiya-kanashski-raion/ooo-vesna-inn-2106005676-ogrn-1032134002713-617889ac5d257e1ce0531b9aa8c027ab
"ОБЩЕСТВО С ОГРАНИЧЕННОЙ ОТВЕТСТВЕННОСТЬЮ ""ПРОИЗВОДСТВЕННО-СТРОИТЕЛЬНОЕ ПРЕДПРИЯТИЕ ""ГРАЖДАНПРОМСТРОЙ""",ООО ПСП ГРАЖДАНПРОМСТРОЙ,2130160672,"428034, Чувашская Республика - Чувашия, г.о. город Чебоксары, г Чебоксары, пр-кт Московский, д. 42, помещ. 3, ком. 12", 56.140916, 47.196567,71.12,"Деятельность в области инженерных изысканий, инженерно-технического проектирования, управления проектами строительства, выполнения строительного контроля и авторского надзора, предоставление технических консультаций в этих областях",https://spark-interfax.ru/chuvashskaya-respublika-chuvashiya-cheboksary/ooo-psp-grazhdanpromstroi-inn-2130160672-ogrn-1152130012308-7ffacb7218ac407faed45429e069f865
СЕЛЬСКОХОЗЯЙСТВЕННЫЙ ПРОИЗВОДСТВЕННЫЙ КООПЕРАТИВ ИМ.ЧКАЛОВА,СХПК ИМ.ЧКАЛОВА,1022102633354,"429536, Чувашская Республика - Чувашия, Моргаушский район, д. Изедеркино, ул. 30 Лет Победы, д. 57", 55.871262, 46.681294,01.41,"Разведение молочного крупного рогатого скота, производство сырого молока",https://spark-interfax.ru/chuvashskaya-respublika-chuvashiya-morgaushski-raion/koop-im-chkalova-inn-2112001912-ogrn-1022102633354-bac0598e80854e12bbd39a9579a72389
"БЮДЖЕТНОЕ УЧРЕЖДЕНИЕ ЧУВАШСКОЙ РЕСПУБЛИКИ ДОПОЛНИТЕЛЬНОГО ОБРАЗОВАНИЯ ""СПОРТИВНАЯ ШКОЛА ОЛИМПИЙСКОГО РЕЗЕРВА № 2""",БУ ДО СШОР № 2,1022101280596,"428003, Чувашская Республика - Чувашия, г.о. город Чебоксары, г Чебоксары, ул Пристанционная, д. 10В", 56.095105, 47.246690,85.41,Образование дополнительное детей и взрослых,https://spark-interfax.ru/chuvashskaya-respublika-chuvashiya-cheboksary/gbu-sshor-n-inn-2129019308-ogrn-1022101280596-6906d9b1be95226ae0531b9aa8c04bb6
"ФЕДЕРАЛЬНОЕ ГОСУДАРСТВЕННОЕ БЮДЖЕТНОЕ УЧРЕЖДЕНИЕ ""СУДЕБНО-ЭКСПЕРТНОЕ УЧРЕЖДЕНИЕ ФЕДЕРАЛЬНОЙ ПРОТИВОПОЖАРНОЙ СЛУЖБЫ ""ИСПЫТАТЕЛЬНАЯ ПОЖАРНАЯ ЛАБОРАТОРИЯ"" ПО ЧУВАШСКОЙ РЕСПУБЛИКЕ - ЧУВАШИИ""",ФГБУ СЭУ ФПС ИПЛ ПО ЧУВАШСКОЙ РЕСПУБЛИКЕ - ЧУВАШИИ,1062128189760,"428025, Чувашская Республика - Чувашия, г. Чебоксары, ул. Мичмана Павлова, д. 21", 56.140029, 47.177381,84.25.1,Деятельность по обеспечению пожарной безопасности,https://spark-interfax.ru/chuvashskaya-respublika-chuvashiya-cheboksary/fgbu-fgbu-seu-fps-ipl-po-chuvashskoi-respublike-chuvashii-inn-2129061194-ogrn-1062128189760-6906d9b1d141226ae0531b9aa8c04bb6
"ОБЩЕСТВО С ОГРАНИЧЕННОЙ ОТВЕТСТВЕННОСТЬЮ ""ВОЛГОСТАЛЬКОНСТРУКЦИЯ""",ООО ВСК,2130059640,"428903, Чувашская Республика - Чувашия, г. Чебоксары, проезд Лапсарский, д. 11А", 56.060398, 47.269409,25.11,"Производство строительных металлических конструкций, изделий и их частей",https://spark-interfax.ru/chuvashskaya-respublika-chuvashiya-cheboksary/ooo-vsk-inn-2130059640-ogrn-1092130007265-c102d9f4ba094ba9ae37be0060c1a84c
"ОБЩЕСТВО С ОГРАНИЧЕННОЙ ОТВЕТСТВЕННОСТЬЮ ""МОНОЛИТ-ГРУПП""",ООО МГ,2130200300,"428000, Чувашская Республика - Чувашия, г.о. город Чебоксары, г Чебоксары, ул Калинина, д. 111/1, офис 314", 56.131502, 47.290173,79.11,Деятельность туристических агентств,https://spark-interfax.ru/chuvashskaya-respublika-chuvashiya-cheboksary/ooo-mg-inn-2130200300-ogrn-1182130004540-6a685fb2bb8d468ee0531b9aa8c0c650
"СЕЛЬСКОХОЗЯЙСТВЕННЫЙ ПОТРЕБИТЕЛЬСКИЙ СБЫТОВЫЙ КООПЕРАТИВ ""ПАРТНЁР""",СПСК ПАРТНЁР,2104008576,"429371, Чувашская Республика - Чувашия, Батыревский район, д. Полевые Бикшики, ул. Административный Центр, зд. 4 ком. 4", 55.092723, 47.479629,10.51,Производство молока (кроме сырого) и молочной продукции,https://spark-interfax.ru/chuvashskaya-respublika-chuvashiya-batyrevski-raion/koop-partner-inn-2104008576-ogrn-1172130014320-6906d9b20f0d226ae0531b9aa8c04bb6
"СЕЛЬСКОХОЗЯЙСТВЕННЫЙ ПОТРЕБИТЕЛЬСКИЙ ПЕРЕРАБАТЫВАЮЩИЙ КООПЕРАТИВ ""КИПРЕЙ""",СППК КИПРЕЙ,2106010563,"429324, Чувашская Республика - Чувашия, Канашский район, д. Новые Шальтямы, ул. Спортивная, д. 2", 55.363302, 47.486600,10.83,Производство чая и кофе,https://spark-interfax.ru/chuvashskaya-respublika-chuvashiya-kanashski-raion/koop-kiprei-inn-2106010563-ogrn-1192130004252-85e8eb0a51281dd3e0531b9aa8c0bed0
"БЮДЖЕТНОЕ УЧРЕЖДЕНИЕ ЧУВАШСКОЙ РЕСПУБЛИКИ ""КАНАШСКАЯ ЦЕНТРАЛЬНАЯ РАЙОННАЯ БОЛЬНИЦА ИМ. Ф.Г. ГРИГОРЬЕВА"" МИНИСТЕРСТВА ЗДРАВООХРАНЕНИЯ ЧУВАШСКОЙ РЕСПУБЛИКИ",БУ КАНАШСКАЯ ЦРБ МИНЗДРАВА ЧУВАШИИ,1022102230182,"429310, Чувашская Республика - Чувашия, Канашский район, с. Шихазаны, ул. В.П.Епифанова, д. 12", 55.564057, 47.384431,86.10,Деятельность больничных организаций,https://spark-interfax.ru/chuvashskaya-respublika-chuvashiya-kanashski-raion/gbu-kanashskaya-tsrb-minzdrava-chuvashii-inn-2106005370-ogrn-1022102230182-6906d9b1b8be226ae0531b9aa8c04bb6
"ОБЩЕСТВО С ОГРАНИЧЕННОЙ ОТВЕТСТВЕННОСТЬЮ ""МАРЛЕН""",ООО МАРЛЕН,2108003089,"429153, Чувашская Республика - Чувашия, Комсомольский район, с. Урмаево, ул. М.Горького, д. 6", 55.239175, 47.502679,25.61,Обработка металлов и нанесение покрытий на металлы,https://spark-interfax.ru/chuvashskaya-respublika-chuvashiya-komsomolski-raion/ooo-marlen-inn-2108003089-ogrn-1152132010140-0aee14fdf9714fbf9cff55988b841e4f
"ОБЩЕСТВО С ОГРАНИЧЕННОЙ ОТВЕТСТВЕННОСТЬЮ ""АНМАР""",ООО АНМАР,2105003757,"428003, Чувашская Республика - Чувашия, г.о. город Чебоксары, г Чебоксары, ул Ярославская, д. 30, помещ. 3", 56.144721, 47.253754,16.10,Распиловка и строгание древесины,https://spark-interfax.ru/chuvashskaya-respublika-chuvashiya-cheboksary/ooo-anmar-inn-2105003757-ogrn-1042133001052-c8168b2df1b04e45b38e908db664c7e7
"ОБЩЕСТВО С ОГРАНИЧЕННОЙ ОТВЕТСТВЕННОСТЬЮ ""ЛУГАНСКИЙ МАШИНОСТРОИТЕЛЬ-ЧЕБОКСАРСКИЙ ЗАВОД""",ООО ЛУГМАШ-ЧЗ,2130160697,"428022, Чувашская Республика - Чувашия, г. Чебоксары, проезд Машиностроителей, д. 1", 56.125105, 47.309336,25.62,Обработка металлических изделий механическая,https://spark-interfax.ru/chuvashskaya-respublika-chuvashiya-cheboksary/ooo-lugmash-chz-inn-2130160697-ogrn-1152130012320-0d70302ff6744503b5091bf974aaa574
"АССОЦИАЦИЯ СЕЛЬСКОХОЗЯЙСТВЕННЫХ ТОВАРОПРОИЗВОДИТЕЛЕЙ ""НАРОДНЫЙ ФЕРМЕР ЧУВАШИИ""",АССОЦИАЦИЯ НАРОДНЫЙ ФЕРМЕР ЧУВАШИИ,1232100006038,"428033, Чувашская Республика - Чувашия, г.о. город Чебоксары, г Чебоксары, ул Урукова, зд. 17А, офис 204", 56.138932, 47.208901,70.22,Консультирование по вопросам коммерческой деятельности и управления,https://spark-interfax.ru/chuvashskaya-respublika-chuvashiya-cheboksary/obedinenie-narodny-fermer-chuvashii-inn-2100009522-ogrn-1232100006038-03dfa49239a06a9be063259aa8c076a7
"ОБЩЕСТВО С ОГРАНИЧЕННОЙ ОТВЕТСТВЕННОСТЬЮ ""ЦЕНТР ТЕХНОЛОГИЧЕСКОЙ ОСНАСТКИ""",ООО ЦТО,2130128140,"428037, Чувашская Республика - Чувашия, г.о. город Чебоксары, г Чебоксары, пр-д Дорожный, д. 20В, стр. 3, помещ. 2", 56.114435, 47.310955,25.62,Обработка металлических изделий механическая,https://spark-interfax.ru/chuvashskaya-respublika-chuvashiya-cheboksary/ooo-tsto-inn-2130128140-ogrn-1132130014950-fa3cad3931844fcea607abc36e4e5237
"БЮДЖЕТНОЕ УЧРЕЖДЕНИЕ ЧУВАШСКОЙ РЕСПУБЛИКИ ""АТРАТСКИЙ ДОМ-ИНТЕРНАТ""",БУ АТРАТСКИЙ ДОМ-ИНТЕРНАТ,1022101629791,"429841, Чувашская Республика - Чувашия, Алатырский район, пос. Атрать, ул. Лесная, д. 1", 55.006300, 46.700000,87.90,Деятельность по уходу с обеспечением проживания прочая,https://spark-interfax.ru/chuvashskaya-respublika-chuvashiya-alatyrski-raion/gbu-atratski-dom-internat-inn-2101002174-ogrn-1022101629791-6906d9b1b94b226ae0531b9aa8c04bb6
"ОБЩЕСТВО С ОГРАНИЧЕННОЙ ОТВЕТСТВЕННОСТЬЮ ""ПРАЙМ КОЛЛ""",ООО ПРАЙМ КОЛЛ,3123450326,"308009, Белгородская обл., г. Белгород, ул. Князя Трубецкого, д. 24 пом. 39", 50.592818, 36.596327,82.20,Деятельность центров обработки телефонных вызовов,https://spark-interfax.ru/belgorodskaya-oblast-belgorod/ooo-praim-koll-inn-3123450326-ogrn-1193123005657-829c0540b55038d4e0531b9aa8c0741d
"СЕЛЬСКОХОЗЯЙСТВЕННЫЙ ОБСЛУЖИВАЮЩИЙ СНАБЖЕНЧЕСКО-СБЫТОВОЙ ПОТРЕБИТЕЛЬСКИЙ КООПЕРАТИВ ""НИМЕ""",СОССПК НИМЕ,1192130004131,"429068, Чувашская Республика - Чувашия, Ядринский район, д. Кильдишево, ул. Шоссейная, д. 58", 55.844167, 46.583670,46.31,Торговля оптовая фруктами и овощами,https://spark-interfax.ru/chuvashskaya-respublika-chuvashiya-yadrinski-raion/koop-nime-inn-2119006500-ogrn-1192130004131-855c1a2635a28157e0531b9aa8c0fa20
"СЕЛЬСКОХОЗЯЙСТВЕННЫЙ ПОТРЕБИТЕЛЬСКИЙ ПЕРЕРАБАТЫВАЮЩИЙ КООПЕРАТИВ ""БАТЫРЪ""",СППК БАТЫРЪ,1192130004560,"429371, Чувашская Республика - Чувашия, м.о. Батыревский, д Яншихово, ул Молодежная, зд. 1А, офис 3", 55.079165, 47.517516,10.11,Переработка и консервирование мяса,https://spark-interfax.ru/chuvashskaya-respublika-chuvashiya-batyrevski-raion/koop-batyr-inn-2103003695-ogrn-1192130004560-85e8eb0a6db91dd3e0531b9aa8c0bed0
"АКЦИОНЕРНОЕ ОБЩЕСТВО ""ШУМЕРЛИНСКИЙ ЗАВОД СПЕЦИАЛИЗИРОВАННЫХ АВТОМОБИЛЕЙ""",АО ШЗСА,2125000458,"429122, Чувашская Республика - Чувашия, г. Шумерля, ул. Щербакова, д. 60", 55.489640, 46.425520,29.10,Производство автотранспортных средств,https://spark-interfax.ru/chuvashskaya-respublika-chuvashiya-shumerlya/ao-shzsa-inn-2125000458-ogrn-1022103028639-fdf6eabbdc184182a70676aa5cd8b62d
"ОБЩЕСТВО С ОГРАНИЧЕННОЙ ОТВЕТСТВЕННОСТЬЮ ""ПОВОЛЖСКАЯ РЕГИОНАЛЬНАЯ КОМПАНИЯ""",ООО ПРК,2127313505,"429950, Чувашская Республика - Чувашия, г. Новочебоксарск, ул. 10 Пятилетки, д. 49", 56.112958, 47.439987,93.29,Деятельность по организации отдыха и развлечений прочая,https://spark-interfax.ru/chuvashskaya-respublika-chuvashiya-novocheboksarsk/ooo-prk-inn-2127313505-ogrn-1022100969934-96798d84d8654f029b39d9203ae6a0ec
"ОБЩЕСТВО С ОГРАНИЧЕННОЙ ОТВЕТСТВЕННОСТЬЮ ""ВОЛЖСКАЯ ПЕРЕКИСЬ""",ООО ВОЛЖСКАЯ ПЕРЕКИСЬ,5024151858,"429965, Чувашская Республика - Чувашия, г. Новочебоксарск, ул. Промышленная, д. 101", 56.081143, 47.521034,20.59.5,"Производство прочих химических продуктов, не включенных в другие группировки",https://spark-interfax.ru/chuvashskaya-respublika-chuvashiya-novocheboksarsk/ooo-volzhskaya-perekis-inn-5024151858-ogrn-1155024001131-46adcdc5da584b528f2999765bd55f88
"ОБЩЕСТВО С ОГРАНИЧЕННОЙ ОТВЕТСТВЕННОСТЬЮ ""ВИКТОРИЯ""",ООО ВИКТОРИЯ,2130068116,"428011, Чувашская Республика - Чувашия, Чебоксарский район, д. Типсирмы, ул. Прямая, д. 79", 56.122646, 47.400935,73.11,Деятельность рекламных агентств,https://spark-interfax.ru/chuvashskaya-respublika-chuvashiya-cheboksarski-raion/ooo-viktoriya-inn-2130068116-ogrn-1102130000895-e4bbc68a58584d30a9a2d1c4e92921ff
"СЕЛЬСКОХОЗЯЙСТВЕННЫЙ ПОТРЕБИТЕЛЬСКИЙ ОБСЛУЖИВАЮЩИЙ СНАБЖЕНЧЕСКО - СБЫТОВОЙ КООПЕРАТИВ ""ЯГОДЫ ЧУВАШИИ""",СЕЛЬСКОХОЗЯЙСТВЕННЫЙ ПОТРЕБИТЕЛЬСКИЙ ОБСЛУЖИВАЮЩИЙ СНАБЖЕНЧЕСКО - СБЫТОВОЙ КООПЕРАТИВ ЯГОДЫ ЧУВАШИИ,1212100009560,"429551, Чувашская Республика - Чувашия, м.о. Моргаушский, с Юнга, ул Центральная, д. 18", 56.048068, 46.636092,01.61,Предоставление услуг в области растениеводства,https://spark-interfax.ru/chuvashskaya-respublika-chuvashiya-morgaushski-raion/koop-yagody-chuvashii-inn-2112004991-ogrn-1212100009560-d49189f311140205e053259aa8c03eb6
"СЕЛЬСКОХОЗЯЙСТВЕННЫЙ ПОТРЕБИТЕЛЬСКИЙ ПЕРЕРАБАТЫВАЮЩИЙ КООПЕРАТИВ ""МОРГАУШСКАЯ ЯГОДА""",СППК МОРГАУШСКАЯ ЯГОДА,1232100008909,"429541, Чувашская Республика - Чувашия, м.о. Моргаушский, д Чурикасы, ул Школьная, двлд. 32", 56.065762, 46.854217,10.39,Прочие виды переработки и консервирования фруктов и овощей,https://spark-interfax.ru/chuvashskaya-respublika-chuvashiya-morgaushski-raion/koop-morgaushskaya-yagoda-inn-2100012349-ogrn-1232100008909-0cacd4e9b4843b0ae063259aa8c0aabb
"МУНИЦИПАЛЬНОЕ УНИТАРНОЕ ПРЕДПРИЯТИЕ ""БАТЫРЕВСКОЕ РАЙОННОЕ БЮРО ТЕХНИЧЕСКОЙ ИНВЕНТАРИЗАЦИИ""",МУП БАТЫРЕВСКОЕ РАЙОННОЕ БТИ,2103004071,"429350, Чувашская Республика - Чувашия, Батыревский район, с. Батырево, ул. Мира, д. 14", 55.060547, 47.581217,68.32,Управление недвижимым имуществом за вознаграждение или на договорной основе,https://spark-interfax.ru/chuvashskaya-respublika-chuvashiya-batyrevski-raion/mup-batyrevskoe-raionnoe-bti-inn-2103004071-ogrn-1022101831201-6906d9b1a000226ae0531b9aa8c04bb6
"КРЕСТЬЯНСКОЕ (ФЕРМЕРСКОЕ) ХОЗЯЙСТВО ""ТЕЛЕЦ""",КФХ ТЕЛЕЦ,1036303279297,"445133, Самарская обл., Ставропольский район, с. Мусорка, ул. Полевая, д. 37", 53.751503, 49.741528,01.11,"Выращивание зерновых (кроме риса), зернобобовых культур и семян масличных культур",https://spark-interfax.ru/samarskaya-oblast-stavropolski-raion/kfkh-telets-inn-6382002992-ogrn-1036303279297-6906d957a9c7226ae0531b9aa8c04bb6
"КРЕСТЬЯНСКОЕ (ФЕРМЕРСКОЕ) ХОЗЯЙСТВО ""РЯБИНА""",КФХ РЯБИНА,1036303050211,"446611, Самарская обл., Нефтегорский район, с. Дмитриевка, ул. Водная, домовладение 42", 52.781265, 50.643056,01.1,Выращивание однолетних культур,https://spark-interfax.ru/samarskaya-oblast-neftegorski-raion/kfkh-ryabina-inn-6377002394-ogrn-1036303050211-6906d957a559226ae0531b9aa8c04bb6
"ОБЩЕСТВО С ОГРАНИЧЕННОЙ ОТВЕТСТВЕННОСТЬЮ ""СПЕЦХОЗ""",ООО СПЕЦХОЗ,6372014741,"446472, Самарская обл, м.р-н Похвистневский, с.п. Старый Аманак, с Старый Аманак, тер. Похвистнево-Сосновка, км 14-й, зд. 1", 53.707657, 51.968563,01.1,Выращивание однолетних культур,https://spark-interfax.ru/samarskaya-oblast-pokhvistnevski-raion/ooo-spetskhoz-inn-6372014741-ogrn-1106372000261-ede5f13ae2d242d2a2acf202e4613764
"КРЕСТЬЯНСКОЕ-ФЕРМЕРСКОЕ ХОЗЯЙСТВО ""НИВА""",КФХ НИВА,1026303805142,"446880, Самарская обл, м.р-н Елховский, с.п. Красное Поселение, п Нижняя Кондурча, ул Полевая, двлд. 26", 53.978154, 50.374821,01.11,"Выращивание зерновых (кроме риса), зернобобовых культур и семян масличных культур",https://spark-interfax.ru/samarskaya-oblast-elkhovski-raion/kfkh-niva-inn-6368001330-ogrn-1026303805142-6906d9579e9d226ae0531b9aa8c04bb6
"ОБЩЕСТВО С ОГРАНИЧЕННОЙ ОТВЕТСТВЕННОСТЬЮ ""АСТРА""",ООО АСТРА,6350012973,"446412, Самарская обл., Кинельский район, пос. Комсомольский, ул. 50 Лет Октября, д. 16 офис 19", 53.230571, 50.843702,01.11,"Выращивание зерновых (кроме риса), зернобобовых культур и семян масличных культур",https://spark-interfax.ru/samarskaya-oblast-kinelski-raion/ooo-astra-inn-6350012973-ogrn-1086350000824-18a1d673d38f4dbbbca193f6cdad3428
"ОБЩЕСТВО С ОГРАНИЧЕННОЙ ОТВЕТСТВЕННОСТЬЮ ""АГРО МК""",ООО АМК,6350027063,"446405, Самарская обл, м.р-н Кинельский, с.п. Сколково, с Бузаевка, ул Центральная, зд. 138А", 53.342384, 50.656110,01.11,"Выращивание зерновых (кроме риса), зернобобовых культур и семян масличных культур",https://spark-interfax.ru/samarskaya-oblast-kinelski-raion/ooo-amk-inn-6350027063-ogrn-1196313042001-88a8ff7893b75927e0531b9aa8c0fea4
"СЕЛЬСКОХОЗЯЙСТВЕННЫЙ ПОТРЕБИТЕЛЬСКИЙ ПЕРЕРАБАТЫВАЮЩИЙ ОБСЛУЖИВАЮЩИЙ СНАБЖЕНЧЕСКО-СБЫТОВОЙ КООПЕРАТИВ ""ПЕГАС""",СППОССК ПЕГАС,1236300029635,"446194, Самарская обл, м.р-н Большеглушицкий, с.п. Александровка, с Александровка, ул Озерная, д. 86", 52.613178, 50.592035,01.50,Смешанное сельское хозяйство,https://spark-interfax.ru/samarskaya-oblast-bolsheglushitski-raion/koop-pegas-inn-6375006788-ogrn-1236300029635-08d31e9e369c6fa9e063259aa8c040c8
"ОБЩЕСТВО С ОГРАНИЧЕННОЙ ОТВЕТСТВЕННОСТЬЮ СЕЛЬСКОХОЗЯЙСТВЕННОЕ ПРЕДПРИЯТИЕ ""НИВА""",ООО СХП НИВА,6381030250,"446579, Самарская обл., Исаклинский район, д. Сухарь Матак, ул. Нагорная, д. 2", 53.922375, 51.559603,01.1,Выращивание однолетних культур,https://spark-interfax.ru/samarskaya-oblast-isaklinski-raion/ooo-niva-inn-6381030250-ogrn-1136381000250-ad52d8b9e5c7410f8d491622d27d0a44
"САМАРСКОЕ РЕГИОНАЛЬНОЕ ОТДЕЛЕНИЕ МОЛОДЕЖНОЙ ОБЩЕРОССИЙСКОЙ ОБЩЕСТВЕННОЙ ОРГАНИЗАЦИИ ""РОССИЙСКИЕ СТУДЕНЧЕСКИЕ ОТРЯДЫ""",САМРО МООО РСО,1156313039134,"443056, Самарская обл, г.о. Самара, вн.р-н Октябрьский, г Самара, пр-кт Масленникова, д. 37, этаж 1, ком. 24", 53.207846, 50.159253,94.99,"Деятельность прочих общественных организаций и некоммерческих организаций, кроме религиозных и политических организаций",https://spark-interfax.ru/samarskaya-oblast-samara/oo-rso-inn-6318006647-ogrn-1156313039134-6906d959c238226ae0531b9aa8c04bb6
"ЧАСТНОЕ УЧРЕЖДЕНИЕ РАЗВИТИЯ НАСТАВНИЧЕСТВА ""МАСТЕРА""",ЧАСТНОЕ УЧРЕЖДЕНИЕ МАСТЕРА,1226300032969,"446116, Самарская обл, г.о. Чапаевск, г Чапаевск, ул Клиническая, д. 16, кв. 9", 52.987121, 49.693741,85.41.9,"Образование дополнительное детей и взрослых, не включенное в другие группировки",https://spark-interfax.ru/samarskaya-oblast-chapaevsk/uch-mastera-inn-6330097915-ogrn-1226300032969-e59ee5ca6bf349ebe053259aa8c03b3f
"ОБЩЕСТВО С ОГРАНИЧЕННОЙ ОТВЕТСТВЕННОСТЬЮ ""КРАСНОГЛИНСКИЙ КОМБИНАТ ДЕТСКОГО ПИТАНИЯ""",ООО ККДП,6313536457,"443067, Самарская обл, г.о. Самара, вн.р-н Советский, г Самара, ул Карбышева, д. 61, помещ. 111", 53.206476, 50.203708,56.29,Деятельность предприятий общественного питания по прочим видам организации питания,https://spark-interfax.ru/samarskaya-oblast-samara/ooo-kkdp-inn-6313536457-ogrn-1106313000848-00bb9c67eb594162a482338a74aaac84
"ОБЩЕСТВО С ОГРАНИЧЕННОЙ ОТВЕТСТВЕННОСТЬЮ ""КОНТИНЕНТ - КУЛИНАРИЯ""",ООО КОНТИНЕНТ - КУЛИНАРИЯ,6315636626,"443001, Самарская обл., г. Самара, ул. Садовая, д. 207", 53.197182, 50.111359,56.29,Деятельность предприятий общественного питания по прочим видам организации питания,https://spark-interfax.ru/samarskaya-oblast-samara/ooo-kontinent-kulinariya-inn-6315636626-ogrn-1116315003090-69ca125ece9c4ce9b9fa420b0de05220
"МЕСТНАЯ МУСУЛЬМАНСКАЯ РЕЛИГИОЗНАЯ ОРГАНИЗАЦИЯ ""МЕЧЕТЬ"" СЕЛА БОЛЬШАЯ ГЛУШИЦА САМАРСКОЙ ОБЛАСТИ",МЕСТНАЯ МУСУЛЬМАНСКАЯ РЕЛИГИОЗНАЯ ОРГАНИЗАЦИЯ МЕЧЕТЬ СЕЛА БОЛЬШАЯ ГЛУШИЦА САМАРСКОЙ ОБЛАСТИ,1166313125956,"446180, Самарская обл., Большеглушицкий район, с. Большая Глушица, ул. Советская, д. 59", 52.392815, 50.476618,94.91,Деятельность религиозных организаций,https://spark-interfax.ru/samarskaya-oblast-bolsheglushitski-raion/ro-mechet-sela-bolshaya-glushitsa-samarskoi-oblasti-inn-6375003402-ogrn-1166313125956-6906d959dd71226ae0531b9aa8c04bb6
"СЕЛЬСКОХОЗЯЙСТВЕННЫЙ ПРОИЗВОДСТВЕННЫЙ КООПЕРАТИВ ""НОВЫЙ ПУТЬ""",СПК НОВЫЙ ПУТЬ,6369000474,"446582, Самарская обл., Исаклинский район, с. Смольково, ул. Юбилейная, д. 62", 54.117229, 51.330984,01.11.1,Выращивание зерновых культур,https://spark-interfax.ru/samarskaya-oblast-isaklinski-raion/koop-novy-put-inn-6369000474-ogrn-1026303657160-6f7e56fa22f243798b61708f9f2631b7
КРЕСТЬЯНСКОЕ ХОЗЯЙСТВО РЯЗАНЦЕВА ВАЛЕРИЯ АЛЕКСЕЕВИЧА,К Х РЯЗАНЦЕВА В. А.,1026303401178,"446621, Самарская обл., Богатовский район, с. Виловатое, ул. Октябрьская, д. 81", 53.029181, 51.445418,01.11.1,Выращивание зерновых культур,https://spark-interfax.ru/samarskaya-oblast-bogatovski-raion/kfkh-k-kh-ryazantseva-v-a-inn-6363001873-ogrn-1026303401178-6906d9579a51226ae0531b9aa8c04bb6
"ОБЩЕСТВО С ОГРАНИЧЕННОЙ ОТВЕТСТВЕННОСТЬЮ ""ШИГОНЫ АГРО""",ООО ШИГОНЫ АГРО,6325050823,"446738, Самарская обл., Шигонский район, с. Тайдаково, ул. Ленина, д. 39", 53.417127, 48.905524,01.11.1,Выращивание зерновых культур,https://spark-interfax.ru/samarskaya-oblast-shigonski-raion/ooo-shigony-agro-inn-6325050823-ogrn-1096325000750-957ae3dad02c48209a6e6df5ed872394
КРЕСТЬЯНСКОЕ ФЕРМЕРСКОЕ ХОЗЯЙСТВО ЮСУПОВА АНВЕРА ШАМИЛОВИЧА,КФХ ЮСУПОВА А.Ш.,1026303804856,"446872, Самарская обл, м.р-н Елховский, с.п. Теплый Стан, с Теплый Стан, ул Лесная, д. 15", 53.979940, 50.174990,01.11,"Выращивание зерновых (кроме риса), зернобобовых культур и семян масличных культур",https://spark-interfax.ru/samarskaya-oblast-elkhovski-raion/kfkh-yusupova-a-sh-inn-6368000496-ogrn-1026303804856-6906d9579c54226ae0531b9aa8c04bb6
"АВТОНОМНАЯ НЕКОММЕРЧЕСКАЯ ОРГАНИЗАЦИЯ ""ЦЕНТР РАЗВИТИЯ МОЛОДЕЖИ ""ПРОДВИЖЕНИЕ""",АНО ПРОДВИЖЕНИЕ,1196313059359,"443087, Самарская обл., г. Самара, проспект Кирова, д. 270 кв. 6", 53.248001, 50.225220,93.29.9,"Деятельность зрелищно-развлекательная прочая, не включенная в другие группировки",https://spark-interfax.ru/samarskaya-oblast-samara/ano-prodvizhenie-inn-6319241026-ogrn-1196313059359-8e29285a16681cfde0531c9aa8c05885
"ЧАСТНОЕ УЧРЕЖДЕНИЕ СОДЕЙСТВИЯ РАЗВИТИЮ ОБЩЕСТВЕННЫХ ИНИЦИАТИВ В СОЦИАЛЬНОЙ СФЕРЕ ""НЕ ЖДИ, А ДЕЛАЙ""","ЧУ СРОИ НЕ ЖДИ, А ДЕЛАЙ",1236300001783,"446114, Самарская обл, г.о. Чапаевск, г Чапаевск, ул Маяковского, д. 54", 52.947566, 49.694687,94.99,"Деятельность прочих общественных организаций и некоммерческих организаций, кроме религиозных и политических организаций",https://spark-interfax.ru/samarskaya-oblast-chapaevsk/uch-ne-zhdi-a-delai-inn-6330099101-ogrn-1236300001783-f35f3111869a0470e053249aa8c0dd23
"САМАРСКАЯ РЕГИОНАЛЬНАЯ МОЛОДЕЖНАЯ ОБЩЕСТВЕННАЯ ОРГАНИЗАЦИЯ ""ЦЕНТР СОЦИАЛЬНЫХ ПРОЕКТОВ""",СРМОО ЦЕНТР СОЦИАЛЬНЫХ ПРОЕКТОВ,1116300001080,"443066, Самарская обл., г. Самара, ул. Дыбенко, д. 114 кв. 209", 53.207499, 50.216896,94.99,"Деятельность прочих общественных организаций и некоммерческих организаций, кроме религиозных и политических организаций",https://spark-interfax.ru/samarskaya-oblast-samara/oo-tsentr-sotsialnykh-proektov-inn-6312106596-ogrn-1116300001080-6906d957c9ea226ae0531b9aa8c04bb6
ТЕРРИТОРИАЛЬНОЕ ОБЩЕСТВЕННОЕ САМОУПРАВЛЕНИЕ №8 КОМСОМОЛЬСКОГО РАЙОНА ГОРОДСКОГО ОКРУГА ТОЛЬЯТТИ,ТОС №8,1096300002215,"445015, Самарская обл., г. Тольятти, ул. Макарова, д. 14", 53.468405, 49.530403,01.61,Предоставление услуг в области растениеводства,https://spark-interfax.ru/samarskaya-oblast-tolyatti/tos-n-inn-6324001164-ogrn-1096300002215-6906d958fdc7226ae0531b9aa8c04bb6
"ОБЩЕСТВО С ОГРАНИЧЕННОЙ ОТВЕТСТВЕННОСТЬЮ ""КОНДИТЕРСКОЕ""",ООО КОНДИТЕРСКОЕ,6311012722,"443082, Самарская обл., г. Самара, ул. Тухачевского, д. 56 к. А", 53.192397, 50.148602,56.29,Деятельность предприятий общественного питания по прочим видам организации питания,https://spark-interfax.ru/samarskaya-oblast-samara/ooo-konditerskoe-inn-6311012722-ogrn-1026300533247-cd9e7b391554407fb3ce745e07b18dc5
"ОБЩЕСТВО С ОГРАНИЧЕННОЙ ОТВЕТСТВЕННОСТЬЮ ""КИРОВСКИЙ КОМБИНАТ ШКОЛЬНОГО ПИТАНИЯ""",ООО ККШП,6312065420,"443091, Самарская обл., г. Самара, проспект Карла Маркса, зд. 412", 53.242865, 50.243709,56.29,Деятельность предприятий общественного питания по прочим видам организации питания,https://spark-interfax.ru/samarskaya-oblast-samara/ooo-kkshp-inn-6312065420-ogrn-1066312006540-14f65ef935be4a98bdf267adea551d99
"ОБЩЕСТВО С ОГРАНИЧЕННОЙ ОТВЕТСТВЕННОСТЬЮ ""КШП ВИКТОРИЯ""",ООО КШП ВИКТОРИЯ,6311131279,"443017, Самарская обл., г. Самара, ул. Карьерная, д. 5 офис 50", 53.179712, 50.172518,56.29,Деятельность предприятий общественного питания по прочим видам организации питания,https://spark-interfax.ru/samarskaya-oblast-samara/ooo-kshp-viktoriya-inn-6311131279-ogrn-1116311007878-dd19ed716d1a4560837b674cbbd0eef2
"ОБЩЕСТВО С ОГРАНИЧЕННОЙ ОТВЕТСТВЕННОСТЬЮ ""НОВАЯ КОМПАНИЯ"" КОМБИНАТ ШКОЛЬНОГО ПИТАНИЯ №1",ООО НОВАЯ КОМПАНИЯ КОМБИНАТ ШКОЛЬНОГО ПИТАНИЯ №1,6313006957,"443026, Самарская обл., г. Самара, пос. Управленческий, ул. Солдатская, д. 13А", 53.347920, 50.215090,56.29,Деятельность предприятий общественного питания по прочим видам организации питания,https://spark-interfax.ru/samarskaya-oblast-samara/ooo-novaya-kompaniya-kombinat-shkolnogo-pitaniya-n-inn-6313006957-ogrn-1026300844008-9bd32db3e29e4c6f9504b9383caac7b6
"ОБЩЕСТВО С ОГРАНИЧЕННОЙ ОТВЕТСТВЕННОСТЬЮ ""МЕГА-СИТИ С""",ООО МЕГА-СИТИ С,6315654311,"443001, Самарская обл., г. Самара, ул. Братьев Коростелевых, д. 97-99 ком. 1", 53.189000, 50.110463,56.29,Деятельность предприятий общественного питания по прочим видам организации питания,https://spark-interfax.ru/samarskaya-oblast-samara/ooo-mega-siti-s-inn-6315654311-ogrn-1136315007223-b9f47e7fd6cf4be6b16a4680232c90f0
"ОБЩЕСТВО С ОГРАНИЧЕННОЙ ОТВЕТСТВЕННОСТЬЮ ""КОМБИНАТ ОБЩЕСТВЕННОГО ПИТАНИЯ ПРОМЫШЛЕННОГО РАЙОНА Г.О. САМАРА""",ООО КОП ПРОМЫШЛЕННОГО РАЙОНА Г.О. САМАРА,6319726711,"443081, Самарская обл., г. Самара, ул. 22 Партсъезда, д. 175А", 53.227047, 50.210513,56.29,Деятельность предприятий общественного питания по прочим видам организации питания,https://spark-interfax.ru/samarskaya-oblast-samara/ooo-kop-promyshlennogo-raiona-g-o-samara-inn-6319726711-ogrn-1106319004054-84b88aa89f554ad7b551a5f0832fb774
"ОБЩЕСТВО С ОГРАНИЧЕННОЙ ОТВЕТСТВЕННОСТЬЮ ""САМАРСКИЙ КУЛИНАРНЫЙ ДОМ""",ООО САМАРСКИЙ КУЛИНАРНЫЙ ДОМ,6318235661,"443035, Самарская обл., г. Самара, проспект Кирова, д. 130 каб. 1", 53.230827, 50.247377,56.29,Деятельность предприятий общественного питания по прочим видам организации питания,https://spark-interfax.ru/samarskaya-oblast-samara/ooo-samarski-kulinarny-dom-inn-6318235661-ogrn-1136318007319-781bbe8117144641b940f9332eba2cda
"КОЛХОЗ ""ЛУГОВСКОЙ""",КОЛХОЗ ЛУГОВСКОЙ,6387000332,"446725, Самарская обл., Шигонский район, пос. Луговской", 53.652008, 48.753189,01.1,Выращивание однолетних культур,https://spark-interfax.ru/samarskaya-oblast-shigonski-raion/kolkhoz-lugovskoi-inn-6387000332-ogrn-1036301254516-85955395b79840c79b8917e7321ea932
"КРЕСТЬЯНСКОЕ (ФЕРМЕРСКОЕ) ХОЗЯЙСТВО ""РУСЛАН""",КФХ РУСЛАН,1026303859405,"446611, Самарская обл, м.р-н Нефтегорский, с.п. Дмитриевка, с Дмитриевка, ул Больничная, двлд. 8, кв 2", 52.783675, 50.659238,01.11.1,Выращивание зерновых культур,https://spark-interfax.ru/samarskaya-oblast-neftegorski-raion/kfkh-ruslan-inn-6377004634-ogrn-1026303859405-6906d957ec44226ae0531b9aa8c04bb6
"ОБЩЕСТВО С ОГРАНИЧЕННОЙ ОТВЕТСТВЕННОСТЬЮ ""АГРО-СЕРВИС""",ООО АГРО-СЕРВИС,6376020496,"446885, Самарская обл., Елховский район, с. Красные Дома, ул. Школьная, д. 23", 53.825091, 50.374036,01.11,"Выращивание зерновых (кроме риса), зернобобовых культур и семян масличных культур",https://spark-interfax.ru/samarskaya-oblast-elkhovski-raion/ooo-agro-servis-inn-6376020496-ogrn-1106376002061-5a6de4c4e8bd4d96ae7dfbda3e1cfad4
"ОБЩЕСТВО С ОГРАНИЧЕННОЙ ОТВЕТСТВЕННОСТЬЮ ""АГРОФИРМА ""СЛАВА КАРТОФЕЛЮ""",ООО АСК,2108002222,"429140, Чувашская Республика - Чувашия, Комсомольский район, с. Комсомольское, ул. Промышленная, д. 8", 55.259127, 47.553258,01.13.3,Выращивание столовых корнеплодных и клубнеплодных культур с высоким содержанием крахмала или инулина,https://spark-interfax.ru/chuvashskaya-respublika-chuvashiya-komsomolski-raion/ooo-ask-inn-2108002222-ogrn-1022101828275-2664f6760cde483991ceb0945a236844
"ОБЩЕСТВО С ОГРАНИЧЕННОЙ ОТВЕТСТВЕННОСТЬЮ ""КАРТОФЕЛЬ""",ООО КАРТОФЕЛЬ,2119902440,"429064, Чувашская Республика - Чувашия, Ядринский район, д. Персирланы, ул. Шоссейная, д. 34", 55.877403, 46.252351,01.11,"Выращивание зерновых (кроме риса), зернобобовых культур и семян масличных культур",https://spark-interfax.ru/chuvashskaya-respublika-chuvashiya-yadrinski-raion/ooo-kartofel-inn-2119902440-ogrn-1092136000274-56edbbec5f0f43c08efeb5fc69d7e079
"ОБЩЕСТВО С ОГРАНИЧЕННОЙ ОТВЕТСТВЕННОСТЬЮ ""ПОЛЕ ГРУПП""",ООО ПОЛЕ ГРУПП,2100006850,"429545, Чувашская Республика - Чувашия, м.о. Моргаушский, д Ойкасы (Большесундырское с/п), ул Центральная, двлд. 1", 56.137339, 46.836664,01.13,"Выращивание овощей, бахчевых, корнеплодных и клубнеплодных культур, грибов и трюфелей",https://spark-interfax.ru/chuvashskaya-respublika-chuvashiya-morgaushski-raion/ooo-pole-grupp-inn-2100006850-ogrn-1232100003354-fb8082e1e56773f0e053259aa8c06632
"ОБЩЕСТВО С ОГРАНИЧЕННОЙ ОТВЕТСТВЕННОСТЬЮ ""ГРЭЙН ФЭКТОРИ""",ООО ГРЭЙН ФЭКТОРИ,2100003129,"429107, Чувашская Республика - Чувашия, м.о. Шумерлинский, д Пояндайкино, ул Колхозная, д. 3А", 55.627432, 46.585676,01.11,"Выращивание зерновых (кроме риса), зернобобовых культур и семян масличных культур",https://spark-interfax.ru/chuvashskaya-respublika-chuvashiya-shumerlinski-raion/ooo-grein-fektori-inn-2100003129-ogrn-1222100009581-f012669fae290400e053249aa8c02c4a
"ОБЩЕСТВО С ОГРАНИЧЕННОЙ ОТВЕТСТВЕННОСТЬЮ ""МИТРА""",ООО МИТРА,2122004983,"429811, Чувашская Республика - Чувашия, Алатырский район, с. Миренки, ул. Комсомольская, д. 29", 54.902190, 46.381551,01.11.1,Выращивание зерновых культур,https://spark-interfax.ru/chuvashskaya-respublika-chuvashiya-alatyrski-raion/ooo-mitra-inn-2122004983-ogrn-1042131000438-9816e923fb5b4d08958fa303f5c73d39
УПРАВЛЕНИЕ СЕЛЬСКОГО ХОЗЯЙСТВА АДМИНИСТРАЦИИ УРМАРСКОГО РАЙОНА ЧУВАШСКОЙ РЕСПУБЛИКИ,УПРСЕЛЬХОЗ АДМИНИСТРАЦИИ УРМАРСКОГО РАЙОНА ЧУВАШСКОЙ РЕСПУБЛИКИ,1022102835370,"429400, Чувашская Республика - Чувашия, пгт. Урмары, ул. Мира, д. 5", 55.682934, 47.943720,01.6,Деятельность вспомогательная в области производства сельскохозяйственных культур и послеуборочной обработки сельхозпродукции,https://spark-interfax.ru/chuvashskaya-respublika-chuvashiya-urmarski-raion/gk-uprselkhoz-administratsii-urmarskogo-raiona-chuvashskoi-respubliki-inn-2114001925-ogrn-1022102835370-6906d9b1b8a5226ae0531b9aa8c04bb6
"СЕЛЬСКОХОЗЯЙСТВЕННЫЙ ПРОИЗВОДСТВЕННЫЙ КООПЕРАТИВ ""КОМБИНАТ""",СХПК КОМБИНАТ,1022103029112,"429103, Чувашская Республика - Чувашия, Шумерлинский район, д. Торханы, ул. Октябрьская, д. 20", 55.556278, 46.580053,01.11,"Выращивание зерновых (кроме риса), зернобобовых культур и семян масличных культур",https://spark-interfax.ru/chuvashskaya-respublika-chuvashiya-shumerlinski-raion/koop-kombinat-inn-2118000263-ogrn-1022103029112-db3266b7c54148219a2ff2804244fa76
"ОБЩЕСТВО С ОГРАНИЧЕННОЙ ОТВЕТСТВЕННОСТЬЮ ""КАНАШРАСТМАСЛО""",ООО КАНАШРАСТМАСЛО,2106008243,"428034, Чувашская Республика - Чувашия, г. Чебоксары, ул. Университетская, д. 36 пом. / каб. 3/6,7,8", 56.134143, 47.163341,10.4,Производство растительных и животных масел и жиров,https://spark-interfax.ru/chuvashskaya-respublika-chuvashiya-cheboksary/ooo-kanashrastmaslo-inn-2106008243-ogrn-1132134000107-4a6534492129482f8096b829edda0090
"ОБЩЕСТВО С ОГРАНИЧЕННОЙ ОТВЕТСТВЕННОСТЬЮ ""ЗАВЕТЫ ИЛЬИЧА""",ООО ЗАВЕТЫ ИЛЬИЧА,2113004722,"429029, Чувашская Республика - Чувашия, Порецкий район, с. Сыреси, ул. Октябрьская, д. 182", 55.070349, 46.412468,01.11,"Выращивание зерновых (кроме риса), зернобобовых культур и семян масличных культур",https://spark-interfax.ru/chuvashskaya-respublika-chuvashiya-poretski-raion/ooo-zavety-ilicha-inn-2113004722-ogrn-1202100004963-3c6be2c8914c4e1cb92c8843e964c061
"ОБЩЕСТВО С ОГРАНИЧЕННОЙ ОТВЕТСТВЕННОСТЬЮ ""ТРАКБУССЕРВИС""",ООО ТРАКБУССЕРВИС,2116001085,"428003, Чувашская Республика - Чувашия, г. Чебоксары, проспект Ленина, д. 5 кв. 9", 56.130631, 47.247616,45.3,"Торговля автомобильными деталями, узлами и принадлежностями",https://spark-interfax.ru/chuvashskaya-respublika-chuvashiya-cheboksary/ooo-trakbusservis-inn-2116001085-ogrn-1122135000195-7760e28066a24127bb52bd4e65eba005
"ОБЩЕСТВО С ОГРАНИЧЕННОЙ ОТВЕТСТВЕННОСТЬЮ "" СРЕДНИЙ АНИШ """,ООО СРЕДНИЙ АНИШ,2114000520,"429413, Чувашская Республика - Чувашия, Урмарский район, д. Старое Янситово, ул. Набережная, д. 1А", 55.791153, 47.918419,01.4,Животноводство,https://spark-interfax.ru/chuvashskaya-respublika-chuvashiya-urmarski-raion/ooo-sredni-anish-inn-2114000520-ogrn-1022102834710-8e09370c84e847888fd2fcce4e1ff8b1
СЕЛЬСКОХОЗЯЙСТВЕННЫЙ ПРОИЗВОДСТВЕННЫЙ КООПЕРАТИВ ИМЕНИ ЕВТИХИЯ АНДРЕЕВА МОРГАУШСКОГО МУНИЦИПАЛЬНОГО ОКРУГА ЧУВАШСКОЙ РЕСПУБЛИКИ,СХПК ИМ. АНДРЕЕВА,2112000517,"429530, Чувашская Республика - Чувашия, м.о. Моргаушский, с Моргауши, ул Красная Площадь, д. 8", 55.964274, 46.772156,01.1,Выращивание однолетних культур,https://spark-interfax.ru/chuvashskaya-respublika-chuvashiya-morgaushski-raion/koop-andreeva-inn-2112000517-ogrn-1022102631968-27b1fa1138894d04b745d8c62d6b10ef
"ОБЩЕСТВО С ОГРАНИЧЕННОЙ ОТВЕТСТВЕННОСТЬЮ ""СОРТСЕМОВОЩ ""КАНАШСКИЙ""",ООО СОРТСЕМОВОЩ КАНАШСКИЙ,2106007698,"429350, Чувашская Республика - Чувашия, Батыревский район, с. Батырево, ул. Комарова, д. 13А", 55.061439, 47.601280,46.21.12,"Торговля оптовая семенами, кроме семян масличных культур",https://spark-interfax.ru/chuvashskaya-respublika-chuvashiya-batyrevski-raion/ooo-sortsemovoshch-kanashski-inn-2106007698-ogrn-1102134000704-a994855ac6ac4bd9835284aff56ffc5a
"ОБЩЕСТВО С ОГРАНИЧЕННОЙ ОТВЕТСТВЕННОСТЬЮ ""КОМПАНИЯ АГРО""",ООО КОМПАНИЯ АГРО,2104008030,"429209, Чувашская Республика - Чувашия, м.о. Вурнарский, д Одиково, ул Советская, д. 45", 55.417435, 46.996063,01.11.1,Выращивание зерновых культур,https://spark-interfax.ru/chuvashskaya-respublika-chuvashiya-vurnarski-raion/ooo-kompaniya-agro-inn-2104008030-ogrn-1112133000066-a3f1d05e47264606b25c33cf8569ea38
"ОБЩЕСТВО С ОГРАНИЧЕННОЙ ОТВЕТСТВЕННОСТЬЮ ""АГРОФИРМА ""ПИОНЕР""",ООО АГРОФИРМА ПИОНЕР,2130169499,"429324, Чувашская Республика - Чувашия, м.о. Канашский, д Новые Шальтямы, ул Спортивная, д. 2, офис 8", 55.363302, 47.486600,01.11,"Выращивание зерновых (кроме риса), зернобобовых культур и семян масличных культур",https://spark-interfax.ru/chuvashskaya-respublika-chuvashiya-kanashski-raion/ooo-agrofirma-pioner-inn-2130169499-ogrn-1162130054899-c115b6e034e243dcae6fdbf4893856fc
"СЕЛЬСКОХОЗЯЙСТВЕННЫЙ ПРОИЗВОДСТВЕННЫЙ КООПЕРАТИВ ""ЛУЧ"" ЯНТИКОВСКОГО РАЙОНА ЧУВАШСКОЙ РЕСПУБЛИКИ",СХПК ЛУЧ ЯНТИКОВСКОГО РАЙОНА ЧР,2121000640,"429295, Чувашская Республика - Чувашия, Янтиковский район, д. Индырчи, ул. Николаева, д. 2", 55.517100, 47.858142,01.1,Выращивание однолетних культур,https://spark-interfax.ru/chuvashskaya-respublika-chuvashiya-yantikovski-raion/koop-luch-yantikovskogo-raiona-chr-inn-2121000640-ogrn-1022102229258-05cf20ebebbd46a78c184705f8847e87
"ОБЩЕСТВО С ОГРАНИЧЕННОЙ ОТВЕТСТВЕННОСТЬЮ ""САРАБАЙ""",ООО САРАБАЙ,2114902172,"429408, Чувашская Республика - Чувашия, Урмарский район, д. Тегешево, ул. Школьная, д. 4", 55.545974, 48.095083,01.1,Выращивание однолетних культур,https://spark-interfax.ru/chuvashskaya-respublika-chuvashiya-urmarski-raion/ooo-sarabai-inn-2114902172-ogrn-1042137003150-4b1edaae979042e1bdfccb39e86657f3
"СЕЛЬСКОХОЗЯЙСТВЕННЫЙ ПРОИЗВОДСТВЕННЫЙ КООПЕРАТИВ ""ПУТЬ ЛЕНИНА""",СХПК ПУТЬ ЛЕНИНА,2106000195,"429325, Чувашская Республика - Чувашия, Канашский район, д. Новое Урюмово, ул. Кооперативная, д. 31 к. А", 55.384228, 47.412563,01.11.1,Выращивание зерновых культур,https://spark-interfax.ru/chuvashskaya-respublika-chuvashiya-kanashski-raion/koop-put-lenina-inn-2106000195-ogrn-1022102229995-8f781f09b4d0499cb8e946b6a1daf337
"ОБЩЕСТВО С ОГРАНИЧЕННОЙ ОТВЕТСТВЕННОСТЬЮ ""НАМЭКО""",ООО НАМЭКО,2111008312,"429584, Чувашская Республика - Чувашия, м.о. Мариинско-Посадский, д Малое Камаево, ул Канашская, зд. 1А", 56.005178, 47.628288,01.13,"Выращивание овощей, бахчевых, корнеплодных и клубнеплодных культур, грибов и трюфелей",https://spark-interfax.ru/chuvashskaya-respublika-chuvashiya-mariinsko-posadski-raion/ooo-nameko-inn-2111008312-ogrn-1112135000262-2c198724b28d4b25aba0900377d50166
КРЕСТЬЯНСКОЕ ( ФЕРМЕРСКОЕ ) ХОЗЯЙСТВО ИГНАТЬЕВА А.Я.,КФХ ИГНАТЬЕВА А.Я.,1022102031258,"429220, Чувашская Республика - Чувашия, Вурнарский район, д. Новые Яхакасы, ул. 40 Лет Победы, д. 33", 55.508742, 46.982887,01.13.3,Выращивание столовых корнеплодных и клубнеплодных культур с высоким содержанием крахмала или инулина,https://spark-interfax.ru/chuvashskaya-respublika-chuvashiya-vurnarski-raion/kfkh-ignateva-a-ya-inn-2104000915-ogrn-1022102031258-6906d9b19742226ae0531b9aa8c04bb6
"ОБЩЕСТВО С ОГРАНИЧЕННОЙ ОТВЕТСТВЕННОСТЬЮ ""РАССВЕТОВСКИЙ""",ООО РАССВЕТОВСКИЙ,2101006186,"429826, Чувашская Республика - Чувашия, м.о. Алатырский, г Алатырь, ул 40 лет Победы, д. 1Б", 54.830995, 46.571847,01.11.1,Выращивание зерновых культур,https://spark-interfax.ru/chuvashskaya-respublika-chuvashiya-alatyr/ooo-rassvetovski-inn-2101006186-ogrn-1182130012899-68d84fd67b0e4e92a3052d35b159ca6b
"ОБЩЕСТВО С ОГРАНИЧЕННОЙ ОТВЕТСТВЕННОСТЬЮ ""АГРОФИРМА ""СЛАВА КАРТОФЕЛЮ - КАНАШ""",ООО АСК - КАНАШ,2106007232,"429321, Чувашская Республика - Чувашия, Канашский район, д. Караклы, ул. Шоссейная, д. 28А", 55.436440, 47.545437,01.13.3,Выращивание столовых корнеплодных и клубнеплодных культур с высоким содержанием крахмала или инулина,https://spark-interfax.ru/chuvashskaya-respublika-chuvashiya-kanashski-raion/ooo-ask-kanash-inn-2106007232-ogrn-1082134000739-8dfdc6c31c2249beab88654eec396a65
"ОБЩЕСТВО С ОГРАНИЧЕННОЙ ОТВЕТСТВЕННОСТЬЮ ""АГРО-ТОРГ""",ООО АГРО-ТОРГ,2103002363,"429350, Чувашская Республика - Чувашия, Батыревский район, с. Батырево, ул. О.Кошевого, д. 26", 55.062253, 47.589169,46.32.1,"Торговля оптовая мясом и мясом птицы, включая субпродукты",https://spark-interfax.ru/chuvashskaya-respublika-chuvashiya-batyrevski-raion/ooo-agro-torg-inn-2103002363-ogrn-1162130052776-8005987e92bd46b29eef6799edeb1bf0
"ОБЩЕСТВО С ОГРАНИЧЕННОЙ ОТВЕТСТВЕННОСТЬЮ ""АГРОФИРМА ""ВОСХОД""",ООО АГРОФИРМА ВОСХОД,2108006795,"429148, Чувашская Республика - Чувашия, Комсомольский район, с. Новочелны-Сюрбеево, ул. Центральная, д. 85", 55.152426, 47.574165,01.11.1,Выращивание зерновых культур,https://spark-interfax.ru/chuvashskaya-respublika-chuvashiya-komsomolski-raion/ooo-agrofirma-voskhod-inn-2108006795-ogrn-1062132013459-65991036433f499abb9054d0c4fcdaeb
"СЕЛЬСКОХОЗЯЙСТВЕННЫЙ ПОТРЕБИТЕЛЬСКИЙ СНАБЖЕНЧЕСКИЙ СБЫТОВОЙ КООПЕРАТИВ ""УРОЖАЙ""",СЕЛЬСКОХОЗЯЙСТВЕННЫЙ ПОТРЕБИТЕЛЬСКИЙ СНАБЖЕНЧЕСКИЙ СБЫТОВОЙ КООПЕРАТИВ УРОЖАЙ,1192130007783,"429358, Чувашская Республика - Чувашия, Батыревский район, д. Старые Тойси, ул. Центральная, д. 22Б", 55.074527, 47.827269,46.11,"Деятельность агентов по оптовой торговле сельскохозяйственным сырьем, живыми животными, текстильным сырьем и полуфабрикатами",https://spark-interfax.ru/chuvashskaya-respublika-chuvashiya-batyrevski-raion/koop-urozhai-inn-2103005149-ogrn-1192130007783-8d9c5776790e8d0fe0531c9aa8c0b969
"СЕЛЬСКОХОЗЯЙСТВЕННЫЙ ПОТРЕБИТЕЛЬСКИЙ КРЕДИТНЫЙ КООПЕРАТИВ ""САВАЛ-СОГЛАСИЕ""",СПКК САВАЛ-СОГЛАСИЕ,2115903838,"429900, Чувашская Республика - Чувашия, Цивильский район, г. Цивильск, ул. Терешковой, д. 4 А", 55.863951, 47.461934,64.99.6,Деятельность по финансовой взаимопомощи,https://spark-interfax.ru/chuvashskaya-respublika-chuvashiya-tsivilski-raion/koop-saval-soglasie-inn-2115903838-ogrn-1062137019053-6906d9b1d23b226ae0531b9aa8c04bb6
"СЕЛЬСКОХОЗЯЙСТВЕННЫЙ ПРОИЗВОДСТВЕННЫЙ КООПЕРАТИВ "" РОДИНА""",СХПК РОДИНА,2107001106,"429442, Чувашская Республика - Чувашия, Козловский район, с. Аттиково, ул. Петрова, д. 34", 55.775800, 48.127636,01.1,Выращивание однолетних культур,https://spark-interfax.ru/chuvashskaya-respublika-chuvashiya-kozlovski-raion/koop-rodina-inn-2107001106-ogrn-1022102835182-c3c065df45dd47c0b0bdebd7086768e6
"ОБЩЕСТВО С ОГРАНИЧЕННОЙ ОТВЕТСТВЕННОСТЬЮ ""НАУЧНО-ПРОИЗВОДСТВЕННОЕ ПРЕДПРИЯТИЕ ""СОГЛАСИЕ""",ООО НПП СОГЛАСИЕ,2127004539,"428000, Чувашская Республика - Чувашия, г. Чебоксары, проезд Хозяйственный, д. 19А каб. 1", 56.129953, 47.298584,45.20,Техническое обслуживание и ремонт автотранспортных средств,https://spark-interfax.ru/chuvashskaya-respublika-chuvashiya-cheboksary/ooo-npp-soglasie-inn-2127004539-ogrn-1022100979218-afb05f7f6e22424f9c3d56623f959ee2
"ОБЩЕСТВО С ОГРАНИЧЕННОЙ ОТВЕТСТВЕННОСТЬЮ ""ИНСТРУМЕНТАЛЬНО-ЭКСПЕРИМЕНТАЛЬНЫЙ ЗАВОД """,ООО ИНСТРУМЕНТАЛЬНО-ЭКСПЕРИМЕНТАЛЬНЫЙ ЗАВОД,2130033681,"428000, Чувашская Республика - Чувашия, г. Чебоксары, проезд Машиностроителей, д. 1 стр. 1 пом. 33", 56.125978, 47.309855,25.73,Производство инструмента,https://spark-interfax.ru/chuvashskaya-respublika-chuvashiya-cheboksary/ooo-instrumentalno-eksperimentalny-zavod-inn-2130033681-ogrn-1082130000303-73c8ada036fc4ae9bc361f62ec9353d6
"ЗАКРЫТОЕ АКЦИОНЕРНОЕ ОБЩЕСТВО ""СЕЛЬСКИЙ СТРОИТЕЛЬНЫЙ КОМБИНАТ ""ЧЕБОКСАРСКИЙ""",ЗАО ССК ЧЕБОКСАРСКИЙ,2128001770,"428903, Чувашская Республика - Чувашия, г. Чебоксары, проезд Лапсарский, д. 63", 56.076180, 47.228071,23.61,Производство изделий из бетона для использования в строительстве,https://spark-interfax.ru/chuvashskaya-respublika-chuvashiya-cheboksary/ao-ssk-cheboksarski-inn-2128001770-ogrn-1022101141842-a672c9c1deae46efb096bfb02b7f5f97
"ОБЩЕСТВО С ОГРАНИЧЕННОЙ ОТВЕТСТВЕННОСТЬЮ ""СПЕЦВАГОНДЕТАЛЬ""",ООО СПЕЦВАГОНДЕТАЛЬ,2130061985,"428010, Чувашская Республика - Чувашия, г. Чебоксары, ул. Богдана Хмельницкого, зд. 3В", 56.134034, 47.237139,25.9,Производство прочих готовых металлических изделий,https://spark-interfax.ru/chuvashskaya-respublika-chuvashiya-cheboksary/ooo-spetsvagondetal-inn-2130061985-ogrn-1092130009454-68408ca7316b4b57aa4cc8ec872377ee
"АКЦИОНЕРНОЕ ОБЩЕСТВО ""ЧЕБОКСАРСКИЙ ЗАВОД ""СТРОЙДОРМАШ""",АО СТРОЙДОРМАШ,2126002514,"428020, Чувашская Республика - Чувашия, г. Чебоксары, проезд Базовый, д. 13", 56.099723, 47.249741,28.99.9,"Производство оборудования специального назначения, не включенного в другие группировки",https://spark-interfax.ru/chuvashskaya-respublika-chuvashiya-cheboksary/ao-stroidormash-inn-2126002514-ogrn-1022101132547-f8c38c5e0d8d43afb732f4db7f997aad
"ЗАКРЫТОЕ АКЦИОНЕРНОЕ ОБЩЕСТВО ""ЗАВОД ИГРОВОГО СПОРТИВНОГО ОБОРУДОВАНИЯ""",ЗАО ЗИСО,2127332219,"428037, Чувашская Республика - Чувашия, г. Чебоксары, проезд Монтажный, д. 6Б", 56.115479, 47.322162,32.30,Производство спортивных товаров,https://spark-interfax.ru/chuvashskaya-respublika-chuvashiya-cheboksary/ao-ziso-inn-2127332219-ogrn-1042127013422-915f75aaca8e40e696c32b65b1766167
"ОБЩЕСТВО С ОГРАНИЧЕННОЙ ОТВЕТСТВЕННОСТЬЮ ""ЗАВОД ПРОМЫШЛЕННОГО ЛИТЬЯ""",ООО ПРОМЛИТ,2130211126,"428028, Чувашская Республика - Чувашия, г. Чебоксары, проспект Тракторостроителей, д. 101 литера 35, часть 1 пом. 203", 56.115360, 47.333062,24.52,Литье стали,https://spark-interfax.ru/chuvashskaya-respublika-chuvashiya-cheboksary/ooo-promlit-inn-2130211126-ogrn-1192130006298-89c2a1416a67631be0531b9aa8c0a44f
"ОБЩЕСТВО С ОГРАНИЧЕННОЙ ОТВЕТСТВЕННОСТЬЮ ""ПЕРВЫЙ ОКОННЫЙ ЗАВОД""",ООО ПЕРВЫЙ ОКОННЫЙ ЗАВОД,2130200565,"428028, Чувашская Республика - Чувашия, г.о. город Чебоксары, г Чебоксары, пр-кт Тракторостроителей, зд. 113Б", 56.112185, 47.328073,22.23,"Производство пластмассовых изделий, используемых в строительстве",https://spark-interfax.ru/chuvashskaya-respublika-chuvashiya-cheboksary/ooo-pervy-okonny-zavod-inn-2130200565-ogrn-1182130004825-6af533bf77788e8ce0531b9aa8c08965
"ОБЩЕСТВО С ОГРАНИЧЕННОЙ ОТВЕТСТВЕННОСТЬЮ ""ДАВИКОН""",ООО ДАВИКОН,2128042047,"428033, Чувашская Республика - Чувашия, г. Чебоксары, ул. Урукова, д. 19 пом. 25", 56.139516, 47.205011,27.90,Производство прочего электрического оборудования,https://spark-interfax.ru/chuvashskaya-respublika-chuvashiya-cheboksary/ooo-davikon-inn-2128042047-ogrn-1022101146572-f5c8982a09ec47b79dddeef615066f62
"АКЦИОНЕРНОЕ ОБЩЕСТВО ""АЛАТЫРСКИЙ МЕХАНИЧЕСКИЙ ЗАВОД""",АО АМЗ,2122005916,"429826, Чувашская Республика - Чувашия, г. Алатырь, пер. Больничный, д. 14", 54.848575, 46.578029,30.20.4,"Производство частей железнодорожных локомотивов, трамвайных и прочих моторных вагонов и подвижного состава; производство путевого оборудования и устройств для железнодорожных, трамвайных и прочих путей, механического и электромеханического оборудования для управления движением",https://spark-interfax.ru/chuvashskaya-respublika-chuvashiya-alatyr/ao-amz-inn-2122005916-ogrn-1072131000116-db9ac70ce8344a1ca32f14701340db4d
"ОБЩЕСТВО С ОГРАНИЧЕННОЙ ОТВЕТСТВЕННОСТЬЮ ""ПРЕСТИЖ""",ООО ПРЕСТИЖ,2124039029,"429965, Чувашская Республика - Чувашия, г.о. город Новочебоксарск, г Новочебоксарск, ул Промышленная, зд. 75Ц, офис 1", 56.097286, 47.509776,16.23,Производство прочих деревянных строительных конструкций и столярных изделий,https://spark-interfax.ru/chuvashskaya-respublika-chuvashiya-novocheboksarsk/ooo-prestizh-inn-2124039029-ogrn-1142124000798-b3ae33288dc34ba5bc9868a817f5abc0
"ОБЩЕСТВО С ОГРАНИЧЕННОЙ ОТВЕТСТВЕННОСТЬЮ ""ИНСТРУМЕНТКОМПЛЕКТАЦИЯ""",ООО ИНСТРУМЕНТКОМПЛЕКТАЦИЯ,2130052677,"428022, Чувашская Республика - Чувашия, г.о. город Чебоксары, г Чебоксары, пр-кт Мира, д. 26, помещ. 5", 56.124853, 47.282229,45.31,"Торговля оптовая автомобильными деталями, узлами и принадлежностями",https://spark-interfax.ru/chuvashskaya-respublika-chuvashiya-cheboksary/ooo-instrumentkomplektatsiya-inn-2130052677-ogrn-1092130000643-1996c446cf0f486f86e9e82716a08603
"ОБЩЕСТВО С ОГРАНИЧЕННОЙ ОТВЕТСТВЕННОСТЬЮ ""ПРОИЗВОДСТВЕННАЯ ТОРГОВАЯ КОМПАНИЯ ""СТАЛЬ""",ООО ПТК СТАЛЬ,2130175580,"428010, Чувашская Республика - Чувашия, г.о. город Чебоксары, г Чебоксары, ул Щорса, д. 19", 56.124049, 47.234628,46.72,Торговля оптовая металлами и металлическими рудами,https://spark-interfax.ru/chuvashskaya-respublika-chuvashiya-cheboksary/ooo-ptk-stal-inn-2130175580-ogrn-1162130062159-e1979ccd151b4e5cb93eab56d4ec2110
"АВТОНОМНАЯ НЕКОММЕРЧЕСКАЯ ОРГАНИЗАЦИЯ ""ЦЕНТР РАЗВИТИЯ ОТДЫХА СЕЛЬСКОГО НАСЕЛЕНИЯ ""ЕДИНСТВО""",АНО ЕДИНСТВО,1212100009076,"429350, Чувашская Республика - Чувашия, м.о. Батыревский, с Батырево, ул Дружбы, влд. 6Б", 55.062328, 47.583394,79.90.2,Деятельность по предоставлению экскурсионных туристических услуг,https://spark-interfax.ru/chuvashskaya-respublika-chuvashiya-batyrevski-raion/ano-edinstvo-inn-2103005501-ogrn-1212100009076-d2eb2789364d45a5e053219aa8c0e5df
"ОБЩЕСТВО С ОГРАНИЧЕННОЙ ОТВЕТСТВЕННОСТЬЮ ""ДЕТСКАЯ СТОМАТОЛОГИЯ""",ООО ДЕТСКАЯ СТОМАТОЛОГИЯ,2124036331,"429956, Чувашская Республика - Чувашия, г. Новочебоксарск, ул. 10 Пятилетки, д. 46А", 56.109862, 47.455879,86.23,Стоматологическая практика,https://spark-interfax.ru/chuvashskaya-respublika-chuvashiya-novocheboksarsk/ooo-detskaya-stomatologiya-inn-2124036331-ogrn-1122124001230-bf39c126e38f4b02a3a69b136dbe6d77
"ОБЩЕСТВО С ОГРАНИЧЕННОЙ ОТВЕТСТВЕННОСТЬЮ ""ЧЕБТУР""",ООО ЧЕБТУР,2100003217,"428003, Чувашская Республика - Чувашия, г.о. город Чебоксары, г Чебоксары, б-р Купца Ефремова, д. 1, ком. 17-23", 56.144598, 47.251302,79.90.2,Деятельность по предоставлению экскурсионных туристических услуг,https://spark-interfax.ru/chuvashskaya-respublika-chuvashiya-cheboksary/ooo-chebtur-inn-2100003217-ogrn-1222100009670-f09f37803d6f26dce053249aa8c05cb1
"ОБЩЕСТВО С ОГРАНИЧЕННОЙ ОТВЕТСТВЕННОСТЬЮ ""ВАЛДАЙ""",ООО ВАЛДАЙ,2124035507,"429950, Чувашская Республика - Чувашия, г. Новочебоксарск, проезд Ельниковский, д. 1", 56.108274, 47.473116,56.30,Подача напитков,https://spark-interfax.ru/chuvashskaya-respublika-chuvashiya-novocheboksarsk/ooo-valdai-inn-2124035507-ogrn-1122124000404-bb90909e6926427abe4105e57db1c338
"ОБЩЕСТВО С ОГРАНИЧЕННОЙ ОТВЕТСТВЕННОСТЬЮ ""СХПК ""МУРАТЫ""",ООО СХПК МУРАТЫ,2104008946,"429203, Чувашская Республика - Чувашия, м.о. Вурнарский, д Синьял-Яуши, ул Рахманы, зд. 24", 55.664176, 47.049338,01.11,"Выращивание зерновых (кроме риса), зернобобовых культур и семян масличных культур",https://spark-interfax.ru/chuvashskaya-respublika-chuvashiya-vurnarski-raion/ooo-skhpk-muraty-inn-2104008946-ogrn-1222100003212-c827903080dd4967823700885404ecdb
"СЕЛЬСКОХОЗЯЙСТВЕННЫЙ ПРОИЗВОДСТВЕННЫЙ КООПЕРАТИВ ""СЕМЕНОВСКИЙ""",СПК СЕМЕНОВСКИЙ,1022103032160,"429024, Чувашская Республика - Чувашия, Порецкий район, с. Семеновское, ул. Азина, д. 6", 55.198945, 46.326184,01.1,Выращивание однолетних культур,https://spark-interfax.ru/chuvashskaya-respublika-chuvashiya-poretski-raion/koop-semenovski-inn-2113000260-ogrn-1022103032160-c47bd6bccc9b4597af98cff008a9bee6
"ОТКРЫТОЕ АКЦИОНЕРНОЕ ОБЩЕСТВО ""ШУМЕРЛИНСКИЙ ХЛЕБОЗАВОД""",ОАО ШУМЕРЛИНСКИЙ ХЛЕБОЗАВОД,2125002536,"429124, Чувашская Республика - Чувашия, г. Шумерля, проезд Сурский, д. 25", 55.502682, 46.384872,10.71,"Производство хлеба и мучных кондитерских изделий, тортов и пирожных недлительного хранения",https://spark-interfax.ru/chuvashskaya-respublika-chuvashiya-shumerlya/pao-shumerlinski-khlebozavod-inn-2125002536-ogrn-1022103028573-2425681aca8f4df29eaa9f56f4f7d480
"ОБЩЕСТВО С ОГРАНИЧЕННОЙ ОТВЕТСТВЕННОСТЬЮ ""КИНДЕРВИЛЬ""",ООО КИНДЕРВИЛЬ,2130171410,"428000, Чувашская Республика - Чувашия, г. Чебоксары, бульвар Президентский, д. 20", 56.135407, 47.240375,93.29.9,"Деятельность зрелищно-развлекательная прочая, не включенная в другие группировки",https://spark-interfax.ru/chuvashskaya-respublika-chuvashiya-cheboksary/ooo-kindervil-inn-2130171410-ogrn-1162130057209-bd7ad088046948bd906c6a1a51bd4757
"ОБЩЕСТВО С ОГРАНИЧЕННОЙ ОТВЕТСТВЕННОСТЬЮ ""ЛИНГВА СТУДИЯ ФРАНЧАЙЗИНГ""",ООО ЛИНГВА СТУДИЯ ФРАНЧАЙЗИНГ,2130210637,"428003, Чувашская Республика - Чувашия, г.о. город Чебоксары, г Чебоксары, пр-кт Ленина, д. 7Б, помещ. 20", 56.130189, 47.248968,77.40,"Аренда интеллектуальной собственности и подобной продукции, кроме авторских прав",https://spark-interfax.ru/chuvashskaya-respublika-chuvashiya-cheboksary/ooo-lingva-studiya-franchaizing-inn-2130210637-ogrn-1192130005627-88a8ff78915b5927e0531b9aa8c0fea4
"ОБЩЕСТВО С ОГРАНИЧЕННОЙ ОТВЕТСТВЕННОСТЬЮ ""УПРАВЛЯЮЩАЯ КОМПАНИЯ ""ДОМОВОЙ""",ООО УК ДОМОВОЙ,2114003471,"429430, Чувашская Республика - Чувашия, Козловский район, г. Козловка, ул. Лобачевского, д. 32 пом. 6", 55.839383, 48.241137,68.32,Управление недвижимым имуществом за вознаграждение или на договорной основе,https://spark-interfax.ru/chuvashskaya-respublika-chuvashiya-kozlovski-raion/ooo-uk-domovoi-inn-2114003471-ogrn-1152137030066-f6b2a4213d7640508c8e0ec8052de093
"ОБЩЕСТВО С ОГРАНИЧЕННОЙ ОТВЕТСТВЕННОСТЬЮ ""КОМПОЗИТ21""",ООО КОМПОЗИТ21,2109002345,"429620, Чувашская Республика - Чувашия, Красноармейский район, с. Красноармейское, ул. 30 Лет Победы, д. 16", 55.770727, 47.176815,22.2,Производство изделий из пластмасс,https://spark-interfax.ru/chuvashskaya-respublika-chuvashiya-krasnoarmeiski-raion/ooo-kompozit-inn-2109002345-ogrn-1122137000138-e92196809a074868a25aef01b0e80455
"ОБЩЕСТВО С ОГРАНИЧЕННОЙ ОТВЕТСТВЕННОСТЬЮ ""ЗАРЯ""",ООО ЗАРЯ,2106006743,"429332, Чувашская Республика - Чувашия, Канашский район, д. Ямурза, ул. Пмс-205, д. 2 офис 21", 55.537215, 47.547203,47.2,"Торговля розничная пищевыми продуктами, напитками и табачными изделиями в специализированных магазинах",https://spark-interfax.ru/chuvashskaya-respublika-chuvashiya-kanashski-raion/ooo-zarya-inn-2106006743-ogrn-1052134015779-eb2f4673f1584a2ebd98701e6eb05bea
"ОБЩЕСТВО С ОГРАНИЧЕННОЙ ОТВЕТСТВЕННОСТЬЮ ""ОВОЩИ""",ООО ОВОЩИ,2123000678,"429333, Чувашская Республика - Чувашия, г. Канаш, ул. Фрунзе, д. 15", 55.500820, 47.471924,47.21,Торговля розничная фруктами и овощами в специализированных магазинах,https://spark-interfax.ru/chuvashskaya-respublika-chuvashiya-kanash/ooo-ovoshchi-inn-2123000678-ogrn-1022102235121-9454c5661e6144f384984777b0899e89
"ОБЩЕСТВО С ОГРАНИЧЕННОЙ ОТВЕТСТВЕННОСТЬЮ ""УПРАВЛЯЮЩАЯ КОМПАНИЯ ДОВЕРИЕ ГОРОД КАНАШ""",ООО УК ДОВЕРИЕ Г. КАНАШ,2123018227,"429334, Чувашская Республика - Чувашия, м.о. Канашский, г Канаш, ул 30 лет Чувашии, зд. 2, помещ. 3, каб. 10,11", 55.513725, 47.509555,68.32.1,Управление эксплуатацией жилого фонда за вознаграждение или на договорной основе,https://spark-interfax.ru/chuvashskaya-respublika-chuvashiya-kanash/ooo-uk-doverie-g-kanash-inn-2123018227-ogrn-1162130069408-cdeb0c4c4ccb44f29a310ab260a41fa9
"ОБЩЕСТВО С ОГРАНИЧЕННОЙ ОТВЕТСТВЕННОСТЬЮ ""АВТОШВЕЙПРЕД""",ООО АВТОШВЕЙПРЕД,2109903156,"429620, Чувашская Республика - Чувашия, Красноармейский район, с. Красноармейское, ул. 30 Лет Победы, д. 16", 55.770727, 47.176815,14.13,Производство прочей верхней одежды,https://spark-interfax.ru/chuvashskaya-respublika-chuvashiya-krasnoarmeiski-raion/ooo-avtoshveipred-inn-2109903156-ogrn-1082137000835-bb1062adb65f401bb139ec3d4d357bc9
"ОБЩЕСТВО С ОГРАНИЧЕННОЙ ОТВЕТСТВЕННОСТЬЮ ""ЗАВОД СТРОИТЕЛЬНЫХ МАТЕРИАЛОВ""",ООО ЗАВОД СТРОИТЕЛЬНЫХ МАТЕРИАЛОВ,2106005940,"429306, Чувашская Республика - Чувашия, Канашский район, д. Большие Бикшихи, ул. Кирпичная, д. 1", 55.532903, 47.452331,16.23.1,Производство деревянных строительных конструкций и столярных изделий,https://spark-interfax.ru/chuvashskaya-respublika-chuvashiya-kanashski-raion/ooo-zavod-stroitelnykh-materialov-inn-2106005940-ogrn-1042134002272-33189a8c450b42ab953abf3d552b6698
"ОБЩЕСТВО С ОГРАНИЧЕННОЙ ОТВЕТСТВЕННОСТЬЮ ""ЧАСТНАЯ ОХРАННАЯ ОРГАНИЗАЦИЯ ""ОХРАНА СТРОИТЕЛЬНОГО БИЗНЕСА""",ООО ЧОО ОСБ,2130084118,"428003, Чувашская Республика - Чувашия, г.о. город Чебоксары, г Чебоксары, ул Петрова, д. 6, помещ. 6, 7", 56.119674, 47.252042,80.10,"Деятельность охранных служб, в том числе частных",https://spark-interfax.ru/chuvashskaya-respublika-chuvashiya-cheboksary/ooo-choo-osb-inn-2130084118-ogrn-1112130001444-51a746314a634d4eb05ba7e0a0281e6d
"ОБЩЕСТВО С ОГРАНИЧЕННОЙ ОТВЕТСТВЕННОСТЬЮ ""ИСКУССТВО ЖИЗНИ - ПОВОЛЖЬЕ""",ООО ИСКУССТВО ЖИЗНИ - ПОВОЛЖЬЕ,2130177958,"428000, Чувашская Республика - Чувашия, г. Чебоксары, проспект Московский, д. 38 ""В"" помещения 82-83", 56.147519, 47.213356,96.04,Деятельность физкультурно-оздоровительная,https://spark-interfax.ru/chuvashskaya-respublika-chuvashiya-cheboksary/ooo-iskusstvo-zhizni-povolzhe-inn-2130177958-ogrn-1162130065085-9d71903081e347c39154f243cc487530
"ОБЩЕСТВО С ОГРАНИЧЕННОЙ ОТВЕТСТВЕННОСТЬЮ ""ФОРПОСТ ЮРИДИЧЕСКОГО СОДЕЙСТВИЯ""",ООО ФОЮС,2130232790,"428003, Чувашская Республика - Чувашия, г.о. город Чебоксары, г Чебоксары, ул Композиторов Воробьевых, д. 16, офис 222", 56.144030, 47.249601,69.10,Деятельность в области права,https://spark-interfax.ru/chuvashskaya-respublika-chuvashiya-cheboksary/ooo-foyus-inn-2130232790-ogrn-1222100004675-e25200718c967132e053259aa8c05ef5
"ОБЩЕСТВО С ОГРАНИЧЕННОЙ ОТВЕТСТВЕННОСТЬЮ ""СКРИПТ КОД""",ООО СКРИПТ КОД,2130223570,"428033, Чувашская Республика - Чувашия, г.о. город Чебоксары, г Чебоксары, ул Б.С.Маркова, зд. 12Б, офис 110", 56.141776, 47.232471,85.41.9,"Образование дополнительное детей и взрослых, не включенное в другие группировки",https://spark-interfax.ru/chuvashskaya-respublika-chuvashiya-cheboksary/ooo-skript-kod-inn-2130223570-ogrn-1212100000970-bb43b97bac2b4955e053219aa8c0e375
"ОБЩЕСТВО С ОГРАНИЧЕННОЙ ОТВЕТСТВЕННОСТЬЮ ""УПРАВЛЯЮЩАЯ КОМПАНИЯ ""КОМФОРТ СЕРВИС""",ООО УК КОМФОРТ СЕРВИС,2100001450,"428003, Чувашская Республика - Чувашия, г.о. город Чебоксары, г Чебоксары, ул Гагарина Ю., д. 3, к. 1, помещ. 1", 56.123412, 47.250663,68.32.1,Управление эксплуатацией жилого фонда за вознаграждение или на договорной основе,https://spark-interfax.ru/chuvashskaya-respublika-chuvashiya-cheboksary/ooo-uk-komfort-servis-inn-2100001450-ogrn-1222100007910-eb1f0ead713216e2e053249aa8c028dd
"СЕЛЬСКОХОЗЯЙСТВЕННЫЙ ПРОИЗВОДСТВЕННЫЙ КООПЕРАТИВ ""ВЯЗОВО-ГАЙСКИЙ""",СПК ВЯЗОВО-ГАЙСКИЙ,7317000027,"433943, Ульяновская обл, м.р-н Старокулаткинский, с.п. Зеленовское, с Вязовый Гай, ул Степная, зд. 10", 52.680293, 48.016322,01.11.1,Выращивание зерновых культур,https://spark-interfax.ru/ulyanovskaya-oblast-starokulatkinski-raion/koop-vyazovo-gaiski-inn-7317000027-ogrn-1027300909481-235ef1f9a208424aa65c875b467af4cc
"ОБЩЕСТВО С ОГРАНИЧЕННОЙ ОТВЕТСТВЕННОСТЬЮ ""АГРОБИЗНЕС ПАРКАЕВЫХ""",ООО АГРОБИЗНЕС ПАРКАЕВЫХ,7329024255,"433546, Ульяновская обл, м.р-н Мелекесский, с.п. Рязановское, п Дивный, ул Советская, зд. 2/3", 53.941942, 49.490666,01.11,"Выращивание зерновых (кроме риса), зернобобовых культур и семян масличных культур",https://spark-interfax.ru/ulyanovskaya-oblast-melekesski-raion/ooo-agrobiznes-parkaevykh-inn-7329024255-ogrn-1177325006363-496152394f884e9bb53693a54ce76701
"СЕЛЬСКОХОЗЯЙСТВЕННЫЙ ПРОИЗВОДСТВЕННЫЙ КООПЕРАТИВ ""ЦЕНТР""",СПК ЦЕНТР,7317002666,"433940, Ульяновская обл., рабочий пос. Старая Кулатка, ул. Куйбышева, д. 65", 52.736102, 47.629495,01.1,Выращивание однолетних культур,https://spark-interfax.ru/ulyanovskaya-oblast-starokulatkinski-raion/koop-tsentr-inn-7317002666-ogrn-1037300670043-617889a05e9e7e1ce0531b9aa8c027ab
"ОБЩЕСТВО С ОГРАНИЧЕННОЙ ОТВЕТСТВЕННОСТЬЮ ""ТЕРРА""",ООО ТЕРРА,7327046510,"433416, Ульяновская обл, м.р-н Чердаклинский, с.п. Бряндинское, с Бряндино, ул Школьная, двлд. 6", 54.382974, 49.367632,01.11,"Выращивание зерновых (кроме риса), зернобобовых культур и семян масличных культур",https://spark-interfax.ru/ulyanovskaya-oblast-cherdaklinski-raion/ooo-terra-inn-7327046510-ogrn-1087327002564-82993d6f640f4a30bad9ede361651efe
"ОБЩЕСТВО С ОГРАНИЧЕННОЙ ОТВЕТСТВЕННОСТЬЮ ""КАЛИТА""",ООО КАЛИТА,7314002788,"433974, Ульяновская обл., Павловский район, с. Илюшкино", 52.595718, 47.106109,01.11.1,Выращивание зерновых культур,https://spark-interfax.ru/ulyanovskaya-oblast-pavlovski-raion/ooo-kalita-inn-7314002788-ogrn-1047300530375-90274c8a584c4f50bf9f57fd2cfdd57c
"СЕЛЬСКОХОЗЯЙСТВЕННЫЙ ЗАГОТОВИТЕЛЬНЫЙ, ПЕРЕРАБАТЫВАЮЩИЙ, СБЫТОВОЙ ПОТРЕБИТЕЛЬСКИЙ КООПЕРАТИВ ""НОВАЯ ЖИЗНЬ""",СХПК НОВАЯ ЖИЗНЬ,1167325076710,"433420, Ульяновская обл., Чердаклинский район, с. Поповка", 54.236758, 48.926851,01.11.1,Выращивание зерновых культур,https://spark-interfax.ru/ulyanovskaya-oblast-cherdaklinski-raion/koop-novaya-zhizn-inn-7325151260-ogrn-1167325076710-6906d9a31e30226ae0531b9aa8c04bb6
"ОБЩЕСТВО С ОГРАНИЧЕННОЙ ОТВЕТСТВЕННОСТЬЮ ""ОПТИМА-АГРО""",ООО ОПТИМА-АГРО,7325115215,"432027, Ульяновская обл, г.о. город Ульяновск, г Ульяновск, ул Тимирязева, д. 35", 54.343891, 48.384363,01.11,"Выращивание зерновых (кроме риса), зернобобовых культур и семян масличных культур",https://spark-interfax.ru/ulyanovskaya-oblast-ulyanovsk/ooo-optima-agro-inn-7325115215-ogrn-1127325005334-777e90554afa4c2996f9da34d2d61347
"ОБЩЕСТВО С ОГРАНИЧЕННОЙ ОТВЕТСТВЕННОСТЬЮ ""МОЛВИНО АГРО""",ООО МОЛВИНО АГРО,7321312149,"433355, Ульяновская обл., Тереньгульский район, ст. Молвино, ул. Первомайская, домовладение 5", 53.796200, 48.406200,01.11,"Выращивание зерновых (кроме риса), зернобобовых культур и семян масличных культур",https://spark-interfax.ru/ulyanovskaya-oblast-terengulski-raion/ooo-molvino-agro-inn-7321312149-ogrn-1067321027290-9c39f142ee594acfa473c169482100d2
"ОБЩЕСТВО С ОГРАНИЧЕННОЙ ОТВЕТСТВЕННОСТЬЮ ""СМЕНА""",ООО СМЕНА,7325143205,"432071, Ульяновская обл, г.о. город Ульяновск, г Ульяновск, ул Островского, д. 1, помещ. 8", 54.324527, 48.393946,01.11.1,Выращивание зерновых культур,https://spark-interfax.ru/ulyanovskaya-oblast-ulyanovsk/ooo-smena-inn-7325143205-ogrn-1167325053862-05d103e3df4b4ca39b99a2b36417f61d
"ОБЩЕСТВО С ОГРАНИЧЕННОЙ ОТВЕТСТВЕННОСТЬЮ ""ЗОЛОТОЙ ТЕЛЁНОК""",ООО ЗОЛОТОЙ ТЕЛЁНОК,7329006922,"433429, Ульяновская обл., Чердаклинский район, с. Уразгильдино, пл. Дружбы, д. 1", 54.152492, 48.880304,01.11.1,Выращивание зерновых культур,https://spark-interfax.ru/ulyanovskaya-oblast-cherdaklinski-raion/ooo-zolotoi-telenok-inn-7329006922-ogrn-1127329000985-d786d14d2db5489f94b6b4362381181c
"ОБЩЕСТВО С ОГРАНИЧЕННОЙ ОТВЕТСТВЕННОСТЬЮ ""ТЕПЛЫЕ ПОЛЯ""",ООО ТЕПЛЫЕ ПОЛЯ,7309007325,"433161, Ульяновская обл., Майнский район, с. Абрамовка, ул. Советская, д. 1 ком. 2", 54.199187, 47.689406,01.11,"Выращивание зерновых (кроме риса), зернобобовых культур и семян масличных культур",https://spark-interfax.ru/ulyanovskaya-oblast-mainski-raion/ooo-teplye-polya-inn-7309007325-ogrn-1187325006604-69db8f535aff63e9e0531b9aa8c000d6
"ОБЩЕСТВО С ОГРАНИЧЕННОЙ ОТВЕТСТВЕННОСТЬЮ ""ЗАПРУДНОЕ""",ООО ЗАПРУДНОЕ,7302031110,"433543, Ульяновская обл., Мелекесский район, с. Тинарка, ул. Озерная, д. 13 офис 2", 54.496145, 49.599998,01.11,"Выращивание зерновых (кроме риса), зернобобовых культур и семян масличных культур",https://spark-interfax.ru/ulyanovskaya-oblast-melekesski-raion/ooo-zaprudnoe-inn-7302031110-ogrn-1057302046834-0a63be9c547749ddb06ee9985d61244c
"ОБЩЕСТВО С ОГРАНИЧЕННОЙ ОТВЕТСТВЕННОСТЬЮ ""АГРОФИРМА ЛАИШЕВСКАЯ""",ООО АГРОФИРМА ЛАИШЕВСКАЯ,7325136984,"433306, Ульяновская обл., г. Ульяновск, с. Лаишевка, ул. Набережная, д. 11", 54.385261, 48.283324,01.13,"Выращивание овощей, бахчевых, корнеплодных и клубнеплодных культур, грибов и трюфелей",https://spark-interfax.ru/ulyanovskaya-oblast-ulyanovsk/ooo-agrofirma-laishevskaya-inn-7325136984-ogrn-1157325003439-6b33f2ad51194f7e84595f05af61474a
"ОБЩЕСТВО С ОГРАНИЧЕННОЙ ОТВЕТСТВЕННОСТЬЮ ""АГРОКОНЦЕПТ-ВОЛГА""",ООО АГРОКОНЦЕПТ - ВОЛГА,7310104154,"433000, Ульяновская обл, м.р-н Новомалыклинский, с.п. Среднеякушкинское, тер. автодороги Казань-Буинск-Ульяновск, тракт Среднеякушкинский, зд. 1", 54.205066, 49.930843,01.1,Выращивание однолетних культур,https://spark-interfax.ru/ulyanovskaya-oblast-novomalyklinski-raion/ooo-agrokontsept-volga-inn-7310104154-ogrn-1087310000238-990e7fea06f34981be5443218ed1f5b5
"ОБЩЕСТВО С ОГРАНИЧЕННОЙ ОТВЕТСТВЕННОСТЬЮ ""ЧЕБОТАЕВКА""",ООО ЧЕБОТАЕВКА,7319004066,"433261, Ульяновская обл., Сурский район, с. Чеботаевка, ул. Центральная, д. 10", 54.532225, 47.203356,01.11,"Выращивание зерновых (кроме риса), зернобобовых культур и семян масличных культур",https://spark-interfax.ru/ulyanovskaya-oblast-surski-raion/ooo-chebotaevka-inn-7319004066-ogrn-1037300320639-3a45e177648d4f41ad1a214522e62c3a
"ОБЩЕСТВО С ОГРАНИЧЕННОЙ ОТВЕТСТВЕННОСТЬЮ ""ХМЕЛЕВСКОЕ""",ООО ХМЕЛЕВСКОЕ,7310009430,"433522, Ульяновская обл., Мелекесский район, с. Лесная Хмелевка", 54.519004, 49.666554,01.11,"Выращивание зерновых (кроме риса), зернобобовых культур и семян масличных культур",https://spark-interfax.ru/ulyanovskaya-oblast-melekesski-raion/ooo-khmelevskoe-inn-7310009430-ogrn-1057310002683-57fa10c08b19421bada3beb13d6bc64f
"ОБЩЕСТВО С ОГРАНИЧЕННОЙ ОТВЕТСТВЕННОСТЬЮ ""ФЕРМЕР - 05""",ООО ФЕРМЕР - 05,7309902367,"433145, Ульяновская обл., Майнский район, с. Подлесное, ул. Центральная, д. 2", 54.316888, 47.610813,01.11.1,Выращивание зерновых культур,https://spark-interfax.ru/ulyanovskaya-oblast-mainski-raion/ooo-fermer-inn-7309902367-ogrn-1057309012640-7729d6c293944db3a1e51fea21b7475c
"КРЕСТЬЯНСКОЕ (ФЕРМЕРСКОЕ) ХОЗЯЙСТВО "" ДУБЕНКИ """,КРЕСТЬЯНСКОЕ (ФЕРМЕРСКОЕ) ХОЗЯЙСТВО ДУБЕНКИ,1027300768879,"433141, Ульяновская обл., Майнский район, с. Старые Маклауши", 54.457568, 47.459474,01.11.1,Выращивание зерновых культур,https://spark-interfax.ru/ulyanovskaya-oblast-mainski-raion/kfkh-dubenki-inn-7309001919-ogrn-1027300768879-6906d9a28a57226ae0531b9aa8c04bb6
"ОБЩЕСТВО С ОГРАНИЧЕННОЙ ОТВЕТСТВЕННОСТЬЮ ""САНТЕРРА-АГРО""",ООО САНТЕРРА-АГРО,7310104620,"433452, Ульяновская обл, м.р-н Старомайнский, с.п. Кандалинское, с Старое Рождествено, ул Советская, зд. 38", 54.583365, 49.520580,01.11.1,Выращивание зерновых культур,https://spark-interfax.ru/ulyanovskaya-oblast-staromainski-raion/ooo-santerra-agro-inn-7310104620-ogrn-1087310000711-7ee02c4668334272b38e87c587587aac
"ОБЩЕСТВО С ОГРАНИЧЕННОЙ ОТВЕТСТВЕННОСТЬЮ ""КОЛЕСНИКОФФ ГРУПП""",ООО КОЛЕСНИКОФФ ГРУПП,7300012458,"432071, Ульяновская обл, г.о. город Ульяновск, г Ульяновск, ул Островского, д. 60, помещ. 23", 54.332351, 48.393956,86.90.3,Деятельность массажных салонов,https://spark-interfax.ru/ulyanovskaya-oblast-ulyanovsk/ooo-kolesnikoff-grupp-inn-7300012458-ogrn-1227300016173-ef8595ca777266c3e053249aa8c0467b
"ФОНД ""ГАРАНТИЙНЫЙ ФОНД УЛЬЯНОВСКОЙ ОБЛАСТИ""",ФОНД ГФУО,1097300000203,"432072, Ульяновская обл., г. Ульяновск, проезд Максимова, д. 4 этаж / пом. 5/9", 54.345845, 48.576495,64.99,"Предоставление прочих финансовых услуг, кроме услуг по страхованию и пенсионному обеспечению, не включенных в другие группировки",https://spark-interfax.ru/ulyanovskaya-oblast-ulyanovsk/fond-gfuo-inn-7325088025-ogrn-1097300000203-6906d9a2a2b4226ae0531b9aa8c04bb6
"ОБЛАСТНОЕ ГОСУДАРСТВЕННОЕ БЮДЖЕТНОЕ УЧРЕЖДЕНИЕ СОЦИАЛЬНОГО ОБСЛУЖИВАНИЯ ""ДОМ ДОБРА И МИЛОСЕРДИЯ ДЛЯ ДЕТЕЙ И МОЛОДЫХ ИНВАЛИДОВ ""РОДНИК""",ОГБУСО ДОМ ДОБРА И МИЛОСЕРДИЯ РОДНИК,1027301057178,"433319, Ульяновская обл., Ульяновский район, с. Максимовка, ул. Максима Горького, владение 1А", 54.495053, 48.281900,87.90,Деятельность по уходу с обеспечением проживания прочая,https://spark-interfax.ru/ulyanovskaya-oblast-ulyanovski-raion/gbu-dom-dobra-i-miloserdiya-rodnik-inn-7321020259-ogrn-1027301057178-6906d9a2c220226ae0531b9aa8c04bb6
"ФЕДЕРАЛЬНОЕ ГОСУДАРСТВЕННОЕ БЮДЖЕТНОЕ УЧРЕЖДЕНИЕ ""НАЦИОНАЛЬНЫЙ ПАРК ""СЕНГИЛЕЕВСКИЕ ГОРЫ""",ФГБУ НАЦИОНАЛЬНЫЙ ПАРК СЕНГИЛЕЕВСКИЕ ГОРЫ,1187325015514,"433380, Ульяновская обл., Сенгилеевский район, г. Сенгилей, ул. Садовая, д. 1А", 53.960552, 48.787812,91.04.3,Деятельность национальных парков,https://spark-interfax.ru/ulyanovskaya-oblast-sengileevski-raion/fgbu-natsionalny-park-sengileevskie-gory-inn-7321005860-ogrn-1187325015514-75f58054d9be2d5fe0531b9aa8c06ccd
"ФЕДЕРАЛЬНОЕ ГОСУДАРСТВЕННОЕ БЮДЖЕТНОЕ УЧРЕЖДЕНИЕ ""ФЕДЕРАЛЬНЫЙ НАУЧНО-КЛИНИЧЕСКИЙ ЦЕНТР МЕДИЦИНСКОЙ РАДИОЛОГИИ И ОНКОЛОГИИ"" ФЕДЕРАЛЬНОГО МЕДИКО-БИОЛОГИЧЕСКОГО АГЕНТСТВА",ФГБУ ФНКЦРИО ФМБА РОССИИ,1187325014117,"433507, Ульяновская обл., г. Димитровград, ул. Курчатова, д. 5В", 54.234876, 49.546236,86.10,Деятельность больничных организаций,https://spark-interfax.ru/ulyanovskaya-oblast-dimitrovgrad/fgbu-fgbu-fnktsrio-fmba-rossii-inn-7329028362-ogrn-1187325014117-73352137f5200975e0531b9aa8c06631
"АВТОНОМНАЯ НЕКОММЕРЧЕСКАЯ ОРГАНИЗАЦИЯ ""ЦЕНТР КОМПЕТЕНЦИЙ РАЗВИТИЯ ПРОМЫШЛЕННОСТИ""",АНО ЦКРП,1187325016757,"432030, Ульяновская обл, г.о. город Ульяновск, г Ульяновск, ул Юности, д. 2, стр. 3, офис 32", 54.356378, 48.361105,70.22,Консультирование по вопросам коммерческой деятельности и управления,https://spark-interfax.ru/ulyanovskaya-oblast-ulyanovsk/ano-tskrp-inn-7328099890-ogrn-1187325016757-770f2308112f4948e0531b9aa8c0aaf0
"ОБЩЕСТВО С ОГРАНИЧЕННОЙ ОТВЕТСТВЕННОСТЬЮ ""РАДУГА""",ООО РАДУГА,7325103298,"432026, Ульяновская обл, г.о. город Ульяновск, г Ульяновск, ул Репина, д. 8, помещ. 1/2", 54.350287, 48.352218,88.91,Предоставление услуг по дневному уходу за детьми,https://spark-interfax.ru/ulyanovskaya-oblast-ulyanovsk/ooo-raduga-inn-7325103298-ogrn-1117325001859-ce4fbcc04c1a441c97a30ab1ba30d185
"ОБЩЕСТВО С ОГРАНИЧЕННОЙ ОТВЕТСТВЕННОСТЬЮ ""КАТАР""",ООО КАТАР,7300021614,"433741, Ульяновская обл, м.р-н Барышский, с.п. Поливановское, с Акшуат, ул Колхозная, д. 21, помещ. 1", 53.675184, 47.434898,45.31,"Торговля оптовая автомобильными деталями, узлами и принадлежностями",https://spark-interfax.ru/ulyanovskaya-oblast-baryshski-raion/ooo-katar-inn-7300021614-ogrn-1237300007933-00061078981e1ba1e063259aa8c0b5db
"ФЕДЕРАЛЬНОЕ ГОСУДАРСТВЕННОЕ БЮДЖЕТНОЕ ОБРАЗОВАТЕЛЬНОЕ УЧРЕЖДЕНИЕ ВЫСШЕГО ОБРАЗОВАНИЯ ""УЛЬЯНОВСКИЙ ГОСУДАРСТВЕННЫЙ ТЕХНИЧЕСКИЙ УНИВЕРСИТЕТ""","УЛГТУ, УЛЬЯНОВСКИЙ ГОСУДАРСТВЕННЫЙ ТЕХНИЧЕСКИЙ УНИВЕРСИТЕТ",1027301160226,"432027, Ульяновская обл., г. Ульяновск, ул. Северный Венец, д. 32", 54.351475, 48.389599,85.22,Образование высшее,https://spark-interfax.ru/ulyanovskaya-oblast-ulyanovsk/fgbu-ulgtu-ulyanovski-gosudarstvenny-tekhnicheski-universitet-inn-7325000052-ogrn-1027301160226-6906d9a2bccd226ae0531b9aa8c04bb6
"ОБЩЕСТВО С ОГРАНИЧЕННОЙ ОТВЕТСТВЕННОСТЬЮ ""АРТ-ПРОФИ""",ООО АРТ-ПРОФИ,7325114564,"432071, Ульяновская обл., г. Ульяновск, пер. Буинский, д. 5 офис 1", 54.336846, 48.389914,73.11,Деятельность рекламных агентств,https://spark-interfax.ru/ulyanovskaya-oblast-ulyanovsk/ooo-art-profi-inn-7325114564-ogrn-1127325004575-babb3c0c2c8145b09315f06968262d96
"ОБЩЕСТВО С ОГРАНИЧЕННОЙ ОТВЕТСТВЕННОСТЬЮ ""ИСКРА""",ООО ИСКРА,7325175060,"432026, Ульяновская обл, г.о. город Ульяновск, г Ульяновск, ул Скочилова, зд. 2А, помещ. 151", 54.350291, 48.340054,93.11,Деятельность спортивных объектов,https://spark-interfax.ru/ulyanovskaya-oblast-ulyanovsk/ooo-iskra-inn-7325175060-ogrn-1217300011334-cd6afea62c2b6f6be053219aa8c0b8da
"АВТОНОМНАЯ НЕКОММЕРЧЕСКАЯ ОРГАНИЗАЦИЯ ПО РАЗВИТИЮ ДОБРОВОЛЬЧЕСТВА И БЛАГОТВОРИТЕЛЬНОСТИ ""СЧАСТЛИВЫЙ РЕГИОН""",АНО СЧАСТЛИВЫЙ РЕГИОН,1197325005635,"432017, Ульяновская обл., г. Ульяновск, ул. Спасская, д. 8", 54.313689, 48.401181,70.21,Деятельность в сфере связей с общественностью,https://spark-interfax.ru/ulyanovskaya-oblast-ulyanovsk/ano-schastlivy-region-inn-7325164893-ogrn-1197325005635-84d4481c1e95401ce0531b9aa8c03a95
"ОБЩЕСТВО С ОГРАНИЧЕННОЙ ОТВЕТСТВЕННОСТЬЮ ""ЭКСПЕРТ-ЭНЕРГОСТРОЙ""",ООО ЭКСПЕРТ-ЭНЕРГОСТРОЙ,7325176070,"432027, Ульяновская обл, г.о. город Ульяновск, г Ульяновск, ул Радищева, д. 140, к. 1, ком. 16", 54.340284, 48.397623,41.20,Строительство жилых и нежилых зданий,https://spark-interfax.ru/ulyanovskaya-oblast-ulyanovsk/ooo-ekspert-energostroi-inn-7325176070-ogrn-1227300000950-d6c4d83fe38341cde053259aa8c0227f
МИНИСТЕРСТВО СОЦИАЛЬНОГО РАЗВИТИЯ УЛЬЯНОВСКОЙ ОБЛАСТИ,МИНСОЦРАЗВИТИЯ УЛЬЯНОВСКОЙ ОБЛАСТИ,1197325000058,"432071, Ульяновская обл., г. Ульяновск, ул. Федерации, д. 60", 54.328653, 48.397160,84.11.21,"Деятельность органов государственной власти субъектов Российской Федерации (республик, краев, областей), кроме судебной власти, представительств исполнительных органов государственной власти субъектов Российской Федерации при Президенте Российской Федерации",https://spark-interfax.ru/ulyanovskaya-oblast-ulyanovsk/gku-minsotsrazvitiya-ulyanovskoi-oblasti-inn-7325163762-ogrn-1197325000058-7f4f20471e288b76e0531b9aa8c01fe2
"СЕЛЬСКОХОЗЯЙСТВЕННЫЙ ПОТРЕБИТЕЛЬСКИЙ СБЫТОВОЙ КООПЕРАТИВ ""КОЛОСОК""",СПСК КОЛОСОК,1177325014723,"433951, Ульяновская обл., Старокулаткинский район, с. Чувашская Кулатка, ул. Садовая, д. 18", 52.697184, 47.729899,46.33,"Торговля оптовая молочными продуктами, яйцами и пищевыми маслами и жирами",https://spark-interfax.ru/ulyanovskaya-oblast-starokulatkinski-raion/koop-kolosok-inn-7313011356-ogrn-1177325014723-6906d9a32480226ae0531b9aa8c04bb6
"СЕЛЬСКОХОЗЯЙСТВЕННЫЙ ПЕРЕРАБАТЫВАЮЩИЙ СНАБЖЕНЧЕСКО-СБЫТОВОЙ ПОТРЕБИТЕЛЬСКИЙ КООПЕРАТИВ ""ВОЗРОЖДЕНИЕ""",СПССПК ВОЗРОЖДЕНИЕ,1207300009718,"433648, Ульяновская обл., Цильнинский район, д. Средние Алгаши, ул. Полевая, д. 9", 54.691354, 47.776284,10.51,Производство молока (кроме сырого) и молочной продукции,https://spark-interfax.ru/ulyanovskaya-oblast-tsilninski-raion/koop-vozrozhdenie-inn-7321011600-ogrn-1207300009718-ac6a0945b834230fe053189aa8c0c843
"АКЦИОНЕРНОЕ ОБЩЕСТВО ""КОРПОРАЦИЯ РАЗВИТИЯ УЛЬЯНОВСКОЙ ОБЛАСТИ""",АО КОРПОРАЦИЯ РАЗВИТИЯ УЛЬЯНОВСКОЙ ОБЛАСТИ,7325081245,"432071, Ульяновская обл., г. Ульяновск, ул. Рылеева, д. 41", 54.328673, 48.408577,82.99,"Деятельность по предоставлению прочих вспомогательных услуг для бизнеса, не включенная в другие группировки",https://spark-interfax.ru/ulyanovskaya-oblast-ulyanovsk/ao-korporatsiya-razvitiya-ulyanovskoi-oblasti-inn-7325081245-ogrn-1087325005481-0e50a87284164fabbb4832ca416f7c10
"ОБЩЕСТВО С ОГРАНИЧЕННОЙ ОТВЕТСТВЕННОСТЬЮ ""РЕЗЕРВ""",ООО РЕЗЕРВ,6330086494,"446253, Самарская обл., Безенчукский район, пгт. Безенчук, ул. Советская, д. 95 офис 1", 52.985457, 49.418254,49.42,Предоставление услуг по перевозкам,https://spark-interfax.ru/samarskaya-oblast-bezenchukski-raion/ooo-rezerv-inn-6330086494-ogrn-1196313034576-8675bbeea5b47b3be0531b9aa8c09754
"САМАРСКАЯ РЕГИОНАЛЬНАЯ ОБЩЕСТВЕННАЯ ОРГАНИЗАЦИЯ СОДЕЙСТВИЯ ГАРМОНИЗАЦИИ МЕЖНАЦИОНАЛЬНЫХ ОТНОШЕНИЙ ""АЗЕРБАЙДЖАН""",СРОО СГМО АЗЕРБАЙДЖАН,1146300000197,"443082, Самарская обл., г. Самара, ул. Новоурицкая, д. 28", 53.182515, 50.154357,94.99,"Деятельность прочих общественных организаций и некоммерческих организаций, кроме религиозных и политических организаций",https://spark-interfax.ru/samarskaya-oblast-samara/oo-azerbaidzhan-inn-6311998417-ogrn-1146300000197-6906d95994dc226ae0531b9aa8c04bb6
"ТЕРРИТОРИАЛЬНОЕ ОБЪЕДИНЕНИЕ РАБОТОДАТЕЛЕЙ МУНИЦИПАЛЬНОГО РАЙОНА ХВОРОСТЯНСКИЙ САМАРСКОЙ ОБЛАСТИ ""СОЮЗ РАБОТОДАТЕЛЕЙ""",ТОР СР ХВОРОСТЯНСКОГО РАЙОНА,1186313037680,"445590, Самарская обл., Хворостянский район, с. Хворостянка, пл. Плясункова, д. 1", 52.614011, 48.962556,94.12,Деятельность профессиональных членских организаций,https://spark-interfax.ru/samarskaya-oblast-khvorostyanski-raion/obedinenie-sr-khvorostyanskogo-raiona-inn-6330081810-ogrn-1186313037680-6a685f5a906e468ee0531b9aa8c0c650
"ОБЩЕСТВЕННАЯ ОРГАНИЗАЦИЯ ""САМАРСКАЯ ГОРОДСКАЯ ЕЗИДСКАЯ НАЦИОНАЛЬНО-КУЛЬТУРНАЯ АВТОНОМИЯ ""ШАМС"" (СОЛНЦЕ)",ШАМС (СОЛНЦЕ),1136300002662,"443009, Самарская обл., г. Самара, ул. Воронежская, д. 9", 53.217781, 50.254720,94.99,"Деятельность прочих общественных организаций и некоммерческих организаций, кроме религиозных и политических организаций",https://spark-interfax.ru/samarskaya-oblast-samara/oo-shams-solntse-inn-6319142890-ogrn-1136300002662-6906d9598a7b226ae0531b9aa8c04bb6
"ГОСУДАРСТВЕННОЕ БЮДЖЕТНОЕ УЧРЕЖДЕНИЕ САМАРСКОЙ ОБЛАСТИ ""САМАРСКИЙ ДОМ-ИНТЕРНАТ, В ТОМ ЧИСЛЕ ДЕТСКИЙ, ПРЕДНАЗНАЧЕННЫЙ ДЛЯ ГРАЖДАН, ИМЕЮЩИХ ПСИХИЧЕСКИЕ РАССТРОЙСТВА""","ГБУ СО САМАРСКИЙ ДОМ-ИНТЕРНАТ, В ТОМ ЧИСЛЕ ДЕТСКИЙ",1026301703394,"443016, Самарская обл., г. Самара, ул. Нагорная, д. 15", 53.221473, 50.226328,87.90,Деятельность по уходу с обеспечением проживания прочая,https://spark-interfax.ru/samarskaya-oblast-samara/gbu-samarski-dom-internat-v-tom-chisle-detski-inn-6319040425-ogrn-1026301703394-6906d9584ce4226ae0531b9aa8c04bb6
"ОБЩЕСТВО С ОГРАНИЧЕННОЙ ОТВЕТСТВЕННОСТЬЮ ""ЗДОРОВЬЕ""",ООО ЗДОРОВЬЕ,6367059433,"443520, Самарская обл., Волжский район, с. Сухая Вязовка, ул. Советская, д. 6", 52.880194, 50.219785,93.2,Деятельность в области отдыха и развлечений,https://spark-interfax.ru/samarskaya-oblast-volzhski-raion/ooo-zdorove-inn-6367059433-ogrn-1086367002787-6178895ef9d07e1ce0531b9aa8c027ab
"ОБЩЕСТВО С ОГРАНИЧЕННОЙ ОТВЕТСТВЕННОСТЬЮ ""АИФ В CАМАРЕ""",ООО АИФ В CАМАРЕ,6316123338,"443110, Самарская обл., г. Самара, ул. Осипенко, д. 3 стр. 3 пом. 27", 53.212179, 50.128787,58.13,Издание газет,https://spark-interfax.ru/samarskaya-oblast-samara/ooo-aif-v-camare-inn-6316123338-ogrn-1076316006062-37c2a9124849458193628c15db79393b
"МУНИЦИПАЛЬНОЕ ПРЕДПРИЯТИЕ ГОРОДСКОГО ОКРУГА ТОЛЬЯТТИ ""ТОЛЬЯТТИНСКОЕ ТРОЛЛЕЙБУСНОЕ УПРАВЛЕНИЕ""",МП ТТУ,6320000508,"445045, Самарская обл., г. Тольятти, ул. Громовой, д. 55", 53.489827, 49.511673,49.31,Деятельность сухопутного пассажирского транспорта: перевозки пассажиров в городском и пригородном сообщении,https://spark-interfax.ru/samarskaya-oblast-tolyatti/mup-ttu-inn-6320000508-ogrn-1026302005795-6906d957832c226ae0531b9aa8c04bb6
НОВОКУЙБЫШЕВСКОЕ МУНИЦИПАЛЬНОЕ УНИТАРНОЕ ПАССАЖИРСКОЕ ТРАНСПОРТНОЕ ПРЕДПРИЯТИЕ,НМУ ПТП,6330026858,"446208, Самарская обл., г. Новокуйбышевск, ул. Кирова, д. 8-А", 53.084176, 49.945064,49.31,Деятельность сухопутного пассажирского транспорта: перевозки пассажиров в городском и пригородном сообщении,https://spark-interfax.ru/samarskaya-oblast-novokuibyshevsk/mup-nmu-ptp-inn-6330026858-ogrn-1046301414433-6906d9577baf226ae0531b9aa8c04bb6
"МУНИЦИПАЛЬНОЕ ПРЕДПРИЯТИЕ ГОРОДСКОГО ОКРУГА САМАРА ""ТРАМВАЙНО-ТРОЛЛЕЙБУСНОЕ УПРАВЛЕНИЕ""",МП Г.О. САМАРА ТТУ,6315702029,"443030, Самарская обл., г. Самара, ул. Коммунистическая, д. 8", 53.197337, 50.132950,49.31.23,Регулярные перевозки пассажиров трамваями в городском и пригородном сообщении,https://spark-interfax.ru/samarskaya-oblast-samara/mup-ttu-inn-6315702029-ogrn-1026300966559-6906d95773cb226ae0531b9aa8c04bb6
"АКЦИОНЕРНОЕ ОБЩЕСТВО ""ТОЛЬЯТТИНСКОЕ ПАССАЖИРСКОЕ АВТОТРАНСПОРТНОЕ ПРЕДПРИЯТИЕ №3""",АО ТПАТП №3,6382104070,"445045, Самарская обл, г.о. Тольятти, г Тольятти, ул Громовой, влд. 51", 53.485606, 49.512978,49.31.21,Регулярные перевозки пассажиров автобусами в городском и пригородном сообщении,https://spark-interfax.ru/samarskaya-oblast-tolyatti/ao-tpatp-n-inn-6382104070-ogrn-1246300031845-6906d95774e6226ae0531b9aa8c04bb6
"ОБЩЕСТВО С ОГРАНИЧЕННОЙ ОТВЕТСТВЕННОСТЬЮ ""ЖИГУЛЕВСКОЕ АВТОТРАНСПОРТНОЕ ХОЗЯЙСТВО""",ООО ЖАТХ,6345012103,"445354, Самарская обл., г. Жигулевск, ул. Морквашинская, д. 28", 53.416254, 49.526696,49.31.21,Регулярные перевозки пассажиров автобусами в городском и пригородном сообщении,https://spark-interfax.ru/samarskaya-oblast-zhigulevsk/ooo-zhatkh-inn-6345012103-ogrn-1026303244307-6848d4c4f18b4626b2971f0906b71ae9
"ОБЩЕСТВО С ОГРАНИЧЕННОЙ ОТВЕТСТВЕННОСТЬЮ ""ЖИГУЛЕВСКОЕ АВТОТРАНСПОРТНОЕ ПРЕДПРИЯТИЕ""",ООО ЖАТП,6345011519,"445359, Самарская обл., г. Жигулевск, ул. Морквашинская, д. 28 офис 22", 53.416254, 49.526696,49.31.21,Регулярные перевозки пассажиров автобусами в городском и пригородном сообщении,https://spark-interfax.ru/samarskaya-oblast-zhigulevsk/ooo-zhatp-inn-6345011519-ogrn-1026303243944-7c7fb5c1cafc4f449dc6e751f67fd82b
"ОБЩЕСТВО С ОГРАНИЧЕННОЙ ОТВЕТСТВЕННОСТЬЮ ""САМАРА АВТО ГАЗ""",ООО САМАРА АВТО ГАЗ,6318142216,"443098, Самарская обл., г. Самара, ул. Пугачевская, д. 73А каб. 23", 53.238667, 50.263415,49.31,Деятельность сухопутного пассажирского транспорта: перевозки пассажиров в городском и пригородном сообщении,https://spark-interfax.ru/samarskaya-oblast-samara/ooo-samara-avto-gaz-inn-6318142216-ogrn-1046300793220-c7db85ea24cf443ea74a4e91af4db998
"АКЦИОНЕРНОЕ ОБЩЕСТВО ""КОШЕЛЕВ-БАНК""",АО КОШЕЛЕВ-БАНК,5260059340,"443100, Самарская обл., г. Самара, ул. Маяковского, д. 14", 53.203593, 50.115929,64.19,Денежное посредничество прочее,https://spark-interfax.ru/samarskaya-oblast-samara/ao-koshelev-bank-inn-5260059340-ogrn-1025200001661-357d1dfc810d4597b945301ac6ad2df4
"ЖЕЛЕЗНОДОРОЖНАЯ РАЙОННАЯ ОБЩЕСТВЕННАЯ ОРГАНИЗАЦИЯ САМАРСКОЙ ОБЛАСТНОЙ ОРГАНИЗАЦИИ ОБЩЕРОССИЙСКОЙ ОБЩЕСТВЕННОЙ ОРГАНИЗАЦИИ ""ВСЕРОССИЙСКОЙ ОБЩЕСТВО ИНВАЛИДОВ""",ЖЕЛЕЗНОДОРОЖНАЯ РАЙОННАЯ ОБЩЕСТВЕННАЯ ОРГАНИЗАЦИЯ САМАРСКОЙ ОБЛАСТНОЙ ОРГАНИЗАЦИИ ОБЩЕРОССИЙСКОЙ ОБЩЕСТВЕННОЙ ОРГАНИЗАЦИИ ВСЕРОССИЙСКОЙ ОБЩЕСТВО ИНВАЛИДОВ,1026300005445,"443069, Самарская обл., г. Самара, ул. Дзержинского, д. 20", 53.192593, 50.174618,94.99,"Деятельность прочих общественных организаций и некоммерческих организаций, кроме религиозных и политических организаций",https://spark-interfax.ru/samarskaya-oblast-samara/oo-vserossiskoi-obshchestvo-invalidov-inn-6311031316-ogrn-1026300005445-6906d9582694226ae0531b9aa8c04bb6
"САМАРСКАЯ РЕГИОНАЛЬНАЯ ОБЩЕСТВЕННАЯ ОРГАНИЗАЦИЯ РАЗВИТИЯ ЛАГЕРНОГО ТУРИЗМА ""ЯРЧЕ""",СРОО РЛТ ЯРЧЕ,1206300060537,"443068, Самарская обл., г. Самара, ул. Ново-Садовая, д. 139 ком. 23", 53.213915, 50.145696,94.99,"Деятельность прочих общественных организаций и некоммерческих организаций, кроме религиозных и политических организаций",https://spark-interfax.ru/samarskaya-oblast-samara/oo-yarche-inn-6316268541-ogrn-1206300060537-b277030b1e472f87e053219aa8c071b3
"ФЕДЕРАЛЬНОЕ ГОСУДАРСТВЕННОЕ БЮДЖЕТНОЕ УЧРЕЖДЕНИЕ ""ЖИГУЛЕВСКИЙ ГОСУДАРСТВЕННЫЙ ПРИРОДНЫЙ БИОСФЕРНЫЙ ЗАПОВЕДНИК ИМЕНИ И.И. СПРЫГИНА""",ФГБУ ЖИГУЛЕВСКИЙ ГОСУДАРСТВЕННЫЙ ЗАПОВЕДНИК,1036301730365,"445362, Самарская обл., г. Жигулевск, с. Бахилова Поляна, ул. Жигулевская, д. 1", 53.433100, 49.667339,91.04,"Деятельность ботанических садов, зоопарков, государственных природных заповедников и национальных парков",https://spark-interfax.ru/samarskaya-oblast-zhigulevsk/fgbu-zhigulevski-gosudarstvenny-zapovednik-inn-6345004085-ogrn-1036301730365-6906d9584cef226ae0531b9aa8c04bb6
"ЧАСТНОЕ УЧРЕЖДЕНИЕ ОБРАЗОВАТЕЛЬНАЯ ОРГАНИЗАЦИЯ ВЫСШЕГО ОБРАЗОВАНИЯ ""МЕДИЦИНСКИЙ УНИВЕРСИТЕТ ""РЕАВИЗ""",МЕДИЦИНСКИЙ УНИВЕРСИТЕТ РЕАВИЗ,6317006620,"443001, Самарская обл., г. Самара, ул. Чапаевская, д. 227", 53.201499, 50.106092,85.22,Образование высшее,https://spark-interfax.ru/samarskaya-oblast-samara/uch-reaviz-inn-6317006620-ogrn-1026301420716-6906d95774cf226ae0531b9aa8c04bb6
"ОБЩЕСТВО С ОГРАНИЧЕННОЙ ОТВЕТСТВЕННОСТЬЮ ""КОШКИНСКОЕ ПАССАЖИРСКОЕ АВТОТРАНСПОРТНОЕ ОБЪЕДИНЕНИЕ""",ООО КОШКИНСКОЕ ПАТО,6381011497,"446810, Самарская обл., Кошкинский район, ст. Погрузная, ул. Первомайская, д. 2А", 54.225240, 50.438834,49.3,Деятельность прочего сухопутного пассажирского транспорта,https://spark-interfax.ru/samarskaya-oblast-koshkinski-raion/ooo-koshkinskoe-pato-inn-6381011497-ogrn-1076381000563-61e5f30c11f24b4c8ff60908ce9184dd
"ОБЩЕСТВО С ОГРАНИЧЕННОЙ ОТВЕТСТВЕННОСТЬЮ ""НПП АГРОСАД""",ООО НПП АГРОСАД,6350022121,"446406, Самарская обл, м.р-н Кинельский, с.п. Бобровка, с Бобровка, ул Восточная, д. 5", 53.153186, 50.659811,01.24,Выращивание семечковых и косточковых культур,https://spark-interfax.ru/samarskaya-oblast-kinelski-raion/ooo-npp-agrosad-inn-6350022121-ogrn-1156313004341-ab035b69a5424bcea30cb625af8aba92
"ОБЩЕСТВО С ОГРАНИЧЕННОЙ ОТВЕТСТВЕННОСТЬЮ ""ФЕСТИВАЛЬ ПРАЗДНИКА""",ООО ФЕСТИВАЛЬ ПРАЗДНИКА,6311132890,"443009, Самарская обл, г.о. Самара, вн.р-н Промышленный, г Самара, ул Победы, д. 106, ком. 24", 53.218162, 50.259547,49.31,Деятельность сухопутного пассажирского транспорта: перевозки пассажиров в городском и пригородном сообщении,https://spark-interfax.ru/samarskaya-oblast-samara/ooo-festival-prazdnika-inn-6311132890-ogrn-1126311000694-fb66364fd67341d3a7dbe28d18ee1803
"ОБЩЕСТВО С ОГРАНИЧЕННОЙ ОТВЕТСТВЕННОСТЬЮ ""РУС - АВТО""",ООО РУС - АВТО,6330031865,"446100, Самарская обл., г. Чапаевск, ул. А.Толстого, д. 78", 52.938794, 49.703259,49.31.2,Регулярные перевозки пассажиров прочим сухопутным транспортом в городском и пригородном сообщении,https://spark-interfax.ru/samarskaya-oblast-chapaevsk/ooo-rus-avto-inn-6330031865-ogrn-1066330012540-e4b6233d2a924863b1ac3490a567042f
"АВТОНОМНАЯ НЕКОММЕРЧЕСКАЯ ОРГАНИЗАЦИЯ ""ИНСТИТУТ РЕГИОНАЛЬНОГО РАЗВИТИЯ""",АНО ИНСТИТУТ РЕГИОНАЛЬНОГО РАЗВИТИЯ,1196313005646,"443010, Самарская обл, г.о. Самара, вн.р-н Ленинский, г Самара, ул Красноармейская, д. 1, этаж/офис 7/1-21", 53.194777, 50.090623,84.13,Регулирование и содействие эффективному ведению экономической деятельности предприятий,https://spark-interfax.ru/samarskaya-oblast-samara/ano-institut-regionalnogo-razvitiya-inn-6316252090-ogrn-1196313005646-80f4c52da25f1805e0531b9aa8c0ac55
"ОБЩЕСТВО С ОГРАНИЧЕННОЙ ОТВЕТСТВЕННОСТЬЮ ""ВМ""",ООО ВМ,5836662736,"440008, Пензенская обл., г. Пенза, ул. Горная, д. 3А", 53.193971, 44.988304,46.31,Торговля оптовая фруктами и овощами,https://spark-interfax.ru/penzenskaya-oblast-penza/ooo-vm-inn-5836662736-ogrn-1145836003664-14a1287088904e3aa46e017bbcacd1f8
"АВТОНОМНАЯ НЕКОММЕРЧЕСКАЯ ОРГАНИЗАЦИЯ ВЫСШЕГО ОБРАЗОВАНИЯ ""ПОВОЛЖСКАЯ АКАДЕМИЯ ОБРАЗОВАНИЯ И ИСКУССТВ ИМЕНИ СВЯТИТЕЛЯ АЛЕКСИЯ, МИТРОПОЛИТА МОСКОВСКОГО""",ПОВОЛЖСКАЯ АКАДЕМИЯ СВЯТИТЕЛЯ АЛЕКСИЯ,1136300003201,"445028, Самарская обл., г. Тольятти, ул. Революционная, д. 74", 53.508966, 49.269167,85.22,Образование высшее,https://spark-interfax.ru/samarskaya-oblast-tolyatti/ano-povolzhskaya-akademiya-svyatitelya-aleksiya-inn-6320266466-ogrn-1136300003201-6906d957cd5c226ae0531b9aa8c04bb6
"БЛАГОТВОРИТЕЛЬНЫЙ ФОНД ""ИСТОЧНИК ВЕРЫ""",БФ ИСТОЧНИК ВЕРЫ,1186313003447,"443041, Самарская обл., г. Самара, ул. Арцыбушевская, д. 42 кв. 72", 53.193014, 50.115072,64.99,"Предоставление прочих финансовых услуг, кроме услуг по страхованию и пенсионному обеспечению, не включенных в другие группировки",https://spark-interfax.ru/samarskaya-oblast-samara/bf-istochnik-very-inn-6315021943-ogrn-1186313003447-6906d95a1b1f226ae0531b9aa8c04bb6
"БЛАГОТВОРИТЕЛЬНОЕ МЕДИЦИНСКОЕ ЧАСТНОЕ УЧРЕЖДЕНИЕ ""ХОСПИС ""ВКУС ЖИЗНИ""",ХОСПИС ВКУС ЖИЗНИ,1236300003114,"443020, Самарская обл, г.о. Самара, вн.р-н Самарский, г Самара, ул Самарская, д. 8, помещ. 2", 53.181399, 50.096679,87.90,Деятельность по уходу с обеспечением проживания прочая,https://spark-interfax.ru/samarskaya-oblast-samara/bu-vkus-zhizni-inn-6317162587-ogrn-1236300003114-f478edc9a1ba5f74e053249aa8c0cf0f
"ОБЩЕСТВО С ОГРАНИЧЕННОЙ ОТВЕТСТВЕННОСТЬЮ ""ЧАПАЕВСКТРАНССЕРВИС""",ООО ЧАПАЕВСКТРАНССЕРВИС,6330077690,"446103, Самарская обл., г. Чапаевск, ул. Макаренко, д. 16 ком. 29", 52.951648, 49.699933,49.31.21,Регулярные перевозки пассажиров автобусами в городском и пригородном сообщении,https://spark-interfax.ru/samarskaya-oblast-chapaevsk/ooo-chapaevsktransservis-inn-6330077690-ogrn-1176313059120-6906d957b59a226ae0531b9aa8c04bb6
"ФЕДЕРАЛЬНОЕ ГОСУДАРСТВЕННОЕ БЮДЖЕТНОЕ УЧРЕЖДЕНИЕ ПРОФЕССИОНАЛЬНАЯ ОБРАЗОВАТЕЛЬНАЯ ОРГАНИЗАЦИЯ ""ГОСУДАРСТВЕННОЕ УЧИЛИЩЕ (ТЕХНИКУМ) ОЛИМПИЙСКОГО РЕЗЕРВА Г.САМАРА""",ФГБУ ПОО ГУОР Г.САМАРА,1026301170884,"443068, Самарская обл., г. Самара, ул. Мичурина, д. 118А", 53.212603, 50.158074,85.21,Образование профессиональное среднее,https://spark-interfax.ru/samarskaya-oblast-samara/fgbu-fgbu-poo-guor-g-samara-inn-6316031479-ogrn-1026301170884-6906d95864da226ae0531b9aa8c04bb6
"ФЕДЕРАЛЬНОЕ ГОСУДАРСТВЕННОЕ БЮДЖЕТНОЕ ОБРАЗОВАТЕЛЬНОЕ УЧРЕЖДЕНИЕ ВЫСШЕГО ОБРАЗОВАНИЯ ""САМАРСКИЙ ГОСУДАРСТВЕННЫЙ МЕДИЦИНСКИЙ УНИВЕРСИТЕТ"" МИНИСТЕРСТВА ЗДРАВООХРАНЕНИЯ РОССИЙСКОЙ ФЕДЕРАЦИИ",ФГБОУ ВО САМГМУ МИНЗДРАВА РОССИИ,1026301426348,"443099, Самарская обл., г. Самара, ул. Чапаевская, д. 89", 53.187337, 50.094160,85.22,Образование высшее,https://spark-interfax.ru/samarskaya-oblast-samara/fgbu-fgbou-vo-samgmu-minzdrava-rossii-inn-6317002858-ogrn-1026301426348-6906d9583b75226ae0531b9aa8c04bb6
"ОБЩЕСТВО С ОГРАНИЧЕННОЙ ОТВЕТСТВЕННОСТЬЮ ""МОЙ ДОМ""",ООО МОЙ ДОМ,6316256056,"461070, Оренбургская обл, м.р-н Курманаевский, с.п. Андреевский сельсовет, с Ферапонтовка, ул Зеленая, д. 1А", 52.232489, 51.906266,01.11,"Выращивание зерновых (кроме риса), зернобобовых культур и семян масличных культур",https://spark-interfax.ru/orenburgskaya-oblast-kurmanaevski-raion/ooo-moi-dom-inn-6316256056-ogrn-1196313043981-8935d05c2aa2579fe0531b9aa8c0dd06
"ОБЩЕСТВО С ОГРАНИЧЕННОЙ ОТВЕТСТВЕННОСТЬЮ ""УК ВОСТОЧНАЯ""",ООО УК ВОСТОЧНАЯ,6324109961,"445027, Самарская обл, г.о. Тольятти, г Тольятти, пр-кт Степана Разина, д. 58, офис 1", 53.509020, 49.289454,68.32,Управление недвижимым имуществом за вознаграждение или на договорной основе,https://spark-interfax.ru/samarskaya-oblast-tolyatti/ooo-uk-vostochnaya-inn-6324109961-ogrn-1206300021421-a1f6885f957d2a4ee053189aa8c0f2a9
"ОБЩЕСТВО С ОГРАНИЧЕННОЙ ОТВЕТСТВЕННОСТЬЮ ""УПРАВЛЯЮЩАЯ КОМПАНИЯ № 2 ЖИЛИЩНО-КОММУНАЛЬНОГО ХОЗЯЙСТВА""",ООО УК № 2 ЖКХ,6321165830,"445004, Самарская обл., г. Тольятти, ул. Комсомольская, д. 88 офис / ком. 103/40Б", 53.513881, 49.450773,68.32.1,Управление эксплуатацией жилого фонда за вознаграждение или на договорной основе,https://spark-interfax.ru/samarskaya-oblast-tolyatti/ooo-uk-n-zhkkh-inn-6321165830-ogrn-1066320068924-7b8f514d00d4400393efe5b8c1ab07d2
"ОБЩЕСТВО С ОГРАНИЧЕННОЙ ОТВЕТСТВЕННОСТЬЮ ""ЧИСТАЯ ПЛАНЕТА""",ООО ЧИСТАЯ ПЛАНЕТА,6324069130,"445046, Самарская обл, г.о. Тольятти, г Тольятти, ул Лизы Чайкиной, влд. 47А, ком. 1", 53.483389, 49.466488,68.32,Управление недвижимым имуществом за вознаграждение или на договорной основе,https://spark-interfax.ru/samarskaya-oblast-tolyatti/ooo-chistaya-planeta-inn-6324069130-ogrn-1166313063146-658d9052a1e84266b490f24220e069f6
"ОБЩЕСТВО С ОГРАНИЧЕННОЙ ОТВЕТСТВЕННОСТЬЮ ""АВТОЗАВОДСКИЙ""",ООО АВТОЗАВОДСКИЙ,6320047746,"445036, Самарская обл., г. Тольятти, бульвар Курчатова, д. 11 офис 109", 53.532488, 49.294251,68.32.1,Управление эксплуатацией жилого фонда за вознаграждение или на договорной основе,https://spark-interfax.ru/samarskaya-oblast-tolyatti/ooo-avtozavodski-inn-6320047746-ogrn-1206300024116-a3102a297569663ae053189aa8c0b190
"МУНИЦИПАЛЬНОЕ БЮДЖЕТНОЕ ОБЩЕОБРАЗОВАТЕЛЬНОЕ УЧРЕЖДЕНИЕ ""ШКОЛА № 28 ИМЕНИ ГЕРОЯ СОВЕТСКОГО СОЮЗА Д.М.КАРБЫШЕВА"" ГОРОДСКОГО ОКРУГА САМАРА",МБОУ ШКОЛА № 28 Г.О. САМАРА,1026301513974,"443074, Самарская обл., г. Самара, ул. Мориса Тореза, д. 115", 53.195888, 50.203011,85.14,Образование среднее общее,https://spark-interfax.ru/samarskaya-oblast-samara/mbu-shkola-n-g-o-samara-inn-6318108470-ogrn-1026301513974-6906d9586659226ae0531b9aa8c04bb6
"ОБЩЕСТВО С ОГРАНИЧЕННОЙ ОТВЕТСТВЕННОСТЬЮ ""ТХЕООЛ""",ООО ТХЕООЛ,6319258510,"443087, Самарская обл, г.о. Самара, вн.р-н Промышленный, г Самара, ул Стара Загора, д. 159В, кв. 13", 53.239914, 50.229403,62.01,Разработка компьютерного программного обеспечения,https://spark-interfax.ru/samarskaya-oblast-samara/ooo-tkheool-inn-6319258510-ogrn-1226300036841-e745482f5dc0105be053259aa8c007cc
"ФЕДЕРАЛЬНОЕ ГОСУДАРСТВЕННОЕ БЮДЖЕТНОЕ ОБРАЗОВАТЕЛЬНОЕ УЧРЕЖДЕНИЕ ВЫСШЕГО ОБРАЗОВАНИЯ ""САМАРСКИЙ ГОСУДАРСТВЕННЫЙ ТЕХНИЧЕСКИЙ УНИВЕРСИТЕТ""","ФГБОУ ВО САМАРСКИЙ ГОСУДАРСТВЕННЫЙ ТЕХНИЧЕСКИЙ УНИВЕРСИТЕТ, ФГБОУ ВО САМГТУ, САМГТУ, САМАРСКИЙ ГОСУДАРСТВЕННЫЙ ТЕХНИЧЕСКИЙ УНИВЕРСИТЕТ, САМАРСКИЙ ПОЛИТЕХ",1026301167683,"443100, Самарская обл., г. Самара, ул. Молодогвардейская, д. 244", 53.209181, 50.125292,85.22,Образование высшее,https://spark-interfax.ru/samarskaya-oblast-samara/fgbu-samarski-gosudarstvenny-tekhnicheski-universitet-fgbou-vo-samgtu-samgtu-samarski-gosudarstvenny-tekhnicheski-universitet-samarski-pol-6906d9584c3f226ae0531b9aa8c04bb6
"АВТОНОМНАЯ НЕКОММЕРЧЕСКАЯ ОРГАНИЗАЦИЯ ""ПРОСВЕТИТЕЛЬСКИЙ ЦЕНТР ""ПЕРЕСВЕТ""",АНО ПЦ ПЕРЕСВЕТ,6319088064,"443086, Самарская обл., г. Самара, ул. Ерошевского, д. 3 офис 301", 53.216703, 50.158122,58.14,Издание журналов и периодических изданий,https://spark-interfax.ru/samarskaya-oblast-samara/ano-pts-peresvet-inn-6319088064-ogrn-1026301717188-6906d957e7f3226ae0531b9aa8c04bb6
"ОБЩЕСТВО С ОГРАНИЧЕННОЙ ОТВЕТСТВЕННОСТЬЮ ""МЕДИА - ТОЛЬЯТТИ""",ООО МЕДИА - ТОЛЬЯТТИ,6323069427,"445051, Самарская обл., г. Тольятти, бульвар Приморский, д. 2Б офис 2", 53.505425, 49.296370,58.13,Издание газет,https://spark-interfax.ru/samarskaya-oblast-tolyatti/ooo-media-tolyatti-inn-6323069427-ogrn-1036300996775-b093a5add15240328d5ae554f1df2770
"ФЕДЕРАЛЬНОЕ ГОСУДАРСТВЕННОЕ АВТОНОМНОЕ ОБРАЗОВАТЕЛЬНОЕ УЧРЕЖДЕНИЕ ВЫСШЕГО ОБРАЗОВАНИЯ ""САМАРСКИЙ ГОСУДАРСТВЕННЫЙ ЭКОНОМИЧЕСКИЙ УНИВЕРСИТЕТ""","СГЭУ, ФГАОУ ВО СГЭУ, ФГАОУ ВО САМАРСКИЙ ГОСУДАРСТВЕННЫЙ ЭКОНОМИЧЕСКИЙ УНИВЕРСИТЕТ, САМАРСКИЙ ГОСУДАРСТВЕННЫЙ ЭКОНОМИЧЕСКИЙ УНИВЕРСИТЕТ",1026301505120,"443090, Самарская обл., г. Самара, ул. Советской Армии, д. 141", 53.216341, 50.210809,85.22,Образование высшее,https://spark-interfax.ru/samarskaya-oblast-samara/fgu-sgeu-fgaou-vo-samarski-gosudarstvenny-ekonomicheski-universitet-samarski-gosudarstvenny-ekonomicheski-universitet-inn-6318100897-ogrn--6906d9584c3c226ae0531b9aa8c04bb6
"АКЦИОНЕРНОЕ ОБЩЕСТВО ""ФАБРИКА ШКОЛЬНОГО ПИТАНИЯ""",АО ФШП,6330103534,"446200, Самарская обл, г.о. Новокуйбышевск, г Новокуйбышевск, ул Горького, д. 22", 53.102899, 49.952589,56.29,Деятельность предприятий общественного питания по прочим видам организации питания,https://spark-interfax.ru/samarskaya-oblast-novokuibyshevsk/ao-fshp-inn-6330103534-ogrn-1246300035288-6906d9577ec1226ae0531b9aa8c04bb6
"САМАРСКОЕ ОБЛАСТНОЕ ОТДЕЛЕНИЕ ОБЩЕРОССИЙСКОЙ ОБЩЕСТВЕННОЙ ОРГАНИЗАЦИИ ""РОССИЙСКИЙ КРАСНЫЙ КРЕСТ""",САМАРСКОЕ РЕГИОНАЛЬНОЕ ОТДЕЛЕНИЕ РКК,1026300006446,"443013, Самарская обл., г. Самара, ул. Московская, д. 6", 53.201734, 50.146351,88.99,"Предоставление прочих социальных услуг без обеспечения проживания, не включенных в другие группировки",https://spark-interfax.ru/samarskaya-oblast-samara/oo-samarskoe-regionalnoe-otdelenie-rkk-inn-6315942133-ogrn-1026300006446-6906d9585e14226ae0531b9aa8c04bb6
"ОБЩЕСТВО С ОГРАНИЧЕННОЙ ОТВЕТСТВЕННОСТЬЮ ""РОССЫ - ПОРЕЧЬЕ""",ООО РОССЫ - ПОРЕЧЬЕ,2113003782,"429026, Чувашская Республика - Чувашия, Порецкий район, с. Анастасово, ул. Анастасово-1, д. 2А", 55.184617, 46.247152,01.11,"Выращивание зерновых (кроме риса), зернобобовых культур и семян масличных культур",https://spark-interfax.ru/chuvashskaya-respublika-chuvashiya-poretski-raion/ooo-rossy-poreche-inn-2113003782-ogrn-1072138000120-99bb531f29d64fe6ae887b57b6d71e01
"ОБЩЕСТВО С ОГРАНИЧЕННОЙ ОТВЕТСТВЕННОСТЬЮ ""АГРОФИРМА ШАНС""",ООО АГРОФИРМА ШАНС,2103903801,"429361, Чувашская Республика - Чувашия, м.о. Батыревский, с Норваш-Шигали, ул Главной дороги, влд. 9, офис 2", 55.031093, 47.455481,01.1,Выращивание однолетних культур,https://spark-interfax.ru/chuvashskaya-respublika-chuvashiya-batyrevski-raion/ooo-agrofirma-shans-inn-2103903801-ogrn-1072132000160-1013575fa9ae406b86567a43b03cc46c
